time(millisecond),datetime(utc),latitude,longitude,height_above_takeoff(feet),height_above_ground_at_drone_location(feet),ground_elevation_at_drone_location(feet),altitude_above_seaLevel(feet),height_sonar(feet),speed(mph),distance(feet),mileage(feet),satellites,gpslevel,voltage(v),max_altitude(feet),max_ascent(feet),max_speed(mph),max_distance(feet), xSpeed(mph), ySpeed(mph), zSpeed(mph), compass_heading(degrees), pitch(degrees), roll(degrees),isPhoto,isVideo,rc_elevator,rc_aileron,rc_throttle,rc_rudder,rc_elevator(percent),rc_aileron(percent),rc_throttle(percent),rc_rudder(percent),gimbal_heading(degrees),gimbal_pitch(degrees),gimbal_roll(degrees),battery_percent,voltageCell1,voltageCell2,voltageCell3,voltageCell4,voltageCell5,voltageCell6,current(A),battery_temperature(f),altitude(feet),ascent(feet),flycStateRaw,flycState,message
0,2023-07-02 19:35:41,52.2064072439763,0.0867168834508932,0,0,53.958512881528,53.958512881528,0.328084,0,0,0,25,5,0,53.958512881528,0,0,0,0,0,0,273.9, 5.6, 0.1,0,0,1024,1024,1024,1024,0,0,0,0,274,0,0,96,4.246,4.25,4.246,4.247,0,0,0,75.38,53.958512881528,0,41,Motors_Started,"Setting new Return-To-Home altitude to 26m (85 ft). Data Recorder File Index is 48. Setting new Maximum Flight Altitude to 120m (394 ft)"
200,2023-07-02 19:35:41,52.2064072240186,0.0867169661464808,0,0,53.958512881528,53.958512881528,0.328084,0,0.0198717526044,0.0198717526044,25,5,0,53.958512881528,0,0,0.0198717526044,0,0,0,274, 5.6, 0.1,0,0,1024,1024,1024,1024,0,0,0,0,274,0,0,96,4.246,4.25,4.246,4.247,0,0,0,75.38,53.958512881528,0,41,Motors_Started,
400,2023-07-02 19:35:41,52.2064072001994,0.0867170403750597,0,0,53.958512881528,53.958512881528,0.328084,0,0.038550526168,0.038605972364,25,5,0,53.958512881528,0,0,0.038550526168,0,0,0,273.9, 5.6, 0.1,0,0,1024,1024,1024,1024,0,0,0,0,274,0,0,96,4.246,4.25,4.246,4.247,0,0,0,75.38,53.958512881528,0,41,Motors_Started,
600,2023-07-02 19:35:41,52.2064071739139,0.0867171076939277,0,0,53.958512881528,53.958512881528,0,0,0.05627788894,0.056453085796,25,5,0,53.958512881528,0,0,0.05627788894,0,0,0,274, 5.6, 0.1,0,0,1024,1024,1024,1024,0,0,0,0,274,0,0,96,4.246,4.25,4.246,4.247,0,0,0,75.38,53.958512881528,0,41,Motors_Started,
800,2023-07-02 19:35:42,52.2064071594278,0.0867171813249908,0,0,53.958512881528,53.958512881528,0,0,0.073397640144,0.073743768764,25,5,0,53.958512881528,0,0,0.073397640144,0,0,0,274, 5.6, 0.1,0,0,1024,1024,1024,1024,0,0,0,0,274,0,0,96,4.246,4.25,4.246,4.247,0,0,0,75.38,53.958512881528,0,41,Motors_Started,
1000,2023-07-02 19:35:42,52.2064071553772,0.0867172462293318,0,0,53.958512881528,53.958512881528,0,0,0.08731627576,0.088330383404,25,5,17.019,53.958512881528,0,0,0.08731627576,0,0,0,274, 5.6, 0.1,0,0,1024,1024,1024,1024,0,0,0,0,274,0,0,96,4.246,4.25,4.246,4.247,0,0,2.779,75.38,53.958512881528,0,41,Motors_Started,
1200,2023-07-02 19:35:42,52.2064071591531,0.0867173038125487,0,0,53.958512881528,53.958512881528,0,0,0.098951118652,0.101278874632,25,5,17.019,53.958512881528,0,0,0.098951118652,0,0,0,274, 5.6, 0.1,0,0,1024,1024,1024,1024,0,0,0,0,274,0,0,96,4.246,4.25,4.246,4.247,0,0,2.779,75.38,53.958512881528,0,41,Motors_Started,
1400,2023-07-02 19:35:42,52.2064071697552,0.0867173566651142,0,0,53.958512881528,53.958512881528,0,0,0.109214570424,0.113712930148,25,5,17.019,53.958512881528,0,0,0.109214570424,0,0,0,274, 5.6, 0.1,0,0,1024,1024,1024,1024,0,0,0,0,274,0,0,96,4.246,4.25,4.246,4.247,0,0,2.779,75.38,53.958512881528,0,41,Motors_Started,
1600,2023-07-02 19:35:42,52.2064072020081,0.0867174041168845,0,0,53.958512881528,53.958512881528,0,0,0.117416670424,0.12955709076,25,5,17.019,53.958512881528,0,0,0.117416670424,0,0,0,274.1, 5.5, 0.1,0,0,1024,1024,1024,1024,0,0,0,0,274,0,0,96,4.246,4.25,4.246,4.247,0,0,2.779,75.38,53.958512881528,0,11,AutoTakeoff,
1800,2023-07-02 19:35:43,52.2064072508668,0.0867174591552807,0,0,53.958512881528,53.958512881528,0,0,0.128744426692,0.151218180692,25,5,17.019,53.958512881528,0,0,0.128744426692,0,0,0,274.2, 5.4, 0.2,0,0,1024,1024,1024,1024,0,0,0,0,274,0,0,96,4.246,4.25,4.246,4.247,0,0,2.779,75.38,53.958512881528,0,11,AutoTakeoff,
2000,2023-07-02 19:35:43,52.2064072963989,0.0867175993372114,0,0,53.958512881528,53.958512881528,0,0,0.161201120644,0.18669127894,25,5,17.081,53.958512881528,0,0,0.161201120644,0,0,0,274.3, 0.3, 0.1,0,0,1024,1024,1024,1024,0,0,0,0,274,0,0,96,4.277,4.28,4.271,4.268,0,0,3.932,75.56,53.958512881528,0,11,AutoTakeoff,
2200,2023-07-02 19:35:43,52.2064073615487,0.0867177778564767,0,0,53.958512881528,53.958512881528,0.328084,0,0.20452592518,0.233147317172,25,5,17.081,53.958512881528,0,0,0.20452592518,0,0,-0.671082,274.4, -1, -0.3,0,0,1024,1024,1418,1024,0,0,60,0,274,0,0,96,4.277,4.28,4.271,4.268,0,0,3.932,75.56,53.958512881528,0,11,AutoTakeoff,
2400,2023-07-02 19:35:43,52.206407415652,0.0867178103977667,0.328084,0.328084,53.958512881528,54.286596881528,0.328084,0,0.2165108337,0.254185047504,25,5,17.081,54.286596881528,0.328084,0,0.2165108337,0,0,-0.894776,274.3, 0.4, 0,0,0,1024,1024,1684,1024,0,0,100,0,274,0,0,96,4.277,4.28,4.271,4.268,0,0,3.932,75.56,54.286596881528,0.328084,11,AutoTakeoff,
2600,2023-07-02 19:35:43,52.2064074481498,0.0867178296274852,0.656168,0.656168,53.958512881528,54.614680881528,0.984252,0,0.224284455996,0.266797252632,25,5,17.081,54.614680881528,0.656168,0,0.224284455996,0,0,-1.789552,274.5, 0.3, 0,0,0,1024,1024,1684,1024,0,0,100,0,274,0,0,96,4.277,4.28,4.271,4.268,0,0,3.932,75.56,54.614680881528,0.656168,11,AutoTakeoff,
2800,2023-07-02 19:35:44,52.2064074585968,0.0867178961624074,1.64042,1.64042,53.958512881528,55.598932881528,1.64042,0,0.239585965672,0.282154208504,25,5,17.081,55.598932881528,1.64042,0,0.239585965672,0,0,-3.35541,274.7, -0.1, -0.1,0,0,1024,1024,1684,1024,0,0,100,0,274,0,0,96,4.277,4.28,4.271,4.268,0,0,3.932,75.56,55.598932881528,1.64042,11,AutoTakeoff,
3000,2023-07-02 19:35:44,52.2064075335702,0.0867179341644516,2.952756,2.952756,53.958512881528,56.911268881528,2.952756,0,0.25759187176,0.310797582124,26,5,16.836,56.911268881528,2.952756,0,0.25759187176,0,0,-5.144962,274.1, -0.3, -0.6,0,0,1024,1024,1684,1024,0,0,100,0,274,0,0,96,4.173,4.178,4.17,4.17,0,0,5.882,75.38,56.911268881528,2.952756,11,AutoTakeoff,
3200,2023-07-02 19:35:44,52.2064076393984,0.0867179367325352,4.92126,4.92126,53.958512881528,58.879772881528,4.92126,0,0.276177174192,0.34941274084,26,5,16.836,58.879772881528,4.92126,0,0.276177174192,0,0,-7.381902,274.3, 0.4, -1.1,0,0,1024,1024,1684,1024,0,0,100,0,274,0,0,96,4.173,4.178,4.17,4.17,0,0,5.882,75.38,58.879772881528,4.92126,6,P-GPS,
3400,2023-07-02 19:35:44,52.206407676407,0.0867180948543542,7.874016,7.874016,53.958512881528,61.832528881528,7.545932,0,0.313454406356,0.38725723024,26,5,16.836,61.832528881528,7.874016,0,0.313454406356,0,0,-9.618842,274.1, -0.2, -0.2,0,0,1024,1024,1684,1024,0,0,100,0,274,0,0,96,4.173,4.178,4.17,4.17,0,0,5.882,75.38,61.832528881528,7.874016,6,P-GPS,
3600,2023-07-02 19:35:45,52.2064077692863,0.0867183716160837,11.48294,11.48294,53.958512881528,65.441452881528,10.826772,0,0.38398623276,0.4578084136,26,5,16.836,65.441452881528,11.48294,0,0.38398623276,0,0,-11.632088,274.2, -2.6, 0,0,0,1024,1024,1594,1024,0,0,86,0,274,0,0,96,4.173,4.178,4.17,4.17,0,0,5.882,75.38,65.441452881528,11.48294,6,P-GPS,
3800,2023-07-02 19:35:45,52.2064079817458,0.0867184834885906,16.076116,16.076116,53.958512881528,70.034628881528,14.435696,0,0.4477034264,0.53926182828,26,5,16.836,70.034628881528,16.076116,0,0.4477034264,0,0,-12.974252,274.1, -2.8, -0.5,0,0,1024,1024,1024,1024,0,0,0,0,274,0,0,96,4.173,4.178,4.17,4.17,0,0,5.882,75.38,70.034628881528,16.076116,6,P-GPS,
4000,2023-07-02 19:35:45,52.2064082806654,0.0867184539555209,20.341208,20.341208,53.958512881528,74.299720881528,18.372704,0,0.51610565956,0.64852036196,26,5,16.424,74.299720881528,20.341208,0,0.51610565956,0,0,-12.079476,274.1, -3.3, -1.5,0,0,1024,1024,1024,1024,0,0,0,0,274,0,0,95,4.081,4.088,4.083,4.093,0,0,13.127,75.2,74.299720881528,20.341208,6,P-GPS,
4200,2023-07-02 19:35:45,52.206408605242,0.0867183248036585,23.950132,23.950132,53.958512881528,77.908644881528,21.653544,0,0.59205054388,0.77041341048,26,5,16.424,77.908644881528,23.950132,0,0.59205054388,0,0,-10.289924,274.1, -3.5, -1.6,0,0,1024,1024,1024,1024,0,0,0,0,274,0,0,95,4.081,4.088,4.083,4.093,0,0,13.127,75.2,77.908644881528,23.950132,6,P-GPS,
4400,2023-07-02 19:35:45,52.2064089390286,0.0867181037953564,26.24672,26.24672,53.958512881528,80.205232881528,24.6063,0,0.67595474604,0.9018372992,26,5,16.424,80.205232881528,26.24672,0,0.67595474604,0,0,-8.052984,274.2, -3.5, -1.6,0,0,1396,1024,1024,1024,56,0,0,0,274,0,0,95,4.081,4.088,4.083,4.093,0,0,13.127,75.2,80.205232881528,26.24672,6,P-GPS,
4600,2023-07-02 19:35:46,52.2064092415867,0.0867178710746101,27.559056,27.559056,53.958512881528,81.517568881528,26.902888,0,0.76154529996,1.02387470468,27,5,16.424,81.517568881528,27.559056,0,0.76154529996,0,0,-5.816044,274.8, -1.4, -0.8,0,0,1411,1024,1024,1024,59,0,0,0,274,0,0,95,4.081,4.088,4.083,4.093,0,0,13.127,75.2,81.517568881528,27.559056,6,P-GPS,
4800,2023-07-02 19:35:46,52.2064095252826,0.0867176593716517,28.871392,28.8385836,53.991321281528,82.829904881528,28.215224,0,0.85021984348,1.13769032512,27,5,16.424,82.829904881528,28.871392,0,0.85021984348,0,0,-3.35541,275.8, -14.9, -0.4,0,0,1024,1024,1024,1024,0,0,0,0,274,0,0,95,4.081,4.088,4.083,4.093,0,0,13.127,75.2,82.829904881528,28.871392,6,P-GPS,
5000,2023-07-02 19:35:46,52.2064097869016,0.086717172729436,28.871392,28.8385836,53.991321281528,82.829904881528,29.199476,0.447388,0.930036119,1.2824311434,27,5,16.892,82.829904881528,28.871392,0.447388,0.930036119,0,-0.447388,-1.11847,276.1, -2.7, -0.7,0,0,1024,1024,1024,1024,0,0,0,0,274,0,0,95,4.212,4.227,4.24,4.244,0,0,8.531,75.74,82.829904881528,28.871392,6,P-GPS,
5200,2023-07-02 19:35:46,52.2064099775372,0.0867166638230698,28.871392,28.8385836,53.991321281528,82.829904881528,29.52756,0.223694,0.99854661988,1.41579072772,27,5,16.892,82.829904881528,28.871392,0.447388,0.99854661988,0,-0.223694,0,275.9, 1.4, -2.1,0,0,1024,1024,364,1024,0,0,-100,0,274,0,0,95,4.212,4.227,4.24,4.244,0,0,8.531,75.74,82.829904881528,28.871392,6,P-GPS,
5400,2023-07-02 19:35:46,52.2064101401721,0.0867162518387574,28.543308,28.5104996,53.991321281528,82.501820881528,29.52756,0,1.06606958792,1.5253609412,27,5,16.892,82.829904881528,28.871392,0.447388,1.06606958792,0,0,0.894776,275.9, -1, -2,0,0,1024,1024,364,1024,0,0,-100,0,274,0,0,95,4.212,4.227,4.24,4.244,0,0,8.531,75.74,82.501820881528,28.543308,6,P-GPS,
5600,2023-07-02 19:35:47,52.206410288159,0.0867160777114676,27.88714,27.8543316,53.991321281528,81.845652881528,28.871392,0,1.12518376304,1.59192590396,27,5,16.892,82.829904881528,28.871392,0.447388,1.12518376304,0,0,2.684328,279.7, -1.5, -2.4,0,0,1024,1024,1024,1024,0,0,0,0,274,0,0,95,4.212,4.227,4.24,4.244,0,0,8.531,75.74,81.845652881528,27.88714,6,P-GPS,
5800,2023-07-02 19:35:47,52.2064104117871,0.0867160369930257,26.574804,26.5419956,53.991321281528,80.533316881528,28.215224,0.223694,1.17116801648,1.6379429658,27,5,16.892,82.829904881528,28.871392,0.447388,1.17116801648,0.223694,0,3.131716,280.2, -1, -4.5,0,0,1024,1024,1024,1024,0,0,0,0,274,0,0,95,4.212,4.227,4.24,4.244,0,0,8.531,75.74,80.533316881528,26.574804,6,P-GPS,
6000,2023-07-02 19:35:47,52.2064103385184,0.0867160615421196,25.918636,25.8858276,53.991321281528,79.877148881528,27.559056,0,1.14390095524,1.66523299292,27,5,16.889,82.829904881528,28.871392,0.447388,1.17116801648,0,0,1.565858,281.5, -1.5, -6.8,0,0,1024,1024,1024,1024,0,0,0,0,274,0,0,95,4.225,4.226,4.221,4.23,0,0,4.762,75.74,79.877148881528,25.918636,6,P-GPS,
6200,2023-07-02 19:35:47,52.2064098747343,0.0867160018040617,25.918636,25.8858276,53.991321281528,79.877148881528,26.902888,0.223694,0.97986223608,1.83497053116,27,5,16.889,82.829904881528,28.871392,0.447388,1.17116801648,-0.223694,0,0.223694,282.2, -4.4, -4.6,0,0,1024,1024,1024,1024,0,0,0,0,274,0,0,95,4.225,4.226,4.221,4.23,0,0,4.762,75.74,79.877148881528,25.918636,6,P-GPS,
6400,2023-07-02 19:35:47,52.2064091649832,0.0867156708031328,25.590552,25.590552,53.958512881528,79.549064881528,26.902888,0.223694,0.7514928062,2.10429140592,27,5,16.889,82.829904881528,28.871392,0.447388,1.17116801648,-0.223694,0,0,282.5, -3.1, -2.9,0,0,1024,1024,1024,1024,0,0,0,0,274,0,0,95,4.225,4.226,4.221,4.23,0,0,4.762,75.74,79.549064881528,25.590552,6,P-GPS,
6600,2023-07-02 19:35:47,52.2064084140033,0.0867152517745686,25.590552,25.590552,53.958512881528,79.549064881528,26.902888,0.3131716,0.56153545104,2.39385834432,27,5,16.889,82.829904881528,28.871392,0.447388,1.17116801648,-0.223694,-0.223694,0,282.6, -1.6, -0.6,0,0,1024,1024,1024,1024,0,0,0,0,274,0,0,95,4.225,4.226,4.221,4.23,0,0,4.762,75.74,79.549064881528,25.590552,6,P-GPS,
6800,2023-07-02 19:35:48,52.2064077238918,0.0867149188765036,25.590552,25.590552,53.958512881528,79.549064881528,26.902888,0.223694,0.47286418836,2.65641740784,27,5,16.889,82.829904881528,28.871392,0.447388,1.17116801648,-0.223694,0,0,282, -0.5, 1.2,0,0,1024,1024,1024,1024,0,0,0,0,274,0,0,95,4.225,4.226,4.221,4.23,0,0,4.762,75.74,79.549064881528,25.590552,6,P-GPS,
7000,2023-07-02 19:35:48,52.2064071923355,0.086714791321748,25.590552,25.590552,53.958512881528,79.549064881528,26.574804,0.223694,0.46814962128,2.85244103616,27,5,16.746,82.829904881528,28.871392,0.447388,1.17116801648,-0.223694,0,0,281.8, -1, 1.9,0,0,1024,1024,1024,1024,0,0,0,0,274,0,0,95,4.19,4.198,4.194,4.199,0,0,8.053,75.74,79.549064881528,25.590552,6,P-GPS,
7200,2023-07-02 19:35:48,52.2064068555175,0.0867148532644489,25.590552,25.590552,53.958512881528,79.549064881528,26.574804,0,0.47553479212,2.97610573828,27,5,16.746,82.829904881528,28.871392,0.447388,1.17116801648,0,0,0,281.9, -1.5, 1.4,0,0,1024,1024,1024,1024,0,0,0,0,274,0,0,95,4.19,4.198,4.194,4.199,0,0,8.053,75.74,79.549064881528,25.590552,6,P-GPS,
7400,2023-07-02 19:35:48,52.206406692042,0.0867150320267178,25.590552,25.590552,53.958512881528,79.549064881528,26.574804,0,0.4603346604,3.04790364084,27,5,16.746,82.829904881528,28.871392,0.447388,1.17116801648,0,0,0,281.9, -1.9, 0.1,0,0,1024,1024,1024,1024,0,0,0,0,274,0,0,95,4.19,4.198,4.194,4.199,0,0,8.053,75.74,79.549064881528,25.590552,6,P-GPS,
7600,2023-07-02 19:35:48,52.2064066501514,0.0867152610480214,25.590552,25.590552,53.958512881528,79.549064881528,26.574804,0,0.4225229794,3.10134196276,27,5,16.746,82.829904881528,28.871392,0.447388,1.17116801648,0,0,0,282.1, -2, -1.4,0,0,1024,1024,1024,1024,0,0,0,0,274,0,0,95,4.19,4.198,4.194,4.199,0,0,8.053,75.74,79.549064881528,25.590552,6,P-GPS,
7800,2023-07-02 19:35:49,52.2064066558928,0.086715493907075,25.590552,25.590552,53.958512881528,79.549064881528,26.574804,0,0.37757219056,3.15344826364,27,5,16.746,82.829904881528,28.871392,0.447388,1.17116801648,0,0,0,282.1, -3.2, -1.2,0,0,1024,1024,1024,1024,0,0,0,0,274,0,0,95,4.19,4.198,4.194,4.199,0,0,8.053,75.74,79.549064881528,25.590552,6,P-GPS,
8000,2023-07-02 19:35:49,52.206406704268,0.0867156381971721,25.590552,25.590552,53.958512881528,79.549064881528,26.574804,0,0.34101707128,3.1902231992,27,5,16.779,82.829904881528,28.871392,0.447388,1.17116801648,0,0,0,282, -3.3, -2,0,0,1024,1024,1024,1024,0,0,0,0,274,0,0,95,4.187,4.199,4.193,4.197,0,0,6.803,75.92,79.549064881528,25.590552,6,P-GPS,
8200,2023-07-02 19:35:49,52.2064067466175,0.0867156856880576,25.590552,25.590552,53.958512881528,79.549064881528,26.574804,0,0.323491808252,3.20896991896,27,5,16.779,82.829904881528,28.871392,0.447388,1.17116801648,0,0,0,282.1, -3.9, -1.8,0,0,1024,1024,1024,1024,0,0,0,0,274,0,0,95,4.187,4.199,4.193,4.197,0,0,6.803,75.92,79.549064881528,25.590552,6,P-GPS,
8400,2023-07-02 19:35:49,52.2064067966189,0.0867156086520888,25.590552,25.590552,53.958512881528,79.549064881528,26.574804,0,0.32845145408,3.23406178328,27,5,16.779,82.829904881528,28.871392,0.447388,1.17116801648,0,0,0,282.2, -3.5, -1.7,0,0,1024,1024,1024,1024,0,0,0,0,274,0,0,95,4.187,4.199,4.193,4.197,0,0,6.803,75.92,79.549064881528,25.590552,6,P-GPS,
8600,2023-07-02 19:35:49,52.2064068777904,0.0867154002017741,25.590552,25.590552,53.958512881528,79.549064881528,26.574804,0,0.35753610068,3.2892717588,27,5,16.779,82.829904881528,28.871392,0.447388,1.17116801648,0,0,0,282.2, -2.9, -1.8,0,0,1024,1024,1024,1024,0,0,0,0,274,0,0,95,4.187,4.199,4.193,4.197,0,0,6.803,75.92,79.549064881528,25.590552,6,P-GPS,
8800,2023-07-02 19:35:50,52.20640697888,0.0867151380630981,25.590552,25.590552,53.958512881528,79.549064881528,26.574804,0,0.40205381864,3.3585302912,27,5,16.779,82.829904881528,28.871392,0.447388,1.17116801648,0,0,0,282, -1.8, -2.1,0,0,1024,1024,1024,1024,0,0,0,0,274,0,0,95,4.187,4.199,4.193,4.197,0,0,6.803,75.92,79.549064881528,25.590552,6,P-GPS,
9000,2023-07-02 19:35:50,52.2064070496642,0.0867149150006787,25.590552,25.590552,53.958512881528,79.549064881528,26.574804,0,0.44579069668,3.414698272,27,5,16.772,82.829904881528,28.871392,0.447388,1.17116801648,0,0,0,282, -1.3, -2.2,0,0,1024,1024,1024,1024,0,0,0,0,274,0,0,95,4.19,4.197,4.191,4.195,0,0,6.861,75.92,79.549064881528,25.590552,6,P-GPS,
9200,2023-07-02 19:35:50,52.2064070746694,0.0867148046156813,25.590552,25.590552,53.958512881528,79.549064881528,26.574804,0,0.46888781028,3.4410106088,27,5,16.772,82.829904881528,28.871392,0.447388,1.17116801648,0,0,0,282, -1.7, -2.3,0,0,1024,1024,1024,1024,0,0,0,0,274,0,0,95,4.19,4.197,4.191,4.195,0,0,6.861,75.92,79.549064881528,25.590552,6,P-GPS,
9400,2023-07-02 19:35:50,52.2064070753119,0.0867147852657169,25.262468,25.262468,53.958512881528,79.220980881528,26.574804,0,0.4731463406,3.4453413176,27,5,16.772,82.829904881528,28.871392,0.447388,1.17116801648,0,0,0,282, -1.6, -2.2,0,0,1024,1024,1024,1024,0,0,0,0,274,0,0,95,4.19,4.197,4.191,4.195,0,0,6.861,75.92,79.220980881528,25.262468,6,P-GPS,
9600,2023-07-02 19:35:50,52.2064070832181,0.0867148394231843,25.262468,25.262468,53.958512881528,79.220980881528,26.574804,0,0.46076445044,3.4577757012,27,5,16.772,82.829904881528,28.871392,0.447388,1.17116801648,0,0,0,281.9, -1.6, -2,0,0,1024,1024,1024,1024,0,0,0,0,274,0,0,95,4.19,4.197,4.191,4.195,0,0,6.861,75.92,79.220980881528,25.262468,6,P-GPS,
9800,2023-07-02 19:35:51,52.2064071001785,0.0867149338988748,25.262468,25.262468,53.958512881528,79.220980881528,26.574804,0,0.43903872796,3.4797901376,27,5,16.772,82.829904881528,28.871392,0.447388,1.17116801648,0,0,0,282, -1.9, -2.4,0,0,1024,1024,1024,1024,0,0,0,0,274,0,0,95,4.19,4.197,4.191,4.195,0,0,6.861,75.92,79.220980881528,25.262468,6,P-GPS,
10000,2023-07-02 19:35:51,52.2064070934261,0.086715060495268,25.262468,25.262468,53.958512881528,79.220980881528,26.574804,0,0.41127297904,3.508202212,27,5,16.777,82.829904881528,28.871392,0.447388,1.17116801648,0,0,0,282, -1.9, -2.6,0,0,1024,1024,1024,1024,0,0,0,0,274,0,0,95,4.188,4.197,4.192,4.195,0,0,6.715,75.92,79.220980881528,25.262468,6,P-GPS,
10200,2023-07-02 19:35:51,52.2064070754629,0.0867152109801676,25.262468,25.262468,53.958512881528,79.220980881528,26.574804,0,0.37896326672,3.54248699,27,5,16.777,82.829904881528,28.871392,0.447388,1.17116801648,0,0,0,282, -2.1, -2.5,0,0,1024,1024,1024,1024,0,0,0,0,274,0,0,95,4.188,4.197,4.192,4.195,0,0,6.715,75.92,79.220980881528,25.262468,6,P-GPS,
10400,2023-07-02 19:35:51,52.2064070284396,0.0867153713725137,25.262468,25.262468,53.958512881528,79.220980881528,26.574804,0,0.34710631032,3.5822507708,27,5,16.777,82.829904881528,28.871392,0.447388,1.17116801648,0,0,0,282, -2.2, -1.9,0,0,1024,1024,1024,1024,0,0,0,0,274,0,0,95,4.188,4.197,4.192,4.195,0,0,6.715,75.92,79.220980881528,25.262468,6,P-GPS,
10600,2023-07-02 19:35:52,52.2064069615775,0.0867155303680261,25.262468,25.262468,53.958512881528,79.220980881528,26.574804,0,0.3195948265,3.6253610084,27,5,16.777,82.829904881528,28.871392,0.447388,1.17116801648,0,0,0,282.1, -2.4, -1.4,0,0,1024,1024,1024,1024,0,0,0,0,274,0,0,95,4.188,4.197,4.192,4.195,0,0,6.715,75.92,79.220980881528,25.262468,6,P-GPS,
10800,2023-07-02 19:35:52,52.2064069018747,0.0867156775722343,25.262468,25.262468,53.958512881528,79.220980881528,26.574804,0,0.297107621056,3.6648295136,27,5,16.777,82.829904881528,28.871392,0.447388,1.17116801648,0,0,0,282.1, -2.2, -1.3,0,0,1024,1024,1024,1024,0,0,0,0,274,0,0,95,4.188,4.197,4.192,4.195,0,0,6.715,75.92,79.220980881528,25.262468,6,P-GPS,
11000,2023-07-02 19:35:52,52.2064068528826,0.0867158165876455,25.262468,25.262468,53.958512881528,79.220980881528,26.574804,0,0.277957029892,3.7006890948,27,5,16.753,82.829904881528,28.871392,0.447388,1.17116801648,0,0,0,282, -2.3, -1.2,1,0,1024,1024,1024,1024,0,0,0,0,274,0,0,95,4.184,4.191,4.186,4.19,0,0,6.83,76.1,79.220980881528,25.262468,6,P-GPS,
11200,2023-07-02 19:35:52,52.2064068171714,0.0867159727334633,25.262468,25.262468,53.958512881528,79.220980881528,26.574804,0,0.256342199804,3.7379594372,27,5,16.753,82.829904881528,28.871392,0.447388,1.17116801648,0,0,0,282.1, -2.3, -1,0,0,1024,1024,1024,1024,0,0,0,0,274,0,0,95,4.184,4.191,4.186,4.19,0,0,6.83,76.1,79.220980881528,25.262468,6,P-GPS,
11400,2023-07-02 19:35:52,52.2064068061447,0.0867161693060095,25.262468,25.262468,53.958512881528,79.220980881528,26.574804,0,0.225860899616,3.7820867352,27,5,16.753,82.829904881528,28.871392,0.447388,1.17116801648,0,0,0,282.1, -2.6, -1.2,0,0,1024,1024,1024,1024,0,0,0,0,274,0,0,95,4.184,4.191,4.186,4.19,0,0,6.83,76.1,79.220980881528,25.262468,6,P-GPS,
11600,2023-07-02 19:35:53,52.2064068213532,0.0867163767775933,25.262468,25.262468,53.958512881528,79.220980881528,26.574804,0,0.191335636044,3.8288058968,27,5,16.753,82.829904881528,28.871392,0.447388,1.17116801648,0,0,0,282.1, -2.7, -1.4,0,0,1024,1024,1024,1024,0,0,0,0,274,0,0,95,4.184,4.191,4.186,4.19,0,0,6.83,76.1,79.220980881528,25.262468,6,P-GPS,
11800,2023-07-02 19:35:53,52.206406845567,0.0867165595463629,24.934384,24.934384,53.958512881528,78.892896881528,26.902888,0,0.162400923832,3.8706037984,27,5,16.753,82.829904881528,28.871392,0.447388,1.17116801648,0,0,0,282.1, -2.8, -1.9,0,0,1024,1024,1024,1024,0,0,0,0,274,0,0,95,4.184,4.191,4.186,4.19,0,0,6.83,76.1,78.892896881528,24.934384,6,P-GPS,
12000,2023-07-02 19:35:53,52.2064068549398,0.0867167220801438,24.934384,24.934384,53.958512881528,78.892896881528,26.574804,0,0.146453744844,3.9071195476,27,5,16.766,82.829904881528,28.871392,0.447388,1.17116801648,0,0,0,282, -3, -1.8,1,0,1024,1024,1024,1024,0,0,0,0,274,0,0,95,4.185,4.194,4.19,4.193,0,0,6.747,76.1,78.892896881528,24.934384,6,P-GPS,
12200,2023-07-02 19:35:53,52.2064068457806,0.0867168357680238,24.934384,24.934384,53.958512881528,78.892896881528,26.574804,0,0.145672248756,3.932742908,27,5,16.766,82.829904881528,28.871392,0.447388,1.17116801648,0,0,0,282, -2.8, -1.7,0,0,1024,1024,1024,1024,0,0,0,0,274,0,0,95,4.185,4.194,4.19,4.193,0,0,6.747,76.1,78.892896881528,24.934384,6,P-GPS,
12400,2023-07-02 19:35:53,52.2064068138212,0.0867168968246081,24.934384,24.934384,53.958512881528,78.892896881528,26.574804,0,0.15697014938,3.9506891028,27,5,16.766,82.829904881528,28.871392,0.447388,1.17116801648,0,0,0,282.1, -2.9, -1.3,0,0,1024,1024,1024,1024,0,0,0,0,274,0,0,95,4.185,4.194,4.19,4.193,0,0,6.747,76.1,78.892896881528,24.934384,6,P-GPS,
12600,2023-07-02 19:35:54,52.2064067938764,0.0867169404747105,24.934384,24.934384,53.958512881528,78.892896881528,26.574804,0,0.16471293178,3.9628610192,27,5,16.766,82.829904881528,28.871392,0.447388,1.17116801648,0,0,0,282, -2.7, -1.7,0,0,1024,1024,1024,1024,0,0,0,0,274,0,0,95,4.185,4.194,4.19,4.193,0,0,6.747,76.1,78.892896881528,24.934384,6,P-GPS,
12800,2023-07-02 19:35:54,52.2064067591327,0.086716973619523,24.934384,24.934384,53.958512881528,78.892896881528,26.574804,0,0.178040031944,3.9775591824,27,5,16.766,82.829904881528,28.871392,0.447388,1.17116801648,0,0,0,282.1, -2.7, -1.4,0,0,1024,1024,1024,1024,0,0,0,0,274,0,0,95,4.185,4.194,4.19,4.193,0,0,6.747,76.1,78.892896881528,24.934384,6,P-GPS,
13000,2023-07-02 19:35:54,52.2064067195321,0.0867169912107968,24.934384,24.934384,53.958512881528,78.892896881528,26.24672,0,0.192854008796,3.9925198128,27,5,16.757,82.829904881528,28.871392,0.447388,1.17116801648,0,0,0,282.1, -2.7, -1.1,1,0,1024,1024,1024,1024,0,0,0,0,274,0,0,95,4.185,4.194,4.19,4.195,0,0,6.662,76.1,78.892896881528,24.934384,6,P-GPS,
13200,2023-07-02 19:35:54,52.2064066724912,0.0867169860353123,24.934384,24.934384,53.958512881528,78.892896881528,26.24672,0,0.20976378624,4.0097442228,27,5,16.757,82.829904881528,28.871392,0.447388,1.17116801648,0,0,0,282, -2.5, -1.4,0,0,1024,1024,1024,1024,0,0,0,0,274,0,0,95,4.185,4.194,4.19,4.195,0,0,6.662,76.1,78.892896881528,24.934384,6,P-GPS,
13400,2023-07-02 19:35:54,52.2064065969481,0.0867169677264954,24.934384,24.934384,53.958512881528,78.892896881528,26.574804,0,0.236818577132,4.0375985544,27,5,16.757,82.829904881528,28.871392,0.447388,1.17116801648,0,0,0,282, -2.2, -1.5,0,0,1024,1024,1024,1024,0,0,0,0,274,0,0,95,4.185,4.194,4.19,4.195,0,0,6.662,76.1,78.892896881528,24.934384,6,P-GPS,
13600,2023-07-02 19:35:55,52.2064065066865,0.086716959979651,24.934384,24.934384,53.958512881528,78.892896881528,26.24672,0,0.269543315712,4.0705709964,27,5,16.757,82.829904881528,28.871392,0.447388,1.17116801648,0,0,0,282.1, -2.2, -1.4,0,0,1024,1024,1024,1024,0,0,0,0,274,0,0,95,4.185,4.194,4.19,4.195,0,0,6.662,76.1,78.892896881528,24.934384,6,P-GPS,
13800,2023-07-02 19:35:55,52.2064064085241,0.0867169683423593,24.934384,24.9671924,53.925704481528,78.892896881528,26.24672,0,0.305404537332,4.1064305776,27,5,16.757,82.829904881528,28.871392,0.447388,1.17116801648,0,0,0,282.1, -2.5, -1,0,0,1024,1024,1024,1024,0,0,0,0,274,0,0,95,4.185,4.194,4.19,4.195,0,0,6.662,76.1,78.892896881528,24.934384,6,P-GPS,
14000,2023-07-02 19:35:55,52.2064063134105,0.0867169817724291,24.934384,24.9671924,53.925704481528,78.892896881528,26.24672,0,0.34022638884,4.1412730984,27,5,16.739,82.829904881528,28.871392,0.447388,1.17116801648,0,0,0,282.1, -2.5, -0.7,1,0,1024,1024,1024,1024,0,0,0,0,274,0,0,95,4.181,4.19,4.186,4.189,0,0,6.883,76.46,78.892896881528,24.934384,6,P-GPS,
14200,2023-07-02 19:35:55,52.206406252497,0.0867170097275592,24.934384,24.9671924,53.925704481528,78.892896881528,26.24672,0,0.36284121896,4.164370212,27,5,16.739,82.829904881528,28.871392,0.447388,1.17116801648,0,0,0,282.1, -2.3, -0.9,0,0,1024,1024,1024,1024,0,0,0,0,274,0,0,95,4.181,4.19,4.186,4.189,0,0,6.883,76.46,78.892896881528,24.934384,6,P-GPS,
14400,2023-07-02 19:35:55,52.2064062135797,0.0867170509619332,24.934384,24.9671924,53.925704481528,78.892896881528,26.574804,0,0.37780184936,4.1812993464,27,5,16.739,82.829904881528,28.871392,0.447388,1.17116801648,0,0,0,282, -2.2, -1.2,0,0,1024,1024,1024,1024,0,0,0,0,274,0,0,95,4.181,4.19,4.186,4.189,0,0,6.883,76.46,78.892896881528,24.934384,6,P-GPS,
14600,2023-07-02 19:35:55,52.2064061767569,0.0867170851563027,24.934384,24.9671924,53.925704481528,78.892896881528,26.574804,0,0.391978359,4.1967521028,27,5,16.739,82.829904881528,28.871392,0.447388,1.17116801648,0,0,0,282, -2.1, -1.4,0,0,1024,1024,1024,1024,0,0,0,0,274,0,0,95,4.181,4.19,4.186,4.189,0,0,6.883,76.46,78.892896881528,24.934384,6,P-GPS,
14800,2023-07-02 19:35:56,52.2064061275389,0.086717140293757,24.934384,24.9671924,53.925704481528,78.892896881528,26.574804,0,0.41135828088,4.2185368804,27,5,16.739,82.829904881528,28.871392,0.447388,1.17116801648,0,0,0,282.1, -2, -1.2,0,0,1024,1024,1024,1024,0,0,0,0,274,0,0,95,4.181,4.19,4.186,4.189,0,0,6.883,76.46,78.892896881528,24.934384,6,P-GPS,
15000,2023-07-02 19:35:56,52.2064060634337,0.0867172429076642,24.934384,24.9671924,53.925704481528,78.892896881528,26.574804,0,0.43815290116,4.2512796636,27,5,16.741,82.829904881528,28.871392,0.447388,1.17116801648,0,0,0,282.1, -2.3, -0.7,1,0,1024,1024,1024,1024,0,0,0,0,274,0,0,95,4.179,4.187,4.183,4.185,0,0,6.864,76.46,78.892896881528,24.934384,6,P-GPS,
15200,2023-07-02 19:35:56,52.2064060108703,0.0867173708428705,24.934384,24.9671924,53.925704481528,78.892896881528,26.574804,0,0.46290683896,4.2857284836,27,5,16.741,82.829904881528,28.871392,0.447388,1.17116801648,0,0,0,282.1, -2.3, -1,0,0,1024,1024,1024,1024,0,0,0,0,274,0,0,95,4.179,4.187,4.183,4.185,0,0,6.864,76.46,78.892896881528,24.934384,6,P-GPS,
15400,2023-07-02 19:35:56,52.2064059678178,0.0867175026364274,24.934384,24.9671924,53.925704481528,78.892896881528,26.574804,0,0.48575132788,4.3191274348,27,5,16.741,82.829904881528,28.871392,0.447388,1.17116801648,0,0,0,282.1, -2.4, -0.6,0,0,1024,1024,1024,1024,0,0,0,0,274,0,0,95,4.179,4.187,4.183,4.185,0,0,6.864,76.46,78.892896881528,24.934384,6,P-GPS,
15600,2023-07-02 19:35:56,52.2064059297192,0.0867176270933517,24.934384,24.9671924,53.925704481528,78.892896881528,26.574804,0,0.5075131396,4.350229798,27,5,16.741,82.829904881528,28.871392,0.447388,1.17116801648,0,0,0,282, -2.3, -0.9,0,0,1024,1024,1024,1024,0,0,0,0,274,0,0,95,4.179,4.187,4.183,4.185,0,0,6.864,76.46,78.892896881528,24.934384,6,P-GPS,
15800,2023-07-02 19:35:57,52.2064059047241,0.0867177605773396,24.934384,24.9671924,53.925704481528,78.892896881528,26.574804,0,0.52651248404,4.3814305864,27,5,16.741,82.829904881528,28.871392,0.447388,1.17116801648,0,0,0,282.1, -2.3, -1,0,0,1024,1024,1024,1024,0,0,0,0,274,0,0,95,4.179,4.187,4.183,4.185,0,0,6.864,76.46,78.892896881528,24.934384,6,P-GPS,
16000,2023-07-02 19:35:57,52.2064058850662,0.0867178833342219,24.934384,24.9671924,53.925704481528,78.892896881528,26.574804,0,0.54387140848,4.4098098524,27,5,16.741,82.829904881528,28.871392,0.447388,1.17116801648,0,0,0,282.1, -2.1, -0.9,0,0,1024,1024,1024,1024,0,0,0,0,274,0,0,95,4.176,4.185,4.18,4.184,0,0,6.864,76.46,78.892896881528,24.934384,6,P-GPS,
16200,2023-07-02 19:35:57,52.2064058737504,0.0867179855610708,24.934384,24.9671924,53.925704481528,78.892896881528,26.24672,0,0.55735894172,4.4330381996,27,5,16.741,82.829904881528,28.871392,0.447388,1.17116801648,0,0,0,282.2, -2.2, -0.9,0,0,1024,1024,1024,1024,0,0,0,0,274,0,0,95,4.176,4.185,4.18,4.184,0,0,6.864,76.46,78.892896881528,24.934384,6,P-GPS,
16400,2023-07-02 19:35:57,52.2064059001419,0.0867180786564465,24.934384,24.9671924,53.925704481528,78.892896881528,26.574804,0,0.55839568716,4.4559712712,27,5,16.741,82.829904881528,28.871392,0.447388,1.17116801648,0,0,0,282, -1.7, -1.7,0,0,1024,1024,1024,1024,0,0,0,0,274,0,0,95,4.176,4.185,4.18,4.184,0,0,6.864,76.46,78.892896881528,24.934384,6,P-GPS,
16600,2023-07-02 19:35:57,52.2064059141584,0.0867181726379933,24.934384,24.9671924,53.925704481528,78.892896881528,26.24672,0,0.56434713092,4.4775920068,27,5,16.741,82.829904881528,28.871392,0.447388,1.17116801648,0,0,0,282, -1.7, -1.8,0,0,1024,1024,1024,1024,0,0,0,0,274,0,0,95,4.176,4.185,4.18,4.184,0,0,6.864,76.46,78.892896881528,24.934384,6,P-GPS,
16800,2023-07-02 19:35:58,52.2064058990603,0.0867182737591488,24.934384,24.9671924,53.925704481528,78.892896881528,26.24672,0,0.58086944116,4.5008531624,27,5,16.741,82.829904881528,28.871392,0.447388,1.17116801648,0,0,0,282, -1.6, -2.1,0,0,1024,1024,1024,1024,0,0,0,0,274,0,0,95,4.176,4.185,4.18,4.184,0,0,6.864,76.46,78.892896881528,24.934384,6,P-GPS,
17000,2023-07-02 19:35:58,52.2064058409273,0.0867183830609509,24.934384,24.9671924,53.925704481528,78.892896881528,26.24672,0,0.61193571512,4.5332022448,27,5,16.722,82.829904881528,28.871392,0.447388,1.17116801648,0,0,0,281.9, -1.7, -2,0,0,1024,1024,1024,1024,0,0,0,0,274,0,0,95,4.178,4.186,4.181,4.182,0,0,6.937,76.64,78.892896881528,24.934384,6,P-GPS,
17200,2023-07-02 19:35:58,52.2064057539978,0.0867185045100918,24.934384,24.9671924,53.925704481528,78.892896881528,26.24672,0,0.65336616264,4.574967338,27,5,16.722,82.829904881528,28.871392,0.447388,1.17116801648,0,0,0,282.1, -2.3, -1.6,0,0,1024,1024,1024,1024,0,0,0,0,274,0,0,95,4.178,4.186,4.181,4.182,0,0,6.937,76.64,78.892896881528,24.934384,6,P-GPS,
17400,2023-07-02 19:35:58,52.2064056802002,0.0867186257296625,24.934384,24.9671924,53.925704481528,78.892896881528,26.24672,0,0.6908464788,4.613189124,27,5,16.722,82.829904881528,28.871392,0.447388,1.17116801648,0,0,0,282.1, -2.4, -1.5,0,0,1024,1024,1024,1024,0,0,0,0,274,0,0,95,4.178,4.186,4.181,4.182,0,0,6.937,76.64,78.892896881528,24.934384,6,P-GPS,
17600,2023-07-02 19:35:58,52.2064056231949,0.0867187358691444,24.934384,24.9671924,53.925704481528,78.892896881528,26.24672,0,0.72195868452,4.6454069728,27,5,16.722,82.829904881528,28.871392,0.447388,1.17116801648,0,0,0,282.1, -2.3, -2,0,0,1024,1024,1024,1024,0,0,0,0,274,0,0,95,4.178,4.186,4.181,4.182,0,0,6.937,76.64,78.892896881528,24.934384,6,P-GPS,
17800,2023-07-02 19:35:59,52.2064055576799,0.0867188335093966,24.934384,24.9671924,53.925704481528,78.892896881528,26.24672,0,0.75407482728,4.6777888636,27,5,16.722,82.829904881528,28.871392,0.447388,1.17116801648,0,0,0,282.1, -2.3, -2.2,0,0,1024,1024,1024,1024,0,0,0,0,274,0,0,95,4.178,4.186,4.181,4.182,0,0,6.937,76.64,78.892896881528,24.934384,6,P-GPS,
18000,2023-07-02 19:35:59,52.2064054893678,0.0867189210592671,24.934384,24.9671924,53.925704481528,78.892896881528,26.24672,0,0.7857283716,4.709481778,27,5,16.718,82.829904881528,28.871392,0.447388,1.17116801648,0,0,0,282.1, -2.5, -2.3,0,0,1024,1024,1024,1024,0,0,0,0,274,0,0,95,4.176,4.182,4.18,4.183,0,0,6.91,76.64,78.892896881528,24.934384,6,P-GPS,
18200,2023-07-02 19:35:59,52.2064054213406,0.0867189902893991,24.934384,24.9671924,53.925704481528,78.892896881528,26.24672,0,0.8149278476,4.7387140624,27,5,16.718,82.829904881528,28.871392,0.447388,1.17116801648,0,0,0,282, -2.4, -2.1,0,0,1024,1024,1024,1024,0,0,0,0,274,0,0,95,4.176,4.182,4.18,4.183,0,0,6.91,76.64,78.892896881528,24.934384,6,P-GPS,
18400,2023-07-02 19:35:59,52.2064053409246,0.0867190415031923,24.934384,24.9671924,53.925704481528,78.892896881528,26.24672,0,0.8455216806,4.7702101264,27,5,16.718,82.829904881528,28.871392,0.447388,1.17116801648,0,0,0,282, -2.2, -2,0,0,1024,1024,1024,1024,0,0,0,0,274,0,0,95,4.176,4.182,4.18,4.183,0,0,6.91,76.64,78.892896881528,24.934384,6,P-GPS,
18600,2023-07-02 19:36:00,52.2064052419017,0.0867190740049464,24.934384,24.9671924,53.925704481528,78.892896881528,26.24672,0,0.87945868956,4.8070539596,27,5,16.718,82.829904881528,28.871392,0.447388,1.17116801648,0,0,0,282, -2.4, -1.5,0,0,1024,1024,1024,1024,0,0,0,0,274,0,0,95,4.176,4.182,4.18,4.183,0,0,6.91,76.64,78.892896881528,24.934384,6,P-GPS,
18800,2023-07-02 19:36:00,52.2064051444938,0.0867191281395878,24.934384,24.9671924,53.925704481528,78.892896881528,26.574804,0,0.91577102668,4.8446195776,27,5,16.718,82.829904881528,28.871392,0.447388,1.17116801648,0,0,0,282.1, -2.6, -1.5,0,0,1024,1024,1024,1024,0,0,0,0,274,0,0,95,4.176,4.182,4.18,4.183,0,0,6.91,76.64,78.892896881528,24.934384,6,P-GPS,
19000,2023-07-02 19:36:00,52.2064050705109,0.0867191936581544,24.934384,24.9671924,53.925704481528,78.892896881528,26.574804,0,0.94637798304,4.87532824,27,5,16.722,82.829904881528,28.871392,0.447388,1.17116801648,0,0,0,282.1, -2.8, -1.1,0,0,1024,1024,1024,1024,0,0,0,0,274,0,0,95,4.175,4.181,4.179,4.18,0,0,6.823,76.64,78.892896881528,24.934384,6,P-GPS,
19200,2023-07-02 19:36:00,52.206405031366,0.0867192279418618,24.934384,24.9671924,53.925704481528,78.892896881528,26.574804,0,0.96252955836,4.8915355896,27,5,16.722,82.829904881528,28.871392,0.447388,1.17116801648,0,0,0,282.1, -2.5, -1.6,0,0,1024,1024,1024,1024,0,0,0,0,274,0,0,95,4.175,4.181,4.179,4.18,0,0,6.823,76.64,78.892896881528,24.934384,6,P-GPS,
19400,2023-07-02 19:36:00,52.2064049986013,0.0867192491558,24.934384,24.9671924,53.925704481528,78.892896881528,26.24672,0,0.97514438816,4.9043964824,27,5,16.722,82.829904881528,28.871392,0.447388,1.17116801648,0,0,0,282.1, -2.5, -1.5,0,0,1024,1024,1024,1024,0,0,0,0,274,0,0,95,4.175,4.181,4.179,4.18,0,0,6.823,76.64,78.892896881528,24.934384,6,P-GPS,
19600,2023-07-02 19:36:01,52.2064049864845,0.086719253040799,24.934384,24.9671924,53.925704481528,78.892896881528,26.24672,0,0.97933074,4.9088912332,27,5,16.722,82.829904881528,28.871392,0.447388,1.17116801648,0,0,0,282.1, -2.1, -1.7,0,0,1024,1024,1024,1024,0,0,0,0,274,0,0,95,4.175,4.181,4.179,4.18,0,0,6.823,76.64,78.892896881528,24.934384,6,P-GPS,
19800,2023-07-02 19:36:01,52.2064049846147,0.0867192630016517,24.934384,24.9671924,53.925704481528,78.892896881528,26.24672,0,0.98110895528,4.9112206296,27,5,16.722,82.829904881528,28.871392,0.447388,1.17116801648,0,0,0,282.1, -2.1, -2,0,0,1024,1024,1024,1024,0,0,0,0,274,0,0,95,4.175,4.181,4.179,4.18,0,0,6.823,76.64,78.892896881528,24.934384,6,P-GPS,
20000,2023-07-02 19:36:01,52.2064049748656,0.08671928771222,24.934384,24.9671924,53.925704481528,78.892896881528,26.24672,0,0.98709648828,4.917815118,27,5,16.71,82.829904881528,28.871392,0.447388,1.17116801648,0,0,0,282.1, -1.9, -2.5,1,0,1024,1024,1024,1024,0,0,0,0,274,0,0,95,4.177,4.183,4.179,4.182,0,0,6.851,76.82,78.892896881528,24.934384,6,P-GPS,
20200,2023-07-02 19:36:01,52.2064049493919,0.0867193244141679,24.934384,24.9671924,53.925704481528,78.892896881528,26.24672,0,0.99936354904,4.9301838848,27,5,16.71,82.829904881528,28.871392,0.447388,1.17116801648,0,0,0,282.1, -2.1, -2.5,0,0,1024,1024,1024,1024,0,0,0,0,274,0,0,95,4.177,4.183,4.179,4.182,0,0,6.851,76.82,78.892896881528,24.934384,6,P-GPS,
20400,2023-07-02 19:36:01,52.2064048918115,0.0867193418038307,24.934384,24.9671924,53.925704481528,78.892896881528,26.24672,0,1.01911748668,4.9515749616,27,5,16.71,82.829904881528,28.871392,0.447388,1.17116801648,0,0,0,282.1, -2.2, -2.3,0,0,1024,1024,1024,1024,0,0,0,0,274,0,0,95,4.177,4.183,4.179,4.182,0,0,6.851,76.82,78.892896881528,24.934384,6,P-GPS,
20600,2023-07-02 19:36:02,52.2064048361019,0.0867193461455672,25.262468,25.2952764,53.925704481528,79.220980881528,26.24672,0,1.03680777596,4.9719161696,27,5,16.71,82.829904881528,28.871392,0.447388,1.17116801648,0,0,0,282.1, -2.1, -2.1,0,0,1024,1024,1024,1646,0,0,0,94,274,0,0,95,4.177,4.183,4.179,4.182,0,0,6.851,76.82,79.220980881528,25.262468,6,P-GPS,
20800,2023-07-02 19:36:02,52.2064047801246,0.0867193471868238,25.262468,25.2952764,53.925704481528,79.220980881528,26.24672,0,1.05429137232,4.9923229944,27,5,16.71,82.829904881528,28.871392,0.447388,1.17116801648,0,0,0,282.1, -2.2, -2.2,0,0,1024,1024,1024,1679,0,0,0,99,275.6,0,0,95,4.177,4.183,4.179,4.182,0,0,6.851,76.82,79.220980881528,25.262468,6,P-GPS,
21000,2023-07-02 19:36:02,52.2064047284254,0.0867193456101948,25.262468,25.2952764,53.925704481528,79.220980881528,26.574804,0,1.07023625472,5.0111878244,27,5,16.71,82.829904881528,28.871392,0.447388,1.17116801648,0,0,0,284.6, -2, -2.4,0,0,1024,1024,1024,1667,0,0,0,97,285.5,0,0,95,4.171,4.179,4.175,4.178,0,0,6.851,76.82,79.220980881528,25.262468,6,P-GPS,
21200,2023-07-02 19:36:02,52.2064046696119,0.0867193480015683,25.262468,25.2952764,53.925704481528,79.220980881528,26.574804,0,1.08896657028,5.0326773264,27,5,16.71,82.829904881528,28.871392,0.447388,1.17116801648,0,0,0,296.5, -2.1, -2.2,0,0,1024,1024,1024,1650,0,0,0,95,297,0,0,95,4.171,4.179,4.175,4.178,0,0,6.851,76.82,79.220980881528,25.262468,6,P-GPS,
21400,2023-07-02 19:36:02,52.2064046395404,0.0867193524440012,25.262468,25.2952764,53.925704481528,79.220980881528,26.574804,0,1.09894032388,5.0436681404,26,5,16.71,82.829904881528,28.871392,0.447388,1.17116801648,0,0,0,307.9, -2.4, -2,0,0,1024,1024,1024,1636,0,0,0,93,307.9,0,0,95,4.171,4.179,4.175,4.178,0,0,6.851,76.82,79.220980881528,25.262468,6,P-GPS,
21600,2023-07-02 19:36:03,52.2064046937668,0.0867193837738774,25.262468,25.2952764,53.925704481528,79.220980881528,26.574804,0,1.08547247568,5.0646655164,26,5,16.71,82.829904881528,28.871392,0.447388,1.17116801648,0,0,0,318.5, -1.7, -2.7,0,0,1024,1024,1024,1633,0,0,0,92,318.4,0,0,95,4.171,4.179,4.175,4.178,0,0,6.851,76.82,79.220980881528,25.262468,6,P-GPS,
21800,2023-07-02 19:36:03,52.2064047848653,0.0867194661775331,25.590552,25.6233604,53.925704481528,79.549064881528,26.574804,0,1.0669783806,5.1026576436,26,5,16.71,82.829904881528,28.871392,0.447388,1.17116801648,0,0,0,328.8, -1.2, -3.2,0,0,1024,1024,1024,1619,0,0,0,90,328.5,0,0,95,4.171,4.179,4.175,4.178,0,0,6.851,76.82,79.549064881528,25.590552,6,P-GPS,
22000,2023-07-02 19:36:03,52.2064049114056,0.0867195899147299,25.590552,25.6233604,53.925704481528,79.549064881528,26.574804,0,1.0442421594,5.156496228,27,5,16.719,82.829904881528,28.871392,0.447388,1.17116801648,0,0,0,339, -0.8, -3.8,0,0,1024,1024,1024,1574,0,0,0,83,338.1,0,0,95,4.164,4.174,4.168,4.171,0,0,6.692,76.82,79.549064881528,25.590552,6,P-GPS,
22200,2023-07-02 19:36:03,52.2064050681979,0.08671970577184,25.590552,25.6233604,53.925704481528,79.549064881528,26.574804,0.223694,1.01408795896,5.2192915056,27,5,16.719,82.829904881528,28.871392,0.447388,1.17116801648,0.223694,0,0,348.1, 0.2, -4.1,0,0,1024,1024,1024,1140,0,0,0,18,346.3,0,0,95,4.164,4.174,4.168,4.171,0,0,6.692,76.82,79.549064881528,25.590552,6,P-GPS,
22400,2023-07-02 19:36:03,52.2064052240526,0.0867197935458198,25.590552,25.6233604,53.925704481528,79.549064881528,26.574804,0,0.98309714432,5.2794621112,27,5,16.719,82.829904881528,28.871392,0.447388,1.17116801648,0,0,0,355.7, 1.3, -4.3,0,0,1024,1024,1024,1024,0,0,0,0,350.2,0,0,95,4.164,4.174,4.168,4.171,0,0,6.692,76.82,79.549064881528,25.590552,6,P-GPS,
22600,2023-07-02 19:36:04,52.2064053529884,0.0867198277061142,25.918636,25.9514444,53.925704481528,79.877148881528,26.902888,0,0.95359911188,5.327099908,27,5,16.719,82.829904881528,28.871392,0.447388,1.17116801648,0,0,0,358.3, 1.8, -4.5,0,0,1024,1024,1024,1024,0,0,0,0,350.3,0,0,95,4.164,4.174,4.168,4.171,0,0,6.692,76.82,79.877148881528,25.918636,6,P-GPS,
22800,2023-07-02 19:36:04,52.2064054342847,0.0867197945663256,25.918636,25.9514444,53.925704481528,79.877148881528,26.902888,0,0.9271489798,5.3576773368,27,5,16.719,82.829904881528,28.871392,0.447388,1.17116801648,0,0,0,357.8, 2.1, -4.6,0,0,1024,1024,944,364,0,0,-12,-100,350.3,0,0,95,4.164,4.174,4.168,4.171,0,0,6.692,76.82,79.877148881528,25.918636,6,P-GPS,
23000,2023-07-02 19:36:04,52.2064054616667,0.0867196634225985,25.918636,25.9514444,53.925704481528,79.877148881528,26.902888,0,0.89955383456,5.3886484664,27,5,16.693,82.829904881528,28.871392,0.447388,1.17116801648,0,0,0,357.8, 1.9, -3.7,0,0,1024,1024,853,364,0,0,-26,-100,348.6,0,0,95,4.163,4.171,4.166,4.171,0,0,7.028,76.82,79.877148881528,25.918636,6,P-GPS,
23200,2023-07-02 19:36:04,52.206405428638,0.0867194971959279,25.918636,25.9514444,53.925704481528,79.877148881528,26.574804,0,0.88328742984,5.4277232708,27,5,16.693,82.829904881528,28.871392,0.447388,1.17116801648,0,0,0,355, 1.5, -3.2,0,0,1024,1024,923,364,0,0,-15,-100,338,0,0,95,4.163,4.171,4.166,4.171,0,0,7.028,76.82,79.877148881528,25.918636,6,P-GPS,
23400,2023-07-02 19:36:04,52.2064053587888,0.0867193411627381,25.918636,25.9514444,53.925704481528,79.877148881528,26.574804,0,0.88036748224,5.4709319336,27,5,16.693,82.829904881528,28.871392,0.447388,1.17116801648,0,0,0.223694,342.8, 1.8, -3.8,0,0,1024,1024,1002,717,0,0,-3,-47,326.1,0,0,95,4.163,4.171,4.166,4.171,0,0,7.028,76.82,79.877148881528,25.918636,6,P-GPS,
23600,2023-07-02 19:36:04,52.2064051918126,0.0867192260620518,25.918636,25.9514444,53.925704481528,79.877148881528,26.24672,0,0.91375002924,5.537073668,27,5,16.693,82.829904881528,28.871392,0.447388,1.17116801648,0,0,0.223694,330.8, 1, -3,0,0,1024,1024,1024,1024,0,0,0,0,318,0,0,95,4.163,4.171,4.166,4.171,0,0,7.028,76.82,79.877148881528,25.918636,6,P-GPS,
23800,2023-07-02 19:36:05,52.2064049234063,0.0867192484279907,25.918636,25.9514444,53.925704481528,79.877148881528,26.24672,0.223694,0.99821525504,5.6351051672,27,5,16.693,82.829904881528,28.871392,0.447388,1.17116801648,-0.223694,0,0,324.6, -0.6, -2.9,0,0,1024,1024,1024,1024,0,0,0,0,317.6,0,0,95,4.163,4.171,4.166,4.171,0,0,7.028,76.82,79.877148881528,25.918636,6,P-GPS,
24000,2023-07-02 19:36:05,52.2064046042656,0.0867192753353113,25.918636,25.9514444,53.925704481528,79.877148881528,26.24672,0.223694,1.10161748932,5.7517062208,27,5,16.669,82.829904881528,28.871392,0.447388,1.17116801648,-0.223694,0,0,325.8, -2.5, -2,0,0,1024,1024,1024,1024,0,0,0,0,317.6,0,0,95,4.159,4.167,4.162,4.167,0,0,7.349,77,79.877148881528,25.918636,6,P-GPS,
24200,2023-07-02 19:36:05,52.2064043745924,0.0867192427678097,25.918636,25.9842528,53.892896081528,79.877148881528,26.24672,0,1.17228678292,5.8358269584,26,5,16.669,82.829904881528,28.871392,0.447388,1.17228678292,0,0,0,325.6, -2.6, -2,0,0,1024,1024,1024,1024,0,0,0,0,317.6,0,0,95,4.159,4.167,4.162,4.167,0,0,7.349,77,79.877148881528,25.918636,6,P-GPS,
24400,2023-07-02 19:36:05,52.2064042618989,0.0867191644887709,25.918636,25.9842528,53.892896081528,79.877148881528,26.24672,0,1.20161421168,5.8805119992,26,5,16.669,82.829904881528,28.871392,0.447388,1.20161421168,0,0,0,325.6, -1.8, -2.1,0,0,1024,1024,1024,1024,0,0,0,0,317.6,0,0,95,4.159,4.167,4.162,4.167,0,0,7.349,77,79.877148881528,25.918636,6,P-GPS,
24600,2023-07-02 19:36:05,52.2064041990558,0.0867190396498123,25.918636,25.9842528,53.892896081528,79.877148881528,26.24672,0,1.21103350332,5.9166340476,26,5,16.669,82.829904881528,28.871392,0.447388,1.21103350332,0,0,0,325.6, -1.5, -1.8,0,0,1024,1024,1024,1024,0,0,0,0,317.6,0,0,95,4.159,4.167,4.162,4.167,0,0,7.349,77,79.877148881528,25.918636,6,P-GPS,
24800,2023-07-02 19:36:06,52.2064041694833,0.0867189406413135,25.918636,25.9842528,53.892896081528,79.877148881528,26.24672,0,1.2123688052,5.941273156,26,5,16.669,82.829904881528,28.871392,0.447388,1.2123688052,0,0,0,325.7, -1.5, -1.5,0,0,1024,1024,1024,1024,0,0,0,0,317.6,0,0,95,4.159,4.167,4.162,4.167,0,0,7.349,77,79.877148881528,25.918636,6,P-GPS,
25000,2023-07-02 19:36:06,52.2064042042735,0.0867188997557725,25.918636,25.9842528,53.892896081528,79.877148881528,25.918636,0,1.1971621118,5.9568899544,26,5,16.646,82.829904881528,28.871392,0.447388,1.2123688052,0,0,0,325.6, -0.9, -2,1,0,1024,1024,1024,1024,0,0,0,0,317.6,0,0,95,4.165,4.173,4.168,4.171,0,0,7.236,77,79.877148881528,25.918636,6,P-GPS,
25200,2023-07-02 19:36:06,52.206404264235,0.0867188913894601,25.918636,25.9842528,53.892896081528,79.877148881528,25.918636,0,1.17620738672,5.9788715824,26,5,16.646,82.829904881528,28.871392,0.447388,1.2123688052,0,0,0,325.4, -0.4, -2.3,0,0,1024,1024,993,1684,0,0,-5,100,318.1,0,0,95,4.165,4.173,4.168,4.171,0,0,7.236,77,79.877148881528,25.918636,6,P-GPS,
25400,2023-07-02 19:36:06,52.2064042976626,0.0867189163549365,25.918636,25.9842528,53.892896081528,79.877148881528,25.918636,0,1.16710633656,5.9922574096,26,5,16.646,82.829904881528,28.871392,0.447388,1.2123688052,0,0,0,326.5, -0.6, -2.2,0,0,1024,1024,986,1684,0,0,-6,100,327,0,0,95,4.165,4.173,4.168,4.171,0,0,7.236,77,79.877148881528,25.918636,6,P-GPS,
25600,2023-07-02 19:36:06,52.206404299112,0.0867189587507036,25.918636,25.9842528,53.892896081528,79.877148881528,25.918636,0,1.17034452564,6.0017718456,26,5,16.646,82.829904881528,28.871392,0.447388,1.2123688052,0,0,0,337.6, -1.5, -1.7,0,0,1024,1024,988,1670,0,0,-5,98,338.9,0,0,95,4.165,4.173,4.168,4.171,0,0,7.236,77,79.877148881528,25.918636,6,P-GPS,
25800,2023-07-02 19:36:07,52.2064043153051,0.0867189966872188,25.918636,25.9842528,53.892896081528,79.877148881528,25.918636,0,1.16833008988,6.0121064916,25,5,16.646,82.829904881528,28.871392,0.447388,1.2123688052,0,0,0,349.8, -1.8, -1.6,0,0,1024,1024,1024,1394,0,0,0,56,350.9,0,0,95,4.165,4.173,4.168,4.171,0,0,7.236,77,79.877148881528,25.918636,6,P-GPS,
26000,2023-07-02 19:36:07,52.2064043994204,0.086719123434165,25.918636,25.9842528,53.892896081528,79.877148881528,25.918636,0,1.15235896076,6.0538715848,27,5,16.671,82.829904881528,28.871392,0.447388,1.2123688052,0,0,0,1.6, -1.4, -2.4,1,0,1024,1024,1024,1024,0,0,0,0,358.4,0,0,95,4.163,4.172,4.166,4.168,0,0,7.407,77,79.877148881528,25.918636,6,P-GPS,
26200,2023-07-02 19:36:07,52.2064045609186,0.0867193415707657,25.918636,25.9514444,53.925704481528,79.877148881528,25.918636,0.3131716,1.12264439288,6.1303479652,27,5,16.671,82.829904881528,28.871392,0.447388,1.2123688052,0.223694,0.223694,0,7.2, -0.4, -3.3,0,0,1024,1024,1024,1024,0,0,0,0,358.8,0,0,95,4.163,4.172,4.166,4.168,0,0,7.407,77,79.877148881528,25.918636,6,P-GPS,
26400,2023-07-02 19:36:07,52.2064047489281,0.0867196010179724,25.918636,25.9514444,53.925704481528,79.877148881528,25.590552,0.223694,1.0944718198,6.2202101728,27,5,16.671,82.829904881528,28.871392,0.447388,1.2123688052,0.223694,0,0,6.1, 1.3, -4.8,0,0,1024,1024,1024,1684,0,0,0,100,358.8,0,0,95,4.163,4.172,4.166,4.168,0,0,7.407,77,79.877148881528,25.918636,6,P-GPS,
26600,2023-07-02 19:36:08,52.2064048804078,0.0867197494390891,26.24672,26.2795284,53.925704481528,80.205232881528,25.590552,0,1.07436683228,6.278543508,27,5,16.671,82.829904881528,28.871392,0.447388,1.2123688052,0,0,0,6.1, 1, -4.6,0,0,1024,1024,1024,1684,0,0,0,100,5,0,0,95,4.163,4.172,4.166,4.168,0,0,7.407,77,80.205232881528,26.24672,6,P-GPS,
26800,2023-07-02 19:36:08,52.2064049496178,0.0867197732706945,26.24672,26.2795284,53.925704481528,80.205232881528,25.590552,0,1.05745410208,6.3043309104,27,5,16.671,82.829904881528,28.871392,0.447388,1.2123688052,0,0,0,14.5, 1, -3.7,0,0,1024,1024,1023,1661,0,0,-0,97,16.8,0,0,95,4.163,4.172,4.166,4.168,0,0,7.407,77,80.205232881528,26.24672,6,P-GPS,
27000,2023-07-02 19:36:08,52.2064049895686,0.0867197223646695,26.24672,26.2795284,53.925704481528,80.205232881528,25.590552,0,1.038960007,6.322834848,27,5,16.687,82.829904881528,28.871392,0.447388,1.2123688052,0,0,0,27.2, 0.2, -2.9,1,0,1024,1024,1024,1595,0,0,0,87,28.4,0,0,95,4.157,4.166,4.161,4.166,0,0,7.05,77.18,80.205232881528,26.24672,6,P-GPS,
27200,2023-07-02 19:36:08,52.2064050799538,0.0867197463465548,26.24672,26.2795284,53.925704481528,80.205232881528,25.590552,0,1.0164206362,6.3562337992,27,5,16.687,82.829904881528,28.871392,0.447388,1.2123688052,0,0,0,38.7, 1.3, -2.6,0,0,1024,1024,1024,1574,0,0,0,83,39.1,0,0,95,4.157,4.166,4.161,4.166,0,0,7.05,77.18,80.205232881528,26.24672,6,P-GPS,
27400,2023-07-02 19:36:08,52.2064052121638,0.0867198075035077,26.24672,26.2795284,53.925704481528,80.205232881528,25.590552,0.223694,0.98841210512,6.4063650344,27,5,16.687,82.829904881528,28.871392,0.447388,1.2123688052,0.223694,0,0,49.1, 2.2, -2.1,0,0,1024,1024,1024,1588,0,0,0,85,47.6,0,0,95,4.157,4.166,4.161,4.166,0,0,7.05,77.18,80.205232881528,26.24672,6,P-GPS,
27600,2023-07-02 19:36:09,52.2064053324856,0.0867198813329054,26.24672,26.2795284,53.925704481528,80.205232881528,25.590552,0,0.96729333804,6.4532810464,27,5,16.687,82.829904881528,28.871392,0.447388,1.2123688052,0,0,0,57, 2.9, -1.3,0,0,1024,1024,1024,1584,0,0,0,85,55.7,0,0,95,4.157,4.166,4.161,4.166,0,0,7.05,77.18,80.205232881528,26.24672,6,P-GPS,
27800,2023-07-02 19:36:09,52.2064053952699,0.0867199412823764,26.24672,26.2795284,53.925704481528,80.205232881528,25.590552,0,0.96040685488,6.479823042,27,5,16.687,82.829904881528,28.871392,0.447388,1.2123688052,0,0,0,65.1, 3.3, -0.5,0,0,1024,1024,1021,1584,0,0,-0,85,63.9,0,0,95,4.157,4.166,4.161,4.166,0,0,7.05,77.18,80.205232881528,26.24672,6,P-GPS,
28000,2023-07-02 19:36:09,52.206405378574,0.0867199544283778,26.24672,26.2795284,53.925704481528,80.205232881528,25.590552,0,0.966781527,6.4865815724,27,5,16.658,82.829904881528,28.871392,0.447388,1.2123688052,0,0,0,73.4, 3, -0.2,1,0,1024,1024,1021,1584,0,0,-0,85,72,0,0,95,4.157,4.164,4.16,4.163,0,0,7.266,77.18,80.205232881528,26.24672,6,P-GPS,
28200,2023-07-02 19:36:09,52.2064053018605,0.0867199500824911,26.24672,26.2795284,53.925704481528,80.205232881528,25.590552,0,0.9860072494,6.514599946,27,5,16.658,82.829904881528,28.871392,0.447388,1.2123688052,0,0,0,81.4, 2.9, -0.3,0,0,1024,1024,1024,1024,0,0,0,0,79.9,0,0,95,4.157,4.164,4.16,4.163,0,0,7.266,77.18,80.205232881528,26.24672,6,P-GPS,
28400,2023-07-02 19:36:09,52.206405203915,0.0867199360199567,26.24672,26.2795284,53.925704481528,80.205232881528,25.590552,0,1.00986551788,6.5504595272,27,5,16.658,82.829904881528,28.871392,0.447388,1.2123688052,0,0,0,89, 3.3, -0.5,0,0,1024,1024,1024,1024,0,0,0,0,81.9,0,0,95,4.157,4.164,4.16,4.163,0,0,7.266,77.18,80.205232881528,26.24672,6,P-GPS,
28600,2023-07-02 19:36:10,52.2064051389467,0.0867199054912823,26.24672,26.2795284,53.925704481528,80.205232881528,25.262468,0,1.02293966528,6.575131444,26,5,16.658,82.829904881528,28.871392,0.447388,1.2123688052,0,0,0,89.3, 3.2, -0.1,0,0,1024,1024,1024,1024,0,0,0,0,81.9,0,0,95,4.157,4.164,4.16,4.163,0,0,7.266,77.18,80.205232881528,26.24672,6,P-GPS,
28800,2023-07-02 19:36:10,52.206405132212,0.0867198373078677,26.24672,26.2795284,53.925704481528,80.205232881528,25.590552,0,1.01479990124,6.5905842004,26,5,16.658,82.829904881528,28.871392,0.447388,1.2123688052,0,0,0,89.1, 3, 1.3,0,0,1024,1024,1024,1549,0,0,0,80,82.1,0,0,95,4.157,4.164,4.16,4.163,0,0,7.266,77.18,80.205232881528,26.24672,6,P-GPS,
29000,2023-07-02 19:36:10,52.2064051362449,0.0867197173809667,26.24672,26.2795284,53.925704481528,80.205232881528,25.590552,0,0.99642063556,6.6174214716,27,5,16.649,82.829904881528,28.871392,0.447388,1.2123688052,0,0,0,90.1, 2.5, 2.4,0,0,1024,1024,1024,1024,0,0,0,0,87.8,0,0,94,4.158,4.166,4.162,4.165,0,0,7.445,77.18,80.205232881528,26.24672,6,P-GPS,
29200,2023-07-02 19:36:10,52.2064050690524,0.0867195396408418,26.24672,26.2795284,53.925704481528,80.205232881528,25.590552,0,0.99114832568,6.6641078248,27,5,16.649,82.829904881528,28.871392,0.447388,1.2123688052,0,0,0,97.2, 1.8, 2.4,0,0,1024,1024,1024,1024,0,0,0,0,90.5,0,0,94,4.158,4.166,4.162,4.165,0,0,7.445,77.18,80.205232881528,26.24672,6,P-GPS,
29400,2023-07-02 19:36:10,52.2064049589975,0.0867193257286807,26.24672,26.2795284,53.925704481528,80.205232881528,25.590552,0,0.99659123924,6.7265750184,27,5,16.649,82.829904881528,28.871392,0.447388,1.2123688052,0,0,0,98.6, 1.5, 1.5,0,0,1024,1024,1024,1024,0,0,0,0,90.5,0,0,94,4.158,4.166,4.162,4.165,0,0,7.445,77.18,80.205232881528,26.24672,6,P-GPS,
29600,2023-07-02 19:36:10,52.2064048233211,0.0867191030725414,26.24672,26.2795284,53.925704481528,80.205232881528,25.590552,0,1.0130577752,6.7967849944,27,5,16.649,82.829904881528,28.871392,0.447388,1.2123688052,0,0,0,98.1, 1.3, 1.3,0,0,1024,1024,1024,1024,0,0,0,0,90.5,0,0,94,4.158,4.166,4.162,4.165,0,0,7.445,77.18,80.205232881528,26.24672,6,P-GPS,
29800,2023-07-02 19:36:11,52.2064046964922,0.0867189176661728,26.24672,26.2795284,53.925704481528,80.205232881528,25.590552,0,1.03476381264,6.8588912956,27,5,16.649,82.829904881528,28.871392,0.447388,1.2123688052,0,0,0,98.2, 1.2, 1.1,0,0,1024,1024,1024,1024,0,0,0,0,90.5,0,0,94,4.158,4.166,4.162,4.165,0,0,7.445,77.18,80.205232881528,26.24672,6,P-GPS,
30000,2023-07-02 19:36:11,52.2064045551916,0.0867187680432533,26.24672,26.2795284,53.925704481528,80.205232881528,25.590552,0,1.067667357,6.9203414288,27,5,16.649,82.829904881528,28.871392,0.447388,1.2123688052,0,0,0,98.1, 1.3, 1,1,0,1024,1024,1018,364,0,0,-1,-100,90.5,0,0,94,4.159,4.167,4.161,4.166,0,0,7.378,77.36,80.205232881528,26.24672,6,P-GPS,
30200,2023-07-02 19:36:11,52.206404425254,0.0867186813234174,25.918636,25.9842528,53.892896081528,79.877148881528,25.262468,0,1.10417982536,6.9715881496,27,5,16.649,82.829904881528,28.871392,0.447388,1.2123688052,0,0,0,98.2, 1.7, 0.8,0,0,1024,1024,989,364,0,0,-5,-100,87.1,0,0,94,4.159,4.167,4.161,4.166,0,0,7.378,77.36,79.877148881528,25.918636,6,P-GPS,
30400,2023-07-02 19:36:11,52.2064043325728,0.086718610622595,25.918636,25.9842528,53.892896081528,79.877148881528,25.590552,0,1.13024281832,7.0088913004,27,5,16.649,82.829904881528,28.871392,0.447388,1.2123688052,0,0,0,93.2, 1.8, 1.2,0,0,1024,1024,942,364,0,0,-12,-100,75.9,0,0,94,4.159,4.167,4.161,4.166,0,0,7.378,77.36,79.877148881528,25.918636,6,P-GPS,
30600,2023-07-02 19:36:11,52.206404237919,0.0867185567817422,25.918636,25.9842528,53.892896081528,79.877148881528,25.262468,0,1.15881565388,7.0454726664,27,5,16.649,82.829904881528,28.871392,0.447388,1.2123688052,0,0,0,80.6, 1.9, 0.8,0,0,1024,1024,967,364,0,0,-9,-100,63.9,0,0,94,4.159,4.167,4.161,4.166,0,0,7.378,77.36,79.877148881528,25.918636,6,P-GPS,
30800,2023-07-02 19:36:12,52.2064041176722,0.0867185497091917,25.918636,25.9842528,53.892896081528,79.877148881528,25.262468,0,1.19993114076,7.0893703056,27,5,16.649,82.829904881528,28.871392,0.447388,1.2123688052,0,0,0,69, 2.1, 0.6,0,0,1024,1024,967,364,0,0,-9,-100,51.9,0,0,94,4.159,4.167,4.161,4.166,0,0,7.378,77.36,79.877148881528,25.918636,6,P-GPS,
31000,2023-07-02 19:36:12,52.2064039397186,0.0867186145093415,25.918636,25.9842528,53.892896081528,79.877148881528,25.262468,0.223694,1.26616145784,7.1559057408,27,5,16.65,82.829904881528,28.871392,0.447388,1.26616145784,0,0.223694,0,57.1, 2.1, -1.2,0,0,1024,1024,967,364,0,0,-9,-100,39.9,0,0,94,4.163,4.17,4.165,4.166,0,0,7.252,77.36,79.877148881528,25.918636,6,P-GPS,
31200,2023-07-02 19:36:12,52.2064037677923,0.0867186721576506,25.918636,25.9842528,53.892896081528,79.877148881528,25.262468,0.223694,1.32984584308,7.2199477376,27,5,16.65,82.829904881528,28.871392,0.447388,1.32984584308,0,0.223694,0,45, 2.1, -2.1,0,0,1024,1024,970,364,0,0,-8,-100,27.9,0,0,94,4.163,4.17,4.165,4.166,0,0,7.252,77.36,79.877148881528,25.918636,6,P-GPS,
31400,2023-07-02 19:36:12,52.2064036313214,0.0867186592154446,25.918636,25.9842528,53.892896081528,79.877148881528,24.934384,0,1.3765748472,7.2698165056,27,5,16.65,82.829904881528,28.871392,0.447388,1.3765748472,0,0,0,32.7, 1.8, -1.8,0,0,1024,1024,975,364,0,0,-7,-100,15.9,0,0,94,4.163,4.17,4.165,4.166,0,0,7.252,77.36,79.877148881528,25.918636,6,P-GPS,
31600,2023-07-02 19:36:12,52.2064034949232,0.0867186172405923,25.590552,25.6561688,53.892896081528,79.549064881528,24.934384,0,1.42170936308,7.3204398668,27,5,16.65,82.829904881528,28.871392,0.447388,1.42170936308,0,0,0,20.9, 1.4, -2.2,0,0,1024,1024,975,364,0,0,-7,-100,3.9,0,0,94,4.163,4.17,4.165,4.166,0,0,7.252,77.36,79.549064881528,25.590552,6,P-GPS,
31800,2023-07-02 19:36:13,52.2064033606924,0.0867185998834757,25.590552,25.6561688,53.892896081528,79.549064881528,24.934384,0,1.46787078188,7.36958685,27,5,16.65,82.829904881528,28.871392,0.447388,1.46787078188,0,0,0,8.9, 0.6, -2.5,0,0,1024,1024,990,369,0,0,-5,-99,352,0,0,94,4.163,4.17,4.165,4.166,0,0,7.252,77.36,79.549064881528,25.590552,6,P-GPS,
32000,2023-07-02 19:36:13,52.206403218926,0.0867186391928245,25.590552,25.6561688,53.892896081528,79.549064881528,24.934384,0.223694,1.52010175468,7.4220474816,27,5,16.657,82.829904881528,28.871392,0.447388,1.52010175468,0,0.223694,0,357, 0.1, -3.2,0,0,1024,1024,1024,1024,0,0,0,0,340,0,0,94,4.154,4.161,4.155,4.159,0,0,6.977,77.54,79.549064881528,25.590552,6,P-GPS,
32200,2023-07-02 19:36:13,52.2064030570788,0.0867186714861962,25.590552,25.6561688,53.892896081528,79.549064881528,24.6063,0,1.57903220276,7.4815291108,27,5,16.657,82.829904881528,28.871392,0.447388,1.57903220276,0,0,0,345.2, -0.6, -3.5,0,0,1024,1024,1024,367,0,0,0,-100,334.5,0,0,94,4.154,4.161,4.155,4.159,0,0,6.977,77.54,79.549064881528,25.590552,6,P-GPS,
32400,2023-07-02 19:36:13,52.2064028692331,0.0867186820687012,25.590552,25.6561688,53.892896081528,79.549064881528,24.6063,0,1.64600398968,7.5500986668,27,5,16.657,82.829904881528,28.871392,0.447388,1.64600398968,0,0,0,341.7, -1.7, -3.7,0,0,1024,1024,959,364,0,0,-10,-100,327.9,0,0,94,4.154,4.161,4.155,4.159,0,0,6.977,77.54,79.549064881528,25.590552,6,P-GPS,
32600,2023-07-02 19:36:13,52.2064027291875,0.0867185708126043,25.590552,25.6561688,53.892896081528,79.549064881528,24.6063,0,1.68986882048,7.6069228156,27,5,16.657,82.829904881528,28.871392,0.447388,1.68986882048,0,0,0,333.8, -1.4, -3,0,0,1024,1024,1015,596,0,0,-1,-65,316.2,0,0,94,4.154,4.161,4.155,4.159,0,0,6.977,77.54,79.549064881528,25.590552,6,P-GPS,
32800,2023-07-02 19:36:14,52.2064026625476,0.0867184220931119,25.590552,25.6561688,53.892896081528,79.549064881528,24.6063,0,1.70656501524,7.648130166,27,5,16.657,82.829904881528,28.871392,0.447388,1.70656501524,0,0,0,321.1, -0.4, -3.1,0,0,1024,1024,1024,1024,0,0,0,0,304.8,0,0,94,4.154,4.161,4.155,4.159,0,0,6.977,77.54,79.549064881528,25.590552,6,P-GPS,
33000,2023-07-02 19:36:14,52.2064025807646,0.086718238140833,25.590552,25.6561688,53.892896081528,79.549064881528,24.6063,0,1.72812013404,7.6989503776,27,5,16.639,82.829904881528,28.871392,0.447388,1.72812013404,0,0,0,310.5, -0.8, -2.5,0,0,1024,1024,1024,1024,0,0,0,0,302.5,0,0,94,4.152,4.159,4.154,4.158,0,0,7.312,77.54,79.549064881528,25.590552,6,P-GPS,
33200,2023-07-02 19:36:14,52.2064024872578,0.0867180438830186,25.262468,25.3280848,53.892896081528,79.220980881528,24.6063,0,1.7547736782,7.7541669148,27,5,16.639,82.829904881528,28.871392,0.447388,1.7547736782,0,0,0,310.4, -1.6, -1.5,0,0,1024,1024,1024,1024,0,0,0,0,302.5,-1,0,94,4.152,4.159,4.154,4.158,0,0,7.312,77.54,79.220980881528,25.262468,6,P-GPS,
