time(millisecond),datetime(utc),latitude,longitude,height_above_takeoff(feet),height_above_ground_at_drone_location(feet),ground_elevation_at_drone_location(feet),altitude_above_seaLevel(feet),height_sonar(feet),speed(mph),distance(feet),mileage(feet),satellites,gpslevel,voltage(v),max_altitude(feet),max_ascent(feet),max_speed(mph),max_distance(feet), xSpeed(mph), ySpeed(mph), zSpeed(mph), compass_heading(degrees), pitch(degrees), roll(degrees),isPhoto,isVideo,rc_elevator,rc_aileron,rc_throttle,rc_rudder,rc_elevator(percent),rc_aileron(percent),rc_throttle(percent),rc_rudder(percent),gimbal_heading(degrees),gimbal_pitch(degrees),gimbal_roll(degrees),battery_percent,voltageCell1,voltageCell2,voltageCell3,voltageCell4,voltageCell5,voltageCell6,current(A),battery_temperature(f),altitude(feet),ascent(feet),flycStateRaw,flycState,message
100,2022-07-20 16:00:53,52.1919280120744,0.0982219442274072,0,0,39.50708295714,39.50708295714,0,0,0,0,19,5,0,39.50708295714,0,0,0,0,0,0,194.6, 0.8, 0,0,0,1024,1024,1024,1024,0,0,0,0,194.6,0,0,77,4.081,4.086,4.086,4.086,0,0,0,91.94,39.50708295714,0,41,Motors_Started,
300,2022-07-20 16:00:53,52.1919280444574,0.0982219932691248,0,0,39.50708295714,39.50708295714,0,0,0.0161215228256,0.0161215228256,19,5,0,39.50708295714,0,0,0.0161215228256,0,0,0,194.5, 0.8, 0,0,0,1024,1024,1024,1024,0,0,0,0,194.6,0,0,77,4.081,4.086,4.086,4.086,0,0,0,91.94,39.50708295714,0,41,Motors_Started,
500,2022-07-20 16:00:53,52.1919280539545,0.0982220579628262,0,0,39.50708295714,39.50708295714,0,0.223694,0.02967437759,0.031000000992,19,5,0,39.50708295714,0,0.223694,0.02967437759,0,0.223694,0,193.5, 0.8, 0,0,0,1024,1024,1024,1024,0,0,0,0,194.6,0,0,77,4.081,4.086,4.086,4.086,0,0,0,91.94,39.50708295714,0,41,Motors_Started,"Setting new Return-To-Home altitude to 26m (85 ft). Data Recorder File Index is 9. Setting new Maximum Flight Altitude to 120m (394 ft)"
700,2022-07-20 16:00:53,52.1919280644987,0.0982220856699818,0,0,39.50708295714,39.50708295714,0,0,0.044090552592,0.045878282308,19,5,0,39.50708295714,0,0.223694,0.044090552592,0,0,0,193.3, 1.4, 0.1,0,0,1024,1024,1024,1024,0,0,0,0,194.5,0,0,77,4.081,4.086,4.086,4.086,0,0,0,91.94,39.50708295714,0,41,Motors_Started,
900,2022-07-20 16:00:54,52.1919280750429,0.0982221133771373,0,0,39.50708295714,39.50708295714,0,0,0.044261156272,0.050589240464,19,5,0,39.50708295714,0,0.223694,0.044261156272,0,0,0,193.2, 1.5, 0.1,0,0,1024,1024,1024,1024,0,0,0,0,194.4,0,0,77,4.081,4.086,4.086,4.086,0,0,0,91.94,39.50708295714,0,41,Motors_Started,
1100,2022-07-20 16:00:54,52.191928104104,0.098222171467658,0,0,39.50708295714,39.50708295714,0,0,0.060914043944,0.067359254124,19,5,0,39.50708295714,0,0.223694,0.060914043944,0,0,0,193.2, 1.5, 0.1,0,0,1024,1024,1024,1024,0,0,0,0,194.4,0,0,77,4.081,4.086,4.086,4.086,0,0,0,91.94,39.50708295714,0,41,Motors_Started,
1300,2022-07-20 16:00:54,52.1919281299896,0.0982222342397989,0,0,39.50708295714,39.50708295714,0,0,0.077834320076,0.08427985834,19,5,0,39.50708295714,0,0.223694,0.077834320076,0,0,0,193.2, 1.5, 0.1,0,0,1024,1024,1024,1024,0,0,0,0,194.3,0,0,77,4.081,4.086,4.086,4.086,0,0,0,91.94,39.50708295714,0,41,Motors_Started,
1500,2022-07-20 16:00:54,52.191928152379,0.0982222788724087,0,0,39.50708295714,39.50708295714,0,0,0.09067749634,0.0971784808,19,5,16.388,39.50708295714,0,0.223694,0.09067749634,0,0,0,193.5, 1.6, 0.1,0,0,1024,1024,1024,1024,0,0,0,0,194.2,0,0,77,4.081,4.086,4.086,4.086,0,0,1.418,91.94,39.50708295714,0,41,Motors_Started,
1700,2022-07-20 16:00:54,52.1919282001085,0.0982223156371017,0,0,39.50708295714,39.50708295714,0,0,0.107735895836,0.116436355432,19,5,16.388,39.50708295714,0,0.223694,0.107735895836,0,0,0,193.1, 1.6, 0,0,0,1024,1024,1024,1024,0,0,0,0,194.2,0,0,77,4.081,4.086,4.086,4.086,0,0,1.418,91.94,39.50708295714,0,11,AutoTakeoff,
1900,2022-07-20 16:00:54,52.1919282353001,0.0982223355304934,0,0,39.50708295714,39.50708295714,0,0,0.119551513012,0.130024938544,19,5,16.388,39.50708295714,0,0.223694,0.119551513012,0,0,0,193.1, 1.6, 0,0,0,1024,1024,1024,1024,0,0,0,0,194.1,0,0,77,4.081,4.086,4.086,4.086,0,0,1.418,91.94,39.50708295714,0,11,AutoTakeoff,
2100,2022-07-20 16:00:55,52.191928241418,0.0982223479822055,0,0,39.50708295714,39.50708295714,0,0,0.123111224412,0.13359416438,19,5,16.388,39.50708295714,0,0.223694,0.123111224412,0,0,-0.223694,193.3, -2.4, 0.3,0,0,1024,1024,1024,1024,0,0,0,0,194.1,0,0,77,4.081,4.086,4.086,4.086,0,0,1.418,91.94,39.50708295714,0,11,AutoTakeoff,
2300,2022-07-20 16:00:55,52.1919280938153,0.0982223489045545,0,0,39.50708295714,39.50708295714,0.328084,0.223694,0.095296590976,0.187447184476,19,5,16.388,39.50708295714,0,0.223694,0.123111224412,-0.223694,0,-0.894776,193.6, -0.8, 1.2,0,0,1024,1024,1024,1024,0,0,0,0,194.1,0,0,77,4.081,4.086,4.086,4.086,0,0,1.418,91.94,39.50708295714,0,11,AutoTakeoff,
2500,2022-07-20 16:00:55,52.1919278299104,0.0982222930360565,0.328084,0.328084,39.50708295714,39.83516695714,0.328084,0.223694,0.102486551836,0.284540363436,19,5,16.275,39.83516695714,0.328084,0.223694,0.123111224412,-0.223694,0,-0.894776,193.5, 3.6, -0.7,0,0,1024,1024,1024,1024,0,0,0,0,194.1,0,0,76,4.046,4.054,4.051,4.05,0,0,4.739,91.58,39.83516695714,0.328084,11,AutoTakeoff,
2700,2022-07-20 16:00:55,52.1919276915173,0.0982225101811272,0.656168,0.656168,39.50708295714,40.16325095714,0.656168,0,0.17544127858,0.38163387048,19,5,16.275,40.16325095714,0.656168,0.223694,0.17544127858,0,0,-0.894776,193.5, 2.4, 0.6,0,0,1024,1024,1024,1024,0,0,0,0,194,0,0,76,4.046,4.054,4.051,4.05,0,0,4.739,91.58,40.16325095714,0.656168,11,AutoTakeoff,
2900,2022-07-20 16:00:55,52.1919275531241,0.098222727326198,0.984252,0.984252,39.50708295714,40.49133495714,0.984252,0.223694,0.242312671796,0.49136156428,19,5,16.275,40.49133495714,0.984252,0.223694,0.242312671796,0,0.223694,-0.894776,193.4, 2.1, 2.6,0,0,1024,1024,1024,1024,0,0,0,0,194,0,0,76,4.046,4.054,4.051,4.05,0,0,4.739,91.58,40.49133495714,0.984252,11,AutoTakeoff,
3100,2022-07-20 16:00:56,52.1919275648203,0.0982229482951741,1.312336,1.312336,39.50708295714,40.81941895714,1.312336,0,0.277595481324,0.54096786508,18,5,16.275,40.81941895714,1.312336,0.223694,0.277595481324,0,0,-0.894776,193.4, 1.1, 3.7,0,0,1024,1024,1024,1024,0,0,0,0,194,0,0,76,4.046,4.054,4.051,4.05,0,0,4.739,91.58,40.81941895714,1.312336,11,AutoTakeoff,
3300,2022-07-20 16:00:56,52.1919276131304,0.0982230232500086,1.64042,1.64042,39.50708295714,41.14750295714,1.64042,0,0.281829733428,0.56529201284,19,5,16.275,41.14750295714,1.64042,0.223694,0.281829733428,0,0,-0.894776,193.4, 1, 3.4,0,0,1024,1024,1024,1024,0,0,0,0,194,0,0,76,4.046,4.054,4.051,4.05,0,0,4.739,91.58,41.14750295714,1.64042,11,AutoTakeoff,
3500,2022-07-20 16:00:56,52.1919277204822,0.0982229155972019,1.968504,1.968504,39.50708295714,41.47558695714,1.968504,0,0.241905847636,0.6112697046,19,5,16.288,41.47558695714,1.968504,0.223694,0.281829733428,0,0,-1.11847,193.4, 0.8, 2.8,0,0,1024,1024,1024,1024,0,0,0,0,194,0,0,76,4.039,4.046,4.044,4.042,0,0,3.652,91.76,41.47558695714,1.968504,11,AutoTakeoff,"Home Point updated (Code: 3000001)"
3700,2022-07-20 16:00:56,52.1919278070137,0.0982227706923247,2.296588,2.296588,39.50708295714,41.80367095714,2.296588,0,0.204539376624,0.65724411552,20,5,16.288,41.80367095714,2.296588,0.223694,0.281829733428,0,0,-1.11847,193.2, 1, 2.2,0,0,1024,1024,1024,1024,0,0,0,0,193.9,0,0,76,4.039,4.046,4.044,4.042,0,0,3.652,91.76,41.80367095714,2.296588,11,AutoTakeoff,
3900,2022-07-20 16:00:57,52.1919278935453,0.0982226257874475,2.624672,2.624672,39.50708295714,42.13175495714,2.624672,0,0.158452760976,0.70451773908,19,5,16.288,42.13175495714,2.624672,0.223694,0.281829733428,0,0,-1.11847,193.4, 0.9, 2.3,0,0,1024,1024,1024,1021,0,0,0,-0,193.9,0,0,76,4.039,4.046,4.044,4.042,0,0,3.652,91.76,42.13175495714,2.624672,11,AutoTakeoff,
4100,2022-07-20 16:00:57,52.1919279627242,0.0982225183617343,2.952756,2.952756,39.50708295714,42.45983895714,2.952756,0,0.129666670816,0.73936354072,20,5,16.288,42.45983895714,2.952756,0.223694,0.281829733428,0,0,-0.894776,193.3, 0.6, 2.2,0,0,1024,1024,1024,1024,0,0,0,0,193.9,0,0,76,4.039,4.046,4.044,4.042,0,0,3.652,91.76,42.45983895714,2.952756,11,AutoTakeoff,
4300,2022-07-20 16:00:57,52.1919280514034,0.098222419024044,3.28084,3.28084,39.50708295714,42.78792295714,3.28084,0,0.107157811828,0.77861222964,20,5,16.288,42.78792295714,3.28084,0.223694,0.281829733428,0,0,-1.11847,193.4, 0.6, 2.6,0,0,1024,1024,1024,451,0,0,0,-87,193.9,0,0,76,4.039,4.046,4.044,4.042,0,0,3.652,91.76,42.78792295714,3.28084,11,AutoTakeoff,
4500,2022-07-20 16:00:57,52.1919281197936,0.0982223813020645,3.608924,3.608924,39.50708295714,43.11600695714,3.608924,0,0.105360239592,0.804954094,20,5,16.178,43.11600695714,3.608924,0.223694,0.281829733428,0,0,-0.894776,193.3, 0.1, 3,0,0,1024,1024,1024,1024,0,0,0,0,193.3,0,0,76,4.038,4.045,4.043,4.041,0,0,7.541,91.58,43.11600695714,3.608924,6,P-GPS,
4700,2022-07-20 16:00:57,52.1919281687764,0.0982223810505148,3.937008,3.937008,39.50708295714,43.44409095714,3.937008,0,0.113198494436,0.82282482948,20,5,16.178,43.44409095714,3.937008,0.223694,0.281829733428,0,0,-0.223694,191, -0.3, 4,0,0,1024,1024,1024,1024,0,0,0,0,189.2,0,0,76,4.038,4.045,4.043,4.041,0,0,7.541,91.58,43.44409095714,3.937008,6,P-GPS,
4900,2022-07-20 16:00:58,52.1919281995563,0.0982223220446325,3.937008,3.937008,39.50708295714,43.44409095714,3.937008,0,0.108717851248,0.84015422636,20,5,16.178,43.44409095714,3.937008,0.223694,0.281829733428,0,0,0,188.4, 0, 3.6,0,0,1024,1024,1024,485,0,0,0,-82,189,0,0,76,4.038,4.045,4.043,4.041,0,0,7.541,91.58,43.44409095714,3.937008,6,P-GPS,
5100,2022-07-20 16:00:58,52.1919281757168,0.0982223064066238,3.937008,3.937008,39.50708295714,43.44409095714,3.937008,0,0.100630252564,0.84952758624,20,5,16.178,43.44409095714,3.937008,0.223694,0.281829733428,0,0,0,189.1, 0.4, 4.2,0,0,1024,1024,1024,1161,0,0,0,21,188.6,0,0,76,4.038,4.045,4.043,4.041,0,0,7.541,91.58,43.44409095714,3.937008,6,P-GPS,
5300,2022-07-20 16:00:58,52.1919281766601,0.0982223070110419,3.937008,3.937008,39.50708295714,43.44409095714,3.937008,0,0.100943572784,0.84989832116,20,5,16.178,43.44409095714,3.937008,0.223694,0.281829733428,0,0,0,187.2, 0.3, 4.1,0,0,1024,1024,1027,740,0,0,0,-43,184.3,0,0,76,4.038,4.045,4.043,4.041,0,0,7.541,91.58,43.44409095714,3.937008,6,P-GPS,
5500,2022-07-20 16:00:58,52.1919281823037,0.0982222700646741,3.937008,3.937008,39.50708295714,43.44409095714,3.937008,0,0.095751643484,0.85841210096,20,5,16.171,43.44409095714,3.937008,0.223694,0.281829733428,0,0,0,183.1, -0.5, 3.6,0,0,1024,1024,1024,855,0,0,0,-26,183.2,0,0,76,4.035,4.042,4.041,4.04,0,0,7.641,91.58,43.44409095714,3.937008,6,P-GPS,
5700,2022-07-20 16:00:58,52.191928134824,0.0982222327724254,3.937008,3.937008,39.50708295714,43.44409095714,3.937008,0,0.07855315212,0.8776411042,20,5,16.171,43.44409095714,3.937008,0.223694,0.281829733428,0,0,0,182.8, 0.7, 4,0,0,1024,1024,1024,961,0,0,0,-10,182.5,0,0,76,4.035,4.042,4.041,4.04,0,0,7.641,91.58,43.44409095714,3.937008,6,P-GPS,
5900,2022-07-20 16:00:59,52.1919280693952,0.0982221142750301,3.937008,3.937008,39.50708295714,43.44409095714,3.937008,0,0.043403544696,0.91331039668,20,5,16.171,43.44409095714,3.937008,0.223694,0.281829733428,0,0,0,182.6, 0.5, 4.3,0,0,1186,977,1024,1005,25,-7,0,-3,182.5,0,0,76,4.035,4.042,4.041,4.04,0,0,7.641,91.58,43.44409095714,3.937008,6,P-GPS,
6100,2022-07-20 16:00:59,52.1919279842971,0.0982219230238605,3.937008,3.937008,39.50708295714,43.44409095714,3.937008,0,0.0111892392032,0.96616472908,20,5,16.171,43.44409095714,3.937008,0.223694,0.281829733428,0,0,0,182.4, 1.7, 2.7,0,0,1515,945,1024,1024,74,-12,0,0,182.4,0,0,76,4.035,4.042,4.041,4.04,0,0,7.641,91.58,43.44409095714,3.937008,6,P-GPS,
6300,2022-07-20 16:00:59,52.1919279009306,0.0982217854995224,3.937008,3.937008,39.50708295714,43.44409095714,3.937008,0,0.053895014848,1.00942260448,21,5,16.171,43.44409095714,3.937008,0.223694,0.281829733428,0,0,0,182.4, -2, 0.3,0,0,1529,983,1024,1024,77,-6,0,0,182.4,0,0,76,4.035,4.042,4.041,4.04,0,0,7.641,91.58,43.44409095714,3.937008,6,P-GPS,
6500,2022-07-20 16:00:59,52.1919276870044,0.0982219063167654,3.937008,3.937008,39.50708295714,43.44409095714,3.937008,0.223694,0.11890420328,1.09201775148,21,5,16.176,43.44409095714,3.937008,0.223694,0.281829733428,-0.223694,0,0,182.6, -2.9, 1.7,0,0,1292,1024,1024,1024,41,0,0,0,182.4,0,0,76,4.035,4.039,4.04,4.038,0,0,7.046,91.76,43.44409095714,3.937008,6,P-GPS,
6700,2022-07-20 16:00:59,52.191927322657,0.0982221341334844,3.937008,3.937008,39.50708295714,43.44409095714,3.937008,0.4921268,0.255094496352,1.23437996076,21,5,16.176,43.44409095714,3.937008,0.4921268,0.281829733428,-0.447388,0.223694,0,182.4, -4.2, 2.4,0,0,1024,1024,1024,1024,0,0,0,0,182.4,0,0,76,4.035,4.039,4.04,4.038,0,0,7.046,91.76,43.44409095714,3.937008,6,P-GPS,
6900,2022-07-20 16:00:59,52.1919267009598,0.0982224105866465,3.937008,3.937008,39.50708295714,43.44409095714,3.937008,0.9171454,0.4895997532,1.46948167432,21,5,16.176,43.44409095714,3.937008,0.9171454,0.4895997532,-0.894776,0.223694,0,181.7, 0.8, 2.1,0,0,1024,1024,1107,1024,0,0,13,0,182.4,0,0,76,4.035,4.039,4.04,4.038,0,0,7.046,91.76,43.44409095714,3.937008,6,P-GPS,
7100,2022-07-20 16:01:00,52.1919260601892,0.0982226560397972,3.937008,3.937008,39.50708295714,43.44409095714,4.265092,0.447388,0.72972115196,1.70962603896,21,5,16.176,43.44409095714,3.937008,0.9171454,0.72972115196,-0.447388,0,0,182.6, 7, 4.9,0,0,1024,1024,1502,1024,0,0,72,0,182.4,0,0,76,4.035,4.039,4.04,4.038,0,0,7.046,91.76,43.44409095714,3.937008,6,P-GPS,
7300,2022-07-20 16:01:00,52.191925813646,0.0982226323766531,3.937008,3.937008,39.50708295714,43.44409095714,4.265092,0,0.81672902876,1.79973430956,21,5,16.176,43.44409095714,3.937008,0.9171454,0.81672902876,0,0,-0.447388,182.7, 2.5, 3,0,0,1024,1024,1581,1024,0,0,84,0,182.4,0,0,76,4.035,4.039,4.04,4.038,0,0,7.046,91.76,43.44409095714,3.937008,6,P-GPS,
7500,2022-07-20 16:01:00,52.19192579549,0.0982224124453196,4.593176,4.593176,39.50708295714,44.10025895714,4.593176,0,0.81547246704,1.84936685708,21,5,16.152,44.10025895714,4.593176,0.9171454,0.81672902876,0,0,-2.684328,182.4, 1.1, 1.5,0,0,1024,1024,1024,1024,0,0,0,0,182.4,0,0,76,3.996,4.007,4.007,4.005,0,0,7.506,91.76,44.10025895714,4.593176,6,P-GPS,
7700,2022-07-20 16:01:00,52.1919258677437,0.0982221769528398,5.577428,5.577428,39.50708295714,45.08451095714,5.905512,0,0.7840879516,1.9082677776,21,5,16.152,45.08451095714,5.577428,0.9171454,0.81672902876,0,0,-4.47388,182.4, 0.8, 2.9,0,0,1024,1024,1024,1024,0,0,0,0,182.4,0,0,76,3.996,4.007,4.007,4.005,0,0,7.506,91.76,45.08451095714,5.577428,6,P-GPS,
7900,2022-07-20 16:01:01,52.1919259800831,0.0982218916430307,6.889764,6.889764,39.50708295714,46.39684695714,7.217848,0,0.74146327832,1.98410767504,21,5,16.152,46.39684695714,6.889764,0.9171454,0.81672902876,0,0,-3.131716,182.4, -0.5, 3.2,0,0,1024,1024,1024,1024,0,0,0,0,182.4,0,0,76,3.996,4.007,4.007,4.005,0,0,7.506,91.76,46.39684695714,6.889764,6,P-GPS,
8100,2022-07-20 16:01:01,52.1919261205973,0.0982215786033566,7.545932,7.545932,39.50708295714,47.05301495714,7.545932,0,0.6949311246,2.07088589304,21,5,16.152,47.05301495714,7.545932,0.9171454,0.81672902876,0,0,-1.11847,182.4, -1.2, 2,0,0,1024,1024,1190,942,0,0,25,-12,182.4,0,0,76,3.996,4.007,4.007,4.005,0,0,7.506,91.76,47.05301495714,7.545932,6,P-GPS,
8300,2022-07-20 16:01:01,52.1919262704295,0.0982213076074263,7.545932,7.545932,39.50708295714,47.05301495714,7.874016,0,0.65119424656,2.15250663056,21,5,16.152,47.05301495714,7.545932,0.9171454,0.81672902876,0,0,0,182.3, -1.1, 1.6,0,0,1024,1024,1428,1012,0,0,61,-2,182.4,0,0,76,3.996,4.007,4.007,4.005,0,0,7.506,91.76,47.05301495714,7.545932,6,P-GPS,
8500,2022-07-20 16:01:01,52.1919263533758,0.0982211478279239,7.874016,7.874016,39.50708295714,47.38109895714,7.874016,0,0.63084319604,2.19933405988,21,5,16.121,47.38109895714,7.874016,0.9171454,0.81672902876,0,0,-0.447388,182.3, -0.8, 1.8,0,0,1024,1024,1460,1024,0,0,66,0,182.4,0,0,76,4.037,4.038,4.03,4.021,0,0,7.765,91.58,47.38109895714,7.874016,6,P-GPS,
8700,2022-07-20 16:01:01,52.1919263534299,0.0982212131033341,8.2021,8.2021,39.50708295714,47.70918295714,8.530184,0,0.61339896976,2.24616477004,21,5,16.121,47.70918295714,8.2021,0.9171454,0.81672902876,0,0,-2.684328,182.5, -1.1, 2.9,0,0,1024,1024,1139,1023,0,0,17,-0,182.3,0,0,76,4.037,4.038,4.03,4.021,0,0,7.765,91.58,47.70918295714,8.2021,6,P-GPS,
8900,2022-07-20 16:01:01,52.191926353484,0.0982212783787443,9.186352,9.186352,39.50708295714,48.69343495714,9.514436,0,0.62319227716,2.31778878808,21,5,16.121,48.69343495714,9.186352,0.9171454,0.81672902876,0,0,-2.908022,182, 0, 5.6,0,0,1024,1024,1346,1023,0,0,49,-0,182.3,0,0,76,4.037,4.038,4.03,4.021,0,0,7.765,91.58,48.69343495714,9.186352,6,P-GPS,
9100,2022-07-20 16:01:02,52.1919263004542,0.0982212339941905,9.84252,9.84252,39.50708295714,49.34960295714,9.84252,0,0.64437009936,2.3395341956,21,5,16.121,49.34960295714,9.84252,0.9171454,0.81672902876,0,0,-1.11847,182.3, 0.8, 4.9,0,0,1024,1024,1435,1024,0,0,62,0,182.3,0,0,76,4.037,4.038,4.03,4.021,0,0,7.765,91.58,49.34960295714,9.84252,6,P-GPS,
9300,2022-07-20 16:01:02,52.1919262550369,0.0982210215220055,10.498688,10.498688,39.50708295714,50.00577095714,10.498688,0,0.67345474596,2.3898622812,21,5,16.121,50.00577095714,10.498688,0.9171454,0.81672902876,0,0,-2.460634,180.8, 0.4, 1.6,0,0,1024,1024,1024,1024,0,0,0,0,182.3,0,0,76,4.037,4.038,4.03,4.021,0,0,7.765,91.58,50.00577095714,10.498688,6,P-GPS,
9500,2022-07-20 16:01:02,52.1919262303853,0.0982209371375496,11.48294,11.48294,39.50708295714,50.99002295714,11.48294,0,0.68796590128,2.41076779368,21,5,16.175,50.99002295714,11.48294,0.9171454,0.81672902876,0,0,-3.579104,180.1, -0.7, 3.2,0,0,1024,1024,1024,1024,0,0,0,0,182.3,0,0,76,3.993,3.993,3.987,4,0,0,8.663,92.12,50.99002295714,11.48294,6,P-GPS,
9700,2022-07-20 16:01:02,52.1919261858044,0.0982209511230163,12.139108,12.139108,39.50708295714,51.64619095714,12.139108,0,0.70235894636,2.42733275484,21,5,16.175,51.64619095714,12.139108,0.9171454,0.81672902876,0,0,-1.789552,179.8, 0.4, 5.5,0,0,1024,1024,1024,1024,0,0,0,0,182.3,0,0,76,3.993,3.993,3.987,4,0,0,8.663,92.12,51.64619095714,12.139108,6,P-GPS,
9900,2022-07-20 16:01:02,52.1919261516526,0.0982209668448749,12.467192,12.467192,39.50708295714,51.97427495714,12.467192,0,0.7131069782,2.44027894948,20,5,16.175,51.97427495714,12.467192,0.9171454,0.81672902876,0,0,-0.447388,179.9, 0, 4.6,0,0,1024,1024,1024,1024,0,0,0,0,182.3,0,0,76,3.993,3.993,3.987,4,0,0,8.663,92.12,51.97427495714,12.467192,6,P-GPS,
10100,2022-07-20 16:01:03,52.1919261290309,0.0982209386782917,12.467192,12.467192,39.50708295714,51.97427495714,12.795276,0,0.7229002856,2.45066280808,20,5,16.175,51.97427495714,12.467192,0.9171454,0.81672902876,0,0,0,179.8, -0.2, 3.5,0,0,1024,1024,1024,1024,0,0,0,0,182.3,0,0,76,3.993,3.993,3.987,4,0,0,8.663,92.12,51.97427495714,12.467192,6,P-GPS,
10300,2022-07-20 16:01:03,52.1919261245793,0.0982209826750397,12.467192,12.467192,39.50708295714,51.97427495714,12.467192,0,0.72145015432,2.46063328084,20,5,16.175,51.97427495714,12.467192,0.9171454,0.81672902876,0,0,0,179.8, -1, 3.8,0,0,1024,1024,1024,1024,0,0,0,0,182.3,0,0,76,3.993,3.993,3.987,4,0,0,8.663,92.12,51.97427495714,12.467192,6,P-GPS,
10500,2022-07-20 16:01:03,52.191926127296,0.0982210553414703,12.467192,12.467192,39.50708295714,51.97427495714,12.467192,0,0.71582351372,2.47691608976,20,5,16.182,51.97427495714,12.467192,0.9171454,0.81672902876,0,0,0,179.8, -1, 4.5,0,0,1024,1024,1024,1024,0,0,0,0,182.3,0,0,76,4.025,4.031,4.032,4.029,0,0,8.2,91.94,51.97427495714,12.467192,6,P-GPS,
10700,2022-07-20 16:01:03,52.1919261149112,0.0982211207199459,12.467192,12.467192,39.50708295714,51.97427495714,12.467192,0,0.71626642712,2.49222120836,20,5,16.182,51.97427495714,12.467192,0.9171454,0.81672902876,0,0,0,179.8, -1.6, 5,0,0,1024,1024,1024,1024,0,0,0,0,182.3,0,0,76,4.025,4.031,4.032,4.029,0,0,8.2,91.94,51.97427495714,12.467192,6,P-GPS,
10900,2022-07-20 16:01:04,52.1919260610665,0.0982210774953159,12.467192,12.467192,39.50708295714,51.97427495714,12.467192,0,0.73774936744,2.51411753452,20,5,16.182,51.97427495714,12.467192,0.9171454,0.81672902876,0,0,0,179.9, -0.8, 4.8,0,0,1024,1024,1024,1024,0,0,0,0,182.3,0,0,76,4.025,4.031,4.032,4.029,0,0,8.2,91.94,51.97427495714,12.467192,6,P-GPS,
11100,2022-07-20 16:01:04,52.1919259893341,0.098220931732724,12.467192,12.467192,39.50708295714,51.97427495714,12.467192,0,0.77195868612,2.55592527864,20,5,16.182,51.97427495714,12.467192,0.9171454,0.81672902876,0,0,0,179.8, -1.5, 3.8,0,0,1024,1024,1024,1024,0,0,0,0,182.3,0,0,76,4.025,4.031,4.032,4.029,0,0,8.2,91.94,51.97427495714,12.467192,6,P-GPS,
11300,2022-07-20 16:01:04,52.1919259037106,0.098220772320065,12.467192,12.467192,39.50708295714,51.97427495714,12.467192,0,0.812664068,2.60332685496,20,5,16.182,51.97427495714,12.467192,0.9171454,0.81672902876,0,0,0,180.1, -0.6, 2.9,0,0,1024,1024,1024,1024,0,0,0,0,182.3,0,0,76,4.025,4.031,4.032,4.029,0,0,8.2,91.94,51.97427495714,12.467192,6,P-GPS,
11500,2022-07-20 16:01:04,52.191925824446,0.0982206841064631,12.795276,12.795276,39.50708295714,52.30235895714,12.467192,0,0.84645343916,2.6383366986,20,5,16.153,52.30235895714,12.795276,0.9171454,0.84645343916,0,0,0,179.9, 0.1, 2.8,0,0,1024,1024,1024,1024,0,0,0,0,182.3,0,0,76,4.024,4.03,4.031,4.028,0,0,7.893,92.12,52.30235895714,12.795276,6,P-GPS,
11700,2022-07-20 16:01:04,52.191925799792,0.0982206884491898,12.795276,12.795276,39.50708295714,52.30235895714,12.467192,0,0.85461944992,2.64738525532,20,5,16.153,52.30235895714,12.795276,0.9171454,0.85461944992,0,0,0,179.9, -0.2, 2.9,0,0,1024,1024,1024,1024,0,0,0,0,182.3,0,0,76,4.024,4.03,4.031,4.028,0,0,7.893,92.12,52.30235895714,12.795276,6,P-GPS,
11900,2022-07-20 16:01:05,52.1919258082379,0.0982207281800734,12.795276,12.795276,39.50708295714,52.30235895714,12.467192,0,0.84882220564,2.65678814276,20,5,16.153,52.30235895714,12.795276,0.9171454,0.85461944992,0,0,0,179.8, -1, 3.1,0,0,1024,1024,1024,1024,0,0,0,0,182.3,0,0,76,4.024,4.03,4.031,4.028,0,0,7.893,92.12,52.30235895714,12.795276,6,P-GPS,
12100,2022-07-20 16:01:05,52.1919258428964,0.0982207929052185,12.795276,12.795276,39.50708295714,52.30235895714,12.467192,0,0.83226052532,2.67601058432,20,5,16.153,52.30235895714,12.795276,0.9171454,0.85461944992,0,0,0,179.9, -0.8, 3.1,0,0,1024,1024,1024,1024,0,0,0,0,182.3,0,0,76,4.024,4.03,4.031,4.028,0,0,7.893,92.12,52.30235895714,12.795276,6,P-GPS,
12300,2022-07-20 16:01:05,52.1919258851568,0.0982208760459007,12.795276,12.795276,39.50708295714,52.30235895714,12.467192,0,0.81194884488,2.70016740924,20,5,16.153,52.30235895714,12.795276,0.9171454,0.85461944992,0,0,0,179.9, -1, 2.9,0,0,1024,1024,1024,1024,0,0,0,0,182.3,0,0,76,4.024,4.03,4.031,4.028,0,0,7.893,92.12,52.30235895714,12.795276,6,P-GPS,
12500,2022-07-20 16:01:05,52.1919259219772,0.0982209555460992,12.795276,12.795276,39.50708295714,52.30235895714,12.795276,0,0.79398624588,2.72245087452,20,5,16.115,52.30235895714,12.795276,0.9171454,0.85461944992,0,0,0,179.9, -1.7, 3.2,0,0,1024,1024,1024,1024,0,0,0,0,182.3,0,0,76,4.024,4.029,4.028,4.025,0,0,7.392,92.12,52.30235895714,12.795276,6,P-GPS,
12700,2022-07-20 16:01:05,52.1919259186722,0.0982210412931161,12.795276,12.795276,39.50708295714,52.30235895714,12.467192,0,0.79002299116,2.7416667544,20,5,16.115,52.30235895714,12.795276,0.9171454,0.85461944992,0,0,0,179.9, -0.6, 3.1,0,0,1024,1024,1024,1024,0,0,0,0,182.3,0,0,76,4.024,4.029,4.028,4.025,0,0,7.392,92.12,52.30235895714,12.795276,6,P-GPS,
12900,2022-07-20 16:01:06,52.1919259165872,0.0982211034818014,12.795276,12.795276,39.50708295714,52.30235895714,12.795276,0,0.78732285984,2.75559720104,20,5,16.115,52.30235895714,12.795276,0.9171454,0.85461944992,0,0,0,179.8, -0.9, 2.9,0,0,1024,1024,1024,1024,0,0,0,0,182.3,0,0,76,4.024,4.029,4.028,4.025,0,0,7.392,92.12,52.30235895714,12.795276,6,P-GPS,
13100,2022-07-20 16:01:06,52.1919259293878,0.0982211803407276,12.795276,12.795276,39.50708295714,52.30235895714,12.795276,0,0.7788386076,2.77341216224,20,5,16.115,52.30235895714,12.795276,0.9171454,0.85461944992,0,0,0,180.1, -1.5, 3.1,0,0,1024,1024,1024,1024,0,0,0,0,182.3,0,0,76,4.024,4.029,4.028,4.025,0,0,7.392,92.12,52.30235895714,12.795276,6,P-GPS,
13300,2022-07-20 16:01:06,52.1919259012907,0.0982212082662423,12.795276,12.795276,39.50708295714,52.30235895714,12.795276,0,0.78751314856,2.7854167558,20,5,16.115,52.30235895714,12.795276,0.9171454,0.85461944992,0,0,0,179.9, -0.6, 2.8,0,0,1024,1024,1024,1024,0,0,0,0,182.3,0,0,76,4.024,4.029,4.028,4.025,0,0,7.392,92.12,52.30235895714,12.795276,6,P-GPS,
13500,2022-07-20 16:01:06,52.191925856713,0.0982212139889988,12.795276,12.795276,39.50708295714,52.30235895714,12.795276,0,0.80316275536,2.80172909228,20,5,16.115,52.30235895714,12.795276,0.9171454,0.85461944992,0,0,0,179.9, -0.1, 2.4,0,0,1024,1024,1024,1024,0,0,0,0,182.3,0,0,76,4.024,4.029,4.028,4.025,0,0,7.392,92.12,52.30235895714,12.795276,6,P-GPS,
13700,2022-07-20 16:01:06,52.1919258432057,0.09822127219656,12.795276,12.795276,39.50708295714,52.30235895714,12.795276,0,0.81884188972,2.8180447096,20,5,16.101,52.30235895714,12.795276,0.9171454,0.85461944992,0,0,0,179.9, 0.5, 2.6,0,0,1024,1024,1024,1024,0,0,0,0,182.3,0,0,76,4.022,4.027,4.027,4.025,0,0,7.361,92.3,52.30235895714,12.795276,6,P-GPS,
13900,2022-07-20 16:01:06,52.1919258296983,0.0982213304041213,12.795276,12.795276,39.50708295714,52.30235895714,12.795276,0,0.807988871,2.8436188574,20,5,16.101,52.30235895714,12.795276,0.9171454,0.85461944992,0,0,0,179.8, -0.2, 3.1,0,0,1024,1024,1024,1024,0,0,0,0,182.3,1.4,0,76,4.022,4.027,4.027,4.025,0,0,7.361,92.3,52.30235895714,12.795276,6,P-GPS,
14100,2022-07-20 16:01:07,52.1919259188577,0.0982213933823933,12.795276,12.795276,39.50708295714,52.30235895714,12.795276,0,0.77358270192,2.87906505276,20,5,16.101,52.30235895714,12.795276,0.9171454,0.85461944992,0,0,0,179.6, -0.8, 3.2,0,0,1024,1024,1024,1024,0,0,0,0,182.3,4,0,76,4.022,4.027,4.027,4.025,0,0,7.361,92.3,52.30235895714,12.795276,6,P-GPS,
14300,2022-07-20 16:01:07,52.1919260140531,0.0982214655003057,12.795276,12.795276,39.50708295714,52.30235895714,12.795276,0,0.73679792384,2.91736229808,20,5,16.101,52.30235895714,12.795276,0.9171454,0.85461944992,0,0,0,179.7, -0.9, 3.2,0,0,1024,1024,1024,1024,0,0,0,0,182.3,6.8,0,76,4.022,4.027,4.027,4.025,0,0,7.361,92.3,52.30235895714,12.795276,6,P-GPS,
14500,2022-07-20 16:01:07,52.1919260844041,0.0982215584164902,12.795276,12.795276,39.50708295714,52.30235895714,12.795276,0,0.70858269984,2.95038723352,20,5,16.101,52.30235895714,12.795276,0.9171454,0.85461944992,0,0,0,179.7, -1, 3.2,0,0,1024,1024,1024,1024,0,0,0,0,182.3,9.5,0,76,4.022,4.027,4.027,4.025,0,0,7.361,92.3,52.30235895714,12.795276,6,P-GPS,
14700,2022-07-20 16:01:07,52.1919261360707,0.0982216539494907,12.795276,12.795276,39.50708295714,52.30235895714,12.795276,0,0.68752954956,2.97888132892,20,5,16.098,52.30235895714,12.795276,0.9171454,0.85461944992,0,0,0,179.9, -0.2, 3.9,0,0,1024,1024,1024,1024,0,0,0,0,182.3,9.4,0,76,4.018,4.026,4.025,4.024,0,0,7.394,92.3,52.30235895714,12.795276,6,P-GPS,
14900,2022-07-20 16:01:08,52.1919261860887,0.0982217193943475,12.795276,12.795276,39.50708295714,52.30235895714,12.795276,0,0.66810369592,3.00227371812,20,5,16.098,52.30235895714,12.795276,0.9171454,0.85461944992,0,0,0,179.6, -0.8, 3.2,0,0,1024,1024,1024,1024,0,0,0,0,182.3,7,0,76,4.018,4.026,4.025,4.024,0,0,7.394,92.3,52.30235895714,12.795276,6,P-GPS,
15100,2022-07-20 16:01:08,52.1919261895985,0.098221777806293,12.795276,12.795276,39.50708295714,52.30235895714,12.795276,0,0.66597114992,3.01540035896,20,5,16.098,52.30235895714,12.795276,0.9171454,0.85461944992,0,0,0,179.8, 0.1, 3.2,0,0,1024,1024,1024,1024,0,0,0,0,182.3,4.1,0,76,4.018,4.026,4.025,4.024,0,0,7.394,92.3,52.30235895714,12.795276,6,P-GPS,
15300,2022-07-20 16:01:08,52.1919262006822,0.0982218761447718,12.795276,12.795276,39.50708295714,52.30235895714,12.795276,0,0.66105973244,3.0377625644,20,5,16.098,52.30235895714,12.795276,0.9171454,0.85461944992,0,0,0,179.7, 0.1, 3.7,0,0,1024,1024,1024,1024,0,0,0,0,182.3,1.2,0,76,4.018,4.026,4.025,4.024,0,0,7.394,92.3,52.30235895714,12.795276,6,P-GPS,
15500,2022-07-20 16:01:08,52.1919262632006,0.0982220318820096,12.795276,12.795276,39.50708295714,52.30235895714,12.795276,0,0.63837600468,3.07939970484,20,5,16.098,52.30235895714,12.795276,0.9171454,0.85461944992,0,0,0,179.7, 0, 3.7,0,0,1024,1024,1024,1024,0,0,0,0,182.3,-1.6,0,76,4.018,4.026,4.025,4.024,0,0,7.394,92.3,52.30235895714,12.795276,6,P-GPS,
15700,2022-07-20 16:01:08,52.1919263429681,0.0982221819384159,12.795276,12.795276,39.50708295714,52.30235895714,12.795276,0,0.61128938964,3.12382227844,20,5,16.089,52.30235895714,12.795276,0.9171454,0.85461944992,0,0,0,179.8, -0.2, 3.8,0,0,1024,1024,1024,1024,0,0,0,0,182.3,-4.5,0,76,4.017,4.024,4.022,4.022,0,0,7.437,92.3,52.30235895714,12.795276,6,P-GPS,
15900,2022-07-20 16:01:09,52.1919264101231,0.098222382811363,12.795276,12.795276,39.50708295714,52.30235895714,12.795276,0,0.59264437592,3.17499682076,20,5,16.089,52.30235895714,12.795276,0.9171454,0.85461944992,0,0,0,180.3, -0.4, 4.5,0,0,1024,1024,1024,1024,0,0,0,0,182.3,-7.4,0,76,4.017,4.024,4.022,4.022,0,0,7.437,92.3,52.30235895714,12.795276,6,P-GPS,
16100,2022-07-20 16:01:09,52.1919264636698,0.0982225595914351,12.795276,12.795276,39.50708295714,52.30235895714,12.795276,0,0.58145671152,3.21909787204,20,5,16.089,52.30235895714,12.795276,0.9171454,0.85461944992,0,0,0,179.9, -0.2, 4.6,0,0,1024,1024,1024,1024,0,0,0,0,182.3,-10.3,0,76,4.017,4.024,4.022,4.022,0,0,7.437,92.3,52.30235895714,12.795276,6,P-GPS,
16300,2022-07-20 16:01:09,52.1919265190234,0.0982227384502864,12.795276,12.795276,39.50708295714,52.30235895714,12.795276,0,0.57296917844,3.2639108656,20,5,16.089,52.30235895714,12.795276,0.9171454,0.85461944992,0,0,0,179.5, -0.6, 5.2,0,0,1024,1024,1024,1024,0,0,0,0,182.3,-13.3,0,76,4.017,4.024,4.022,4.022,0,0,7.437,92.3,52.30235895714,12.795276,6,P-GPS,
16500,2022-07-20 16:01:09,52.1919265568094,0.0982228619262703,12.795276,12.795276,39.50708295714,52.30235895714,12.795276,0,0.56924542504,3.29478357,20,5,16.089,52.30235895714,12.795276,0.9171454,0.85461944992,0,0,0,179.1, -0.9, 5.3,0,0,1024,1024,1024,1024,0,0,0,0,182.3,-16.2,0,76,4.017,4.024,4.022,4.022,0,0,7.437,92.3,52.30235895714,12.795276,6,P-GPS,
16700,2022-07-20 16:01:09,52.191926556845,0.0982229720840931,12.795276,12.795276,39.50708295714,52.30235895714,12.795276,0,0.57857285316,3.3194226784,20,5,16.081,52.30235895714,12.795276,0.9171454,0.85461944992,0,0,0,178.5, -0.4, 5.5,0,0,1024,1024,1024,1024,0,0,0,0,182.3,-19.1,0,76,4.015,4.023,4.023,4.02,0,0,7.523,92.48,52.30235895714,12.795276,6,P-GPS,
16900,2022-07-20 16:01:09,52.1919265466517,0.0982230186766946,12.795276,12.795276,39.50708295714,52.30235895714,12.795276,0,0.58618112112,3.3304791092,20,5,16.081,52.30235895714,12.795276,0.9171454,0.85461944992,0,0,0,178.2, -0.3, 5.4,0,0,1024,1024,1024,1024,0,0,0,0,182.3,-22,0,76,4.015,4.023,4.023,4.02,0,0,7.523,92.48,52.30235895714,12.795276,6,P-GPS,
17100,2022-07-20 16:01:10,52.1919264911151,0.09822297143775,12.795276,12.795276,39.50708295714,52.30235895714,12.795276,0,0.60060041292,3.353346564,20,5,16.081,52.30235895714,12.795276,0.9171454,0.85461944992,0,0,0,179.3, 0.2, 4.8,0,0,1024,1024,1024,1024,0,0,0,0,182.3,-24.9,0,76,4.015,4.023,4.023,4.02,0,0,7.523,92.48,52.30235895714,12.795276,6,P-GPS,
17300,2022-07-20 16:01:10,52.1919264326774,0.0982228429412526,12.795276,12.795276,39.50708295714,52.30235895714,12.795276,0,0.61029201428,3.38910772,20,5,16.081,52.30235895714,12.795276,0.9171454,0.85461944992,0,0,0,179.9, 0.4, 4.2,0,0,1024,1024,1024,1024,0,0,0,0,182.3,-27.8,0,76,4.015,4.023,4.023,4.02,0,0,7.523,92.48,52.30235895714,12.795276,6,P-GPS,
17500,2022-07-20 16:01:10,52.1919263769865,0.0982227057488205,12.795276,12.795276,39.50708295714,52.30235895714,12.795276,0,0.62039700148,3.4259187448,20,5,16.081,52.30235895714,12.795276,0.9171454,0.85461944992,0,0,0,180.1, 0.5, 3.6,0,0,1024,1024,1024,1024,0,0,0,0,182.3,-30.7,0,76,4.015,4.023,4.023,4.02,0,0,7.523,92.48,52.30235895714,12.795276,6,P-GPS,
17700,2022-07-20 16:01:10,52.1919263997496,0.0982225826850986,12.795276,12.795276,39.50708295714,52.30235895714,12.795276,0,0.60533794588,3.4546589032,20,5,16.083,52.30235895714,12.795276,0.9171454,0.85461944992,0,0,0,180.1, 0, 3.3,0,0,1024,1024,1024,1024,0,0,0,0,182.3,-33.7,0,76,4.015,4.021,4.02,4.019,0,0,7.463,92.48,52.30235895714,12.795276,6,P-GPS,
17900,2022-07-20 16:01:10,52.1919264903911,0.0982225258208828,12.795276,12.795276,39.50708295714,52.30235895714,12.795276,0,0.57021983452,3.4900919752,20,5,16.083,52.30235895714,12.795276,0.9171454,0.85461944992,0,0,0,180.2, -0.7, 4,0,0,1024,1024,1024,1024,0,0,0,0,182.3,-36.6,0,76,4.015,4.021,4.02,4.019,0,0,7.463,92.48,52.30235895714,12.795276,6,P-GPS,
18100,2022-07-20 16:01:11,52.1919265738083,0.0982223864099217,12.795276,12.795276,39.50708295714,52.30235895714,12.795276,0,0.5339895184,3.5336615304,20,5,16.083,52.30235895714,12.795276,0.9171454,0.85461944992,0,0,0,179.8, -1.5, 3.5,0,0,1024,1024,1024,1024,0,0,0,0,182.3,-39.5,0,76,4.015,4.021,4.02,4.019,0,0,7.463,92.48,52.30235895714,12.795276,6,P-GPS,
18300,2022-07-20 16:01:11,52.1919266611062,0.0982221846984755,12.795276,12.795276,39.50708295714,52.30235895714,12.795276,0,0.49582678752,3.588910876,20,5,16.083,52.30235895714,12.795276,0.9171454,0.85461944992,0,0,0,179.9, -1.9, 2.1,0,0,1024,1024,1024,1024,0,0,0,0,182.3,-42.4,0,76,4.015,4.021,4.02,4.019,0,0,7.463,92.48,52.30235895714,12.795276,6,P-GPS,
18500,2022-07-20 16:01:11,52.1919267088708,0.098222030292355,12.795276,12.795276,39.50708295714,52.30235895714,12.795276,0,0.47586287612,3.6275919796,20,5,16.083,52.30235895714,12.795276,0.9171454,0.85461944992,0,0,0,180.1, -2.2, 1.4,0,0,1024,1024,1024,1024,0,0,0,0,182.3,-45.3,0,76,4.015,4.021,4.02,4.019,0,0,7.463,92.48,52.30235895714,12.795276,6,P-GPS,
18700,2022-07-20 16:01:11,52.1919266786143,0.0982219782809529,12.795276,12.795276,39.50708295714,52.30235895714,12.795276,0,0.48657153788,3.6436024788,20,5,16.075,52.30235895714,12.795276,0.9171454,0.85461944992,0,0,0,179.8, -1.6, 1.8,0,0,1024,1024,1024,1024,0,0,0,0,182.3,-48.2,0,76,4.016,4.022,4.021,4.018,0,0,7.383,92.48,52.30235895714,12.795276,6,P-GPS,
18900,2022-07-20 16:01:12,52.191926620142,0.0982219711327479,12.795276,12.795276,39.50708295714,52.30235895714,12.795276,0,0.50788059368,3.6649935556,20,5,16.075,52.30235895714,12.795276,0.9171454,0.85461944992,0,0,0,179.8, -1.6, 1.9,0,0,1024,1024,1024,1024,0,0,0,0,182.3,-51.2,0,76,4.016,4.022,4.021,4.018,0,0,7.383,92.48,52.30235895714,12.795276,6,P-GPS,
19100,2022-07-20 16:01:12,52.191926538091,0.0982220440891594,12.795276,12.795276,39.50708295714,52.30235895714,12.795276,0,0.53824476788,3.6991142916,20,5,16.075,52.30235895714,12.795276,0.9171454,0.85461944992,0,0,0,180.1, -1.2, 1.8,0,0,1024,1024,1024,1024,0,0,0,0,182.3,-54.1,0,76,4.016,4.022,4.021,4.018,0,0,7.383,92.48,52.30235895714,12.795276,6,P-GPS,
19300,2022-07-20 16:01:12,52.1919264406794,0.098222275452031,12.795276,12.795276,39.50708295714,52.30235895714,12.795276,0,0.57808728884,3.7618767608,20,5,16.075,52.30235895714,12.795276,0.9171454,0.85461944992,0,0,0,179.8, -0.8, 3,0,0,1024,1024,1024,1024,0,0,0,0,182.3,-57,0,76,4.016,4.022,4.021,4.018,0,0,7.383,92.48,52.30235895714,12.795276,6,P-GPS,
19500,2022-07-20 16:01:12,52.1919263361972,0.0982225898333037,12.795276,12.795276,39.50708295714,52.30235895714,12.795276,0,0.62826117496,3.84186364,20,5,16.075,52.30235895714,12.795276,0.9171454,0.85461944992,0,0,0,179.7, -0.2, 4.4,0,0,1024,1024,1024,1024,0,0,0,0,182.3,-59.9,0,76,4.016,4.022,4.021,4.018,0,0,7.383,92.48,52.30235895714,12.795276,6,P-GPS,
19700,2022-07-20 16:01:12,52.1919262680624,0.0982228519551182,12.795276,12.795276,39.50708295714,52.30235895714,12.795276,0,0.66790684552,3.9055447444,20,5,16.074,52.30235895714,12.795276,0.9171454,0.85461944992,0,0,0,179.8, -0.7, 5.1,0,0,1024,1024,1024,1024,0,0,0,0,182.3,-62.8,0,76,4.013,4.019,4.019,4.017,0,0,7.295,92.66,52.30235895714,12.795276,6,P-GPS,
19900,2022-07-20 16:01:13,52.1919262134667,0.0982230431853253,12.795276,12.795276,39.50708295714,52.30235895714,12.795276,0,0.70074149224,3.9527232236,20,5,16.074,52.30235895714,12.795276,0.9171454,0.85461944992,0,0,0,179.7, -1, 4.9,0,0,1024,1024,1024,1024,0,0,0,0,182.3,-65.7,0,76,4.013,4.019,4.019,4.017,0,0,7.295,92.66,52.30235895714,12.795276,6,P-GPS,
20100,2022-07-20 16:01:13,52.1919261067975,0.0982231567146134,12.795276,12.795276,39.50708295714,52.30235895714,12.795276,0,0.7461614412,3.999179918,20,5,16.074,52.30235895714,12.795276,0.9171454,0.85461944992,0,0,0,179.7, -0.5, 5.2,0,0,1024,1024,1024,1024,0,0,0,0,182.3,-68.6,0,76,4.013,4.019,4.019,4.017,0,0,7.295,92.66,52.30235895714,12.795276,6,P-GPS,
20300,2022-07-20 16:01:13,52.1919259923025,0.0982231914878709,12.795276,12.795276,39.50708295714,52.30235895714,12.795276,0,0.78794621944,4.041666796,20,5,16.074,52.30235895714,12.795276,0.9171454,0.85461944992,0,0,0,179.9, -0.2, 4.9,0,0,1024,1024,1024,1024,0,0,0,0,182.3,-71.6,0,76,4.013,4.019,4.019,4.017,0,0,7.295,92.66,52.30235895714,12.795276,6,P-GPS,
20500,2022-07-20 16:01:13,52.191925900891,0.0982231741256984,12.795276,12.795276,39.50708295714,52.30235895714,12.795276,0,0.81791013116,4.0752625976,20,5,16.074,52.30235895714,12.795276,0.9171454,0.85461944992,0,0,0,179.8, -0.6, 4.5,0,0,1024,1024,1024,1024,0,0,0,0,182.3,-74.5,0,76,4.013,4.019,4.019,4.017,0,0,7.295,92.66,52.30235895714,12.795276,6,P-GPS,
20700,2022-07-20 16:01:13,52.1919258268129,0.0982231394983047,12.795276,12.795276,39.50708295714,52.30235895714,12.795276,0,0.84814307176,4.1088255908,20,5,16.06,52.30235895714,12.795276,0.9171454,0.85461944992,0,0,0,180.1, -0.4, 4.2,0,0,1024,1024,1024,1024,0,0,0,0,182.3,-77.4,0,76,4.012,4.019,4.017,4.015,0,0,7.557,92.66,52.30235895714,12.795276,6,P-GPS,
20900,2022-07-20 16:01:14,52.1919257527349,0.0982231048709111,12.795276,12.795276,39.50708295714,52.30235895714,12.795276,0,0.86422574944,4.1325788724,20,5,16.06,52.30235895714,12.795276,0.9171454,0.86422574944,0,0,0,179.7, -0.9, 4.6,0,0,1024,1024,1024,1024,0,0,0,0,182.3,-80.3,0,76,4.012,4.019,4.017,4.015,0,0,7.557,92.66,52.30235895714,12.795276,6,P-GPS,
21100,2022-07-20 16:01:14,52.1919256996586,0.0982230975794624,12.795276,12.795276,39.50708295714,52.30235895714,12.795276,0,0.88223756104,4.1520014452,20,5,16.06,52.30235895714,12.795276,0.9171454,0.88223756104,0,0,0,179.7, -0.5, 4.9,0,0,1024,1024,1024,1024,0,0,0,0,182.3,-83.2,0,76,4.012,4.019,4.017,4.015,0,0,7.557,92.66,52.30235895714,12.795276,6,P-GPS,
21300,2022-07-20 16:01:14,52.1919256431779,0.0982230524472469,12.795276,12.795276,39.50708295714,52.30235895714,12.795276,0,0.8991306062,4.1749345168,20,5,16.06,52.30235895714,12.795276,0.9171454,0.8991306062,0,0,0,179.8, -1, 4.6,0,0,1024,1024,1024,1024,0,0,0,0,182.3,-86.1,0,76,4.012,4.019,4.017,4.015,0,0,7.557,92.66,52.30235895714,12.795276,6,P-GPS,
21500,2022-07-20 16:01:14,52.1919255906295,0.0982229964424928,12.795276,12.795276,39.50708295714,52.30235895714,12.795276,0,0.9142716828,4.1978675884,20,5,16.06,52.30235895714,12.795276,0.9171454,0.9142716828,0,0,0,179.9, -1, 4.3,0,0,1024,1024,1024,1024,0,0,0,0,182.3,-89,0,76,4.012,4.019,4.017,4.015,0,0,7.557,92.66,52.30235895714,12.795276,6,P-GPS,
21700,2022-07-20 16:01:14,52.1919255482406,0.0982229731392046,12.795276,12.795276,39.50708295714,52.30235895714,12.795276,0,0.92972772004,4.2207678516,20,5,16.062,52.30235895714,12.795276,0.9171454,0.92972772004,0,0,0,179.8, -0.7, 4.2,0,0,1024,1024,1024,1024,0,0,0,0,182.3,-89.9,0,76,4.011,4.018,4.016,4.015,0,0,7.513,92.66,52.30235895714,12.795276,6,P-GPS,
21900,2022-07-20 16:01:15,52.1919255058518,0.0982229498359163,12.795276,12.795276,39.50708295714,52.30235895714,12.795276,0,0.9416502926,4.2327101092,20,5,16.062,52.30235895714,12.795276,0.9171454,0.9416502926,0,0,0,179.9, -1, 4.2,0,0,1024,1024,1024,1024,0,0,0,0,182.3,-89.9,0,76,4.011,4.018,4.016,4.015,0,0,7.513,92.66,52.30235895714,12.795276,6,P-GPS,
22100,2022-07-20 16:01:15,52.1919254730496,0.0982229760949139,12.795276,12.795276,39.50708295714,52.30235895714,12.795276,0,0.95467850824,4.2460303196,20,5,16.062,52.30235895714,12.795276,0.9171454,0.95467850824,0,0,0,179.7, -0.7, 4.4,0,0,1024,1024,1024,1024,0,0,0,0,182.3,-90,0,76,4.011,4.018,4.016,4.015,0,0,7.513,92.66,52.30235895714,12.795276,6,P-GPS,
22300,2022-07-20 16:01:15,52.1919254432757,0.0982230350379088,12.795276,12.795276,39.50708295714,52.30235895714,12.467192,0,0.96845803624,4.263123496,20,5,16.062,52.30235895714,12.795276,0.9171454,0.96845803624,0,0,0,179.8, -0.8, 4.4,0,0,1024,1024,1024,1024,0,0,0,0,182.3,-90,0,76,4.011,4.018,4.016,4.015,0,0,7.513,92.66,52.30235895714,12.795276,6,P-GPS,
22500,2022-07-20 16:01:15,52.1919254053045,0.0982231100958088,12.795276,12.795276,39.50708295714,52.30235895714,12.795276,0,0.98617785308,4.2848754652,20,5,16.062,52.30235895714,12.795276,0.9171454,0.98617785308,0,0,0,179.9, 0, 4.8,0,0,1024,1024,1024,1024,0,0,0,0,182.3,-89.9,0,76,4.011,4.018,4.016,4.015,0,0,7.513,92.66,52.30235895714,12.795276,6,P-GPS,
22700,2022-07-20 16:01:15,52.1919254263058,0.0982231404756803,12.795276,12.795276,39.50708295714,52.30235895714,12.795276,0,1.00405515024,4.3066274344,20,5,16.058,52.30235895714,12.795276,0.9171454,1.00405515024,0,0,0,179.8, -1.3, 4.4,0,0,1024,1024,1024,993,0,0,0,-5,182.3,-90,0,76,4.009,4.016,4.014,4.015,0,0,7.481,92.66,52.30235895714,12.795276,6,P-GPS,
22900,2022-07-20 16:01:16,52.191925447307,0.0982231708555518,12.795276,12.795276,39.50708295714,52.30235895714,12.795276,0,0.97514110732,4.3359909524,20,5,16.058,52.30235895714,12.795276,0.9171454,1.00405515024,0,0,0,179.7, -1.6, 4.6,0,0,1024,1024,1024,1024,0,0,0,0,182.3,-89.9,0,76,4.009,4.016,4.014,4.015,0,0,7.481,92.66,52.30235895714,12.795276,6,P-GPS,
23100,2022-07-20 16:01:16,52.1919254149248,0.0982231626784384,12.795276,12.795276,39.50708295714,52.30235895714,12.795276,0,0.98597772184,4.3479660184,20,5,16.058,52.30235895714,12.795276,0.9171454,1.00405515024,0,0,0,179.7, -0.9, 4.6,0,0,1024,1024,1034,872,0,0,2,-23,182.3,-90,0,76,4.009,4.016,4.014,4.015,0,0,7.481,92.66,52.30235895714,12.795276,6,P-GPS,
23300,2022-07-20 16:01:16,52.1919253372799,0.0982231711804702,13.12336,13.12336,39.50708295714,52.63044295714,12.795276,0,1.0137467516,4.3763452844,20,5,16.058,52.63044295714,13.12336,0.9171454,1.0137467516,0,0,0,179.8, -0.7, 4.1,0,0,1024,1024,1024,435,0,0,0,-89,182.1,-90,0,76,4.009,4.016,4.014,4.015,0,0,7.481,92.66,52.63044295714,13.12336,6,P-GPS,
23500,2022-07-20 16:01:16,52.1919252491948,0.0982232431743546,13.12336,13.12336,39.50708295714,52.63044295714,12.795276,0,1.0490649942,4.4123032908,20,5,16.058,52.63044295714,13.12336,0.9171454,1.0490649942,0,0,0,178.6, 0, 4.7,0,0,1024,1024,1024,1024,0,0,0,0,174.7,-90,0,76,4.009,4.016,4.014,4.015,0,0,7.481,92.66,52.63044295714,13.12336,6,P-GPS,
23700,2022-07-20 16:01:16,52.1919251689058,0.0982233732840894,13.12336,13.12336,39.50708295714,52.63044295714,12.795276,0,1.08442588772,4.4482284888,20,5,16.054,52.63044295714,13.12336,0.9171454,1.08442588772,0,0,0,168.9, 0, 4.4,0,0,1024,1024,1024,1024,0,0,0,0,171.4,-89.9,0,76,4.008,4.016,4.013,4.017,0,0,7.516,92.84,52.63044295714,13.12336,6,P-GPS,
23900,2022-07-20 16:01:16,52.1919250886167,0.0982235033938242,13.12336,13.1561684,39.47427455714,52.63044295714,12.795276,0,1.12218179444,4.4979660232,20,5,16.054,52.63044295714,13.12336,0.9171454,1.12218179444,0,0,0,169, 0.9, 5,0,0,1485,823,1024,1024,70,-30,0,0,171.4,-90,0,76,4.008,4.016,4.013,4.017,0,0,7.516,92.84,52.63044295714,13.12336,6,P-GPS,
24100,2022-07-20 16:01:17,52.1919250054016,0.09822365756237,13.12336,13.1561684,39.47427455714,52.63044295714,12.795276,0,1.16198822616,4.5438977832,20,5,16.054,52.63044295714,13.12336,0.9171454,1.16198822616,0,0,0,169.2, 0.3, 1.1,0,0,1684,832,1024,1024,100,-29,0,0,171.4,-89.9,0,76,4.008,4.016,4.013,4.017,0,0,7.516,92.84,52.63044295714,13.12336,6,P-GPS,
24300,2022-07-20 16:01:17,52.1919249054149,0.0982241087639908,13.12336,13.1561684,39.47427455714,52.63044295714,12.795276,0.4921268,1.23252300532,4.6512140596,20,5,16.054,52.63044295714,13.12336,0.9171454,1.23252300532,-0.223694,0.447388,0,169, -9.8, 0.5,0,0,1684,815,1024,1024,100,-32,0,0,171.4,-89.9,0,76,4.008,4.016,4.013,4.017,0,0,7.516,92.84,52.63044295714,13.12336,6,P-GPS,
24500,2022-07-20 16:01:17,52.1919243535145,0.0982251736945662,13.12336,13.1561684,39.47427455714,52.63044295714,12.795276,1.2750558,1.51771986484,4.96309071,20,5,16.054,52.63044295714,13.12336,1.2750558,1.51771986484,-0.894776,0.894776,0,168.6, -10.8, 1.8,0,0,1684,807,1024,1024,100,-33,0,0,171.4,-89.9,0,76,4.008,4.016,4.013,4.017,0,0,7.516,92.84,52.63044295714,13.12336,6,P-GPS,
24700,2022-07-20 16:01:17,52.1919232815681,0.0982267438924874,13.12336,13.1889768,39.44146615714,52.63044295714,12.795276,2.0579848,2.03253287344,5.4887468948,20,5,16.043,52.63044295714,13.12336,2.0579848,2.03253287344,-1.565858,1.342164,0,168.9, -12.2, 2.8,0,0,1684,807,1024,1024,100,-33,0,0,171.4,-89.9,0,75,4.004,4.011,4.012,4.012,0,0,7.634,92.84,52.63044295714,13.12336,6,P-GPS,
24900,2022-07-20 16:01:17,52.1919214274162,0.0982288206539343,13.12336,13.1889768,39.44146615714,52.63044295714,12.795276,2.908022,2.85253289968,6.3093177872,20,5,16.043,52.63044295714,13.12336,2.908022,2.85253289968,-2.460634,1.565858,0,168.8, -13.2, 2.6,0,0,1684,801,1024,1024,100,-34,0,0,171.4,-89.9,0,75,4.004,4.011,4.012,4.012,0,0,7.634,92.84,52.63044295714,13.12336,6,P-GPS,
25100,2022-07-20 16:01:18,52.1919188442904,0.0982310032077679,13.12336,13.2217852,39.40865775714,52.63044295714,12.795276,3.802798,3.9106628548,7.3707023356,20,5,16.043,52.63044295714,13.12336,3.802798,3.9106628548,-3.35541,1.789552,0,172, -14.8, 1.9,0,0,1684,815,1024,1024,100,-32,0,0,171.4,-90,0,75,4.004,4.011,4.012,4.012,0,0,7.634,92.84,52.63044295714,13.12336,6,P-GPS,
25300,2022-07-20 16:01:18,52.1919153742381,0.0982334234324321,13.12336,13.2545936,39.37584935714,52.63044295714,12.795276,5.033115,5.2775264156,8.7476052668,20,5,16.043,52.63044295714,13.12336,5.033115,5.2775264156,-4.697574,1.789552,0,174.4, -16, 2.1,0,0,1684,833,1024,1024,100,-29,0,0,171.4,-90,0,75,4.004,4.011,4.012,4.012,0,0,7.634,92.84,52.63044295714,13.12336,6,P-GPS,
25500,2022-07-20 16:01:18,52.1919109740524,0.0982361147595859,13.12336,13.287402,39.34304095714,52.63044295714,12.795276,6.151585,6.9776248952,10.4621394424,20,5,16.043,52.63044295714,13.12336,6.151585,6.9776248952,-5.816044,2.013246,0,174.5, -17.3, 2.3,0,0,1675,862,1024,1024,99,-25,0,0,171.4,-90,0,75,4.004,4.011,4.012,4.012,0,0,7.634,92.84,52.63044295714,13.12336,6,P-GPS,
25700,2022-07-20 16:01:18,52.1919050351281,0.0982388683313248,13.12336,13.3202104,39.31023255714,52.63044295714,12.795276,7.4266408,8.6834320364,12.1767064264,20,5,16.036,52.63044295714,13.12336,7.4266408,8.6834320364,-7.158208,2.013246,0,175.6, -18.8, 1.9,0,0,909,1024,1024,1024,-17,0,0,0,171.4,-89.9,0,75,4.005,4.011,4.011,4.007,0,0,7.787,92.84,52.63044295714,13.12336,6,P-GPS,
25900,2022-07-20 16:01:18,52.1918990962038,0.0982416219030638,13.12336,13.3530188,39.27742415714,52.63044295714,12.795276,8.7464354,11.4311355364,14.9766737076,20,5,16.036,52.63044295714,13.12336,8.7464354,11.4311355364,-8.500372,2.013246,0,176.4, -16.9, 3.3,0,0,998,1024,993,1669,-4,0,-5,98,171.4,-90,0,75,4.005,4.011,4.011,4.007,0,0,7.787,92.84,52.63044295714,13.12336,6,P-GPS,
26100,2022-07-20 16:01:19,52.1918917885953,0.0982444341845901,13.12336,13.3858272,39.24461575714,52.63044295714,13.12336,9.171454,14.1409781428,17.716043874,20,5,16.036,52.63044295714,13.12336,9.171454,14.1409781428,-8.94776,2.013246,0,176.6, 14.1, 8.9,0,0,1024,1024,1024,1024,0,0,0,0,172.6,-90,0,75,4.005,4.011,4.011,4.007,0,0,7.787,92.84,52.63044295714,13.12336,6,P-GPS,
26300,2022-07-20 16:01:19,52.1918851680689,0.0982465000477319,13.12336,13.4186356,39.21180735714,52.63044295714,12.795276,7.0687304,16.5683732336,20.1753287296,20,5,16.036,52.63044295714,13.12336,9.171454,16.5683732336,-6.934514,1.342164,0,183.9, 26.5, 12.4,0,0,1024,1024,1024,1024,0,0,0,0,180.7,-89.9,0,75,4.005,4.011,4.011,4.007,0,0,7.787,92.84,52.63044295714,13.12336,6,P-GPS,
26500,2022-07-20 16:01:19,52.1918803830957,0.0982476328425836,13.12336,13.4186356,39.21180735714,52.63044295714,12.467192,4.7423128,18.3025924492,21.9394035892,20,5,16.036,52.63044295714,13.12336,9.171454,18.3025924492,-4.697574,0.671082,0,191.9, 25.2, 15.3,0,0,1024,1024,1024,1024,0,0,0,0,181.6,-90,0,75,4.005,4.011,4.011,4.007,0,0,7.787,92.84,52.63044295714,13.12336,6,P-GPS,
26700,2022-07-20 16:01:19,52.1918783166919,0.0982473919343602,13.12336,13.4186356,39.21180735714,52.63044295714,12.467192,2.460634,20.0420282004,23.7034784488,20,5,16.027,52.63044295714,13.12336,9.171454,20.0420282004,-2.460634,0,0,189.3, 21.5, 12.5,0,0,1024,1024,1024,1024,0,0,0,0,181.6,-89.9,0,75,3.997,4,4,3.999,0,0,7.923,92.84,52.63044295714,13.12336,6,P-GPS,
26900,2022-07-20 16:01:20,52.1918762502881,0.0982471510261369,13.12336,13.4186356,39.21180735714,52.63044295714,12.467192,0.9171454,19.7087932816,24.1359587776,20,5,16.027,52.63044295714,13.12336,9.171454,20.0420282004,-0.894776,-0.223694,0,188, 9.8, 8.9,0,0,1358,1024,1024,1024,51,0,0,0,181.6,-89.9,0,75,3.997,4,4,3.999,0,0,7.923,92.84,52.63044295714,13.12336,6,P-GPS,
27100,2022-07-20 16:01:20,52.1918757406375,0.0982461842523654,13.12336,13.4186356,39.21180735714,52.63044295714,12.467192,0.3131716,19.8268379048,24.4211293904,21,5,16.027,52.63044295714,13.12336,9.171454,20.0420282004,-0.223694,-0.223694,0,187.4, 3.9, 1.3,0,0,1505,1024,1024,1024,73,0,0,0,181.6,-90,0,75,3.997,4,4,3.999,0,0,7.923,92.84,52.63044295714,13.12336,6,P-GPS,
27300,2022-07-20 16:01:20,52.1918754234472,0.0982454227680732,13.12336,13.3858272,39.24461575714,52.63044295714,12.467192,0.447388,19.89255313,24.6270349088,21,5,16.027,52.63044295714,13.12336,9.171454,20.0420282004,-0.447388,0,0,187.3, -8.6, 0.7,0,0,1573,1024,1024,1024,83,0,0,0,181.6,-89.9,0,75,3.997,4,4,3.999,0,0,7.923,92.84,52.63044295714,13.12336,6,P-GPS,
27500,2022-07-20 16:01:20,52.1918746745226,0.0982450113165517,13.12336,13.3858272,39.24461575714,52.63044295714,12.467192,1.342164,20.1324481508,24.9153879364,21,5,16.027,52.63044295714,13.12336,9.171454,20.1324481508,-1.342164,0,0,187, -15, 2.4,0,0,1409,1024,1024,1024,58,0,0,0,181.6,-90,0,75,3.997,4,4,3.999,0,0,7.923,92.84,52.63044295714,13.12336,6,P-GPS,
27700,2022-07-20 16:01:20,52.1918724537428,0.0982445958489687,13.12336,13.3858272,39.24461575714,52.63044295714,12.467192,2.684328,20.3736226992,25.2037081556,21,5,16.024,52.63044295714,13.12336,9.171454,20.3736226992,-2.684328,0,0,186.7, -17.8, 3.5,0,0,1024,1024,1024,1024,0,0,0,0,181.6,-90,0,75,4.001,4.004,4.004,4.001,0,0,8.434,93.02,52.63044295714,13.12336,6,P-GPS,
27900,2022-07-20 16:01:21,52.191870232963,0.0982441803813857,13.12336,13.3858272,39.24461575714,52.63044295714,12.467192,3.579104,21.6593838952,26.5542331332,21,5,16.024,52.63044295714,13.12336,9.171454,21.6593838952,-3.579104,-0.223694,0,186.9, -5.3, 3.6,0,0,1024,1024,1024,1024,0,0,0,0,181.6,-90,0,75,4.001,4.004,4.004,4.001,0,0,8.434,93.02,52.63044295714,13.12336,6,P-GPS,
28100,2022-07-20 16:01:21,52.191867330978,0.0982437017835528,13.12336,13.3858272,39.24461575714,52.63044295714,12.467192,2.908022,22.6679469196,27.6184063956,21,5,16.024,52.63044295714,13.12336,9.171454,22.6679469196,-2.908022,0,0,188.4, 27.1, 5.7,0,0,1024,1024,1024,1024,0,0,0,0,181.6,-90,0,75,4.001,4.004,4.004,4.001,0,0,8.434,93.02,52.63044295714,13.12336,6,P-GPS,
28300,2022-07-20 16:01:21,52.1918658344565,0.0982434187979584,13.12336,13.3530188,39.27742415714,52.63044295714,12.467192,0.894776,23.1883537604,28.1680783292,21,5,16.024,52.63044295714,13.12336,9.171454,23.1883537604,-0.894776,0,0,188.2, 13.9, 6.5,0,0,1532,926,1024,1024,77,-15,0,0,181.6,-89.9,0,75,4.001,4.004,4.004,4.001,0,0,8.434,93.02,52.63044295714,13.12336,6,P-GPS,
28500,2022-07-20 16:01:21,52.1918654241309,0.0982430969278404,13.12336,13.3530188,39.27742415714,52.63044295714,12.467192,0.223694,23.3201122948,28.3341872584,21,5,16.024,52.63044295714,13.12336,9.171454,23.3201122948,-0.223694,0,0,187.6, 2.3, 1.9,0,0,1684,959,1024,1024,100,-10,0,0,181.6,-89.9,0,75,4.001,4.004,4.004,4.001,0,0,8.434,93.02,52.63044295714,13.12336,6,P-GPS,
28700,2022-07-20 16:01:21,52.1918647872723,0.0982429403180394,13.451444,13.6811028,39.27742415714,52.95852695714,12.139108,0.447388,23.4523301468,28.5002961876,21,5,16,52.95852695714,13.451444,9.171454,23.4523301468,-0.447388,0,0,187, -15.5, 1.4,0,0,1684,817,1024,1024,100,-31,0,0,181.6,-90,0,75,3.981,4,4,4.011,0,0,8.23,93.02,52.95852695714,13.451444,6,P-GPS,
28900,2022-07-20 16:01:22,52.1918641504137,0.0982427837082384,13.12336,13.3530188,39.27742415714,52.63044295714,12.467192,2.013246,23.7615165084,28.8153224444,21,5,16,52.95852695714,13.451444,9.171454,23.7615165084,-2.013246,0,0,186.9, -19.4, 1.9,0,0,1684,860,1024,1024,100,-25,0,0,181.6,-90,0,75,3.981,4,4,4.011,0,0,8.23,93.02,52.63044295714,13.12336,6,P-GPS,
29100,2022-07-20 16:01:22,52.1918618557121,0.0982426830542792,13.12336,13.3530188,39.27742415714,52.63044295714,12.467192,3.579104,24.578740944,29.6528224712,21,5,16,52.95852695714,13.451444,9.171454,24.578740944,-3.579104,0,0,187.2, -20.1, 0.9,0,0,1684,836,1024,1024,100,-28,0,0,181.6,-90,0,75,3.981,4,4,4.011,0,0,8.23,93.02,52.63044295714,13.12336,6,P-GPS,
29300,2022-07-20 16:01:22,52.1918582682062,0.0982426117224597,13.451444,13.6811028,39.27742415714,52.95852695714,12.467192,4.921268,25.8624680192,30.9618448228,21,5,16,52.95852695714,13.451444,9.171454,25.8624680192,-4.921268,0,0,186.9, -20.2, 1.4,0,0,1684,812,1024,1024,100,-32,0,0,181.6,-90,0,75,3.981,4,4,4.011,0,0,8.23,93.02,52.95852695714,13.451444,6,P-GPS,
29500,2022-07-20 16:01:22,52.1918534873022,0.0982425167746617,13.451444,13.6811028,39.27742415714,52.95852695714,12.467192,6.487126,27.5769037696,32.7062674508,21,5,16,52.95852695714,13.451444,9.171454,27.5769037696,-6.487126,0,0,187.1, -19.9, 1.7,0,0,1684,815,1024,1024,100,-32,0,0,181.6,-89.9,0,75,3.981,4,4,4.011,0,0,8.23,93.02,52.95852695714,13.451444,6,P-GPS,
29700,2022-07-20 16:01:22,52.1918470119681,0.0982422016313156,13.451444,13.6811028,39.27742415714,52.95852695714,12.467192,7.82929,29.2948828272,34.450788504,21,5,15.997,52.95852695714,13.451444,9.171454,29.2948828272,-7.82929,-0.223694,0,187.2, -19.1, 0.8,0,0,1024,1024,1024,1024,0,0,0,0,181.6,-89.9,0,75,4.001,4.003,4.003,4.002,0,0,8.234,93.02,52.95852695714,13.451444,6,P-GPS,
29900,2022-07-20 16:01:22,52.191840536634,0.0982418864879696,13.12336,13.3530188,39.27742415714,52.63044295714,12.467192,9.171454,32.2255259656,37.433728232,21,5,15.997,52.95852695714,13.451444,9.171454,32.2255259656,-9.171454,-0.223694,0,187.4, -13.7, 0.9,0,0,1024,1024,1024,1024,0,0,0,0,181.6,-90,0,75,4.001,4.003,4.003,4.002,0,0,8.234,93.02,52.63044295714,13.12336,6,P-GPS,
30100,2022-07-20 16:01:23,52.1918329431451,0.0982413700886745,13.451444,13.6811028,39.27742415714,52.95852695714,12.467192,9.171454,34.957022116,40.2066942,21,5,15.997,52.95852695714,13.451444,9.171454,34.957022116,-9.171454,-0.223694,0,188.2, 22.7, 5.8,0,0,1024,1024,1024,1024,0,0,0,0,181.6,-90,0,75,4.001,4.003,4.003,4.002,0,0,8.234,93.02,52.95852695714,13.451444,6,P-GPS,
30300,2022-07-20 16:01:23,52.1918265288845,0.09824079245274,13.12336,13.3530188,39.27742415714,52.63044295714,12.467192,6.71082,37.26542114,42.550526296,21,5,15.997,52.95852695714,13.451444,9.171454,37.26542114,-6.71082,-0.223694,0,190.3, 30.3, 7.3,0,0,1024,1024,1024,1024,0,0,0,0,181.6,-89.9,0,75,4.001,4.003,4.003,4.002,0,0,8.234,93.02,52.63044295714,13.12336,6,P-GPS,
30500,2022-07-20 16:01:23,52.1918221767251,0.0982402515159908,13.451444,13.6482944,39.31023255714,52.95852695714,11.811024,4.250186,38.83038182,44.143046032,21,5,15.997,52.95852695714,13.451444,9.171454,38.83038182,-4.250186,-0.223694,0,189.4, 26.3, 5.2,0,0,1024,1024,1024,1024,0,0,0,0,181.6,-90,0,75,4.001,4.003,4.003,4.002,0,0,8.234,93.02,52.95852695714,13.451444,6,P-GPS,
30700,2022-07-20 16:01:23,52.1918204586716,0.0982397384899079,13.451444,13.6482944,39.31023255714,52.95852695714,11.48294,2.23694,40.397639088,45.735565768,21,5,16.024,52.95852695714,13.451444,9.171454,40.397639088,-2.23694,0,0,189, 22, 6.6,0,0,364,1001,1024,1024,-100,-3,0,0,181.6,-89.9,0,75,4,3.999,3.999,3.999,0,0,7.686,93.02,52.95852695714,13.451444,6,P-GPS,
30900,2022-07-20 16:01:24,52.1918187406181,0.0982392254638249,13.451444,13.6482944,39.31023255714,52.95852695714,11.48294,0.7158208,40.054463224,46.086943732,21,5,16.024,52.95852695714,13.451444,9.171454,40.397639088,-0.671082,-0.223694,0,187.3, 9.9, 2.3,0,0,364,1024,1024,1024,-100,0,0,0,181.6,-89.9,0,75,4,3.999,3.999,3.999,0,0,7.686,93.02,52.95852695714,13.451444,6,P-GPS,
31100,2022-07-20 16:01:24,52.1918185789346,0.0982388302040708,13.451444,13.6482944,39.31023255714,52.95852695714,11.154856,0,40.10498816,46.193242948,21,5,16.024,52.95852695714,13.451444,9.171454,40.397639088,0,0,0,187.3, 15, 1.2,0,0,445,1024,1024,1024,-88,0,0,0,181.6,-90,0,75,4,3.999,3.999,3.999,0,0,7.686,93.02,52.95852695714,13.451444,6,P-GPS,
31300,2022-07-20 16:01:24,52.1918192330791,0.098238731045435,13.451444,13.6482944,39.31023255714,52.95852695714,11.154856,0.894776,39.865158756,46.432744268,21,5,16.024,52.95852695714,13.451444,9.171454,40.397639088,0.894776,0,0,187.4, 14.8, 1.9,0,0,397,1024,1024,1024,-95,0,0,0,181.6,-90,0,75,4,3.999,3.999,3.999,0,0,7.686,93.02,52.95852695714,13.451444,6,P-GPS,
31500,2022-07-20 16:01:24,52.191820727039,0.0982389961063637,13.451444,13.6482944,39.31023255714,52.95852695714,11.154856,2.0356154,39.328085248,46.981300716,21,5,16.024,52.95852695714,13.451444,9.171454,40.397639088,2.013246,0.223694,0,187.4, 14.2, 2.5,0,0,962,1014,1024,1024,-9,-2,0,0,181.6,-90,0,75,4,3.999,3.999,3.999,0,0,7.686,93.02,52.95852695714,13.451444,6,P-GPS,
31700,2022-07-20 16:01:24,52.19182327004,0.0982395227733426,13.451444,13.6482944,39.31023255714,52.95852695714,11.154856,3.1540854,38.791667908,47.52952908,21,5,16.006,52.95852695714,13.451444,9.171454,40.397639088,3.131716,0.447388,0,187.4, 9.6, 2.7,0,0,1024,1024,1024,1024,0,0,0,0,181.6,-90,0,75,4.001,4.004,4.002,4.001,0,0,8.632,93.02,52.95852695714,13.451444,6,P-GPS,
31900,2022-07-20 16:01:25,52.1918258130411,0.0982400494403216,13.451444,13.6482944,39.31023255714,52.95852695714,11.154856,3.1540854,37.50656288,48.8517076,21,5,16.006,52.95852695714,13.451444,9.171454,40.397639088,3.131716,0.447388,0,186.6, -22, 4.2,0,0,652,1024,1024,1024,-56,0,0,0,181.6,-89.9,0,75,4.001,4.004,4.002,4.001,0,0,8.632,93.02,52.95852695714,13.451444,6,P-GPS,
32100,2022-07-20 16:01:25,52.1918275889641,0.0982404191511819,13.451444,13.6482944,39.31023255714,52.95852695714,11.154856,1.342164,36.87172034,49.504922844,21,5,16.006,52.95852695714,13.451444,9.171454,40.397639088,1.342164,0,0,186.5, -8.6, 0,0,0,1024,1024,1024,1024,0,0,0,0,181.6,-90,0,75,4.001,4.004,4.002,4.001,0,0,8.632,93.02,52.95852695714,13.451444,6,P-GPS,
32300,2022-07-20 16:01:25,52.1918285639656,0.0982407955246165,13.451444,13.6811028,39.27742415714,52.95852695714,11.48294,0.9171454,36.527888308,49.87040842,21,5,16.006,52.95852695714,13.451444,9.171454,40.397639088,0.894776,0.223694,0,187.3, -7.6, 2.8,0,0,1024,1024,1024,1024,0,0,0,0,181.6,-89.9,0,75,4.001,4.004,4.002,4.001,0,0,8.632,93.02,52.95852695714,13.451444,6,P-GPS,
32500,2022-07-20 16:01:25,52.191829062946,0.0982411938667283,13.12336,13.3530188,39.27742415714,52.63044295714,11.48294,0.223694,36.357284628,50.073164332,21,5,16.006,52.95852695714,13.451444,9.171454,40.397639088,0.223694,0,0,186.9, -6.9, 5.5,0,0,1024,1024,1024,1024,0,0,0,0,181.6,-90,0,75,4.001,4.004,4.002,4.001,0,0,8.632,93.02,52.63044295714,13.12336,6,P-GPS,
32700,2022-07-20 16:01:25,52.1918291295753,0.0982410984302426,13.12336,13.3530188,39.27742415714,52.63044295714,11.811024,0.223694,36.187337116,50.275920244,21,5,15.948,52.95852695714,13.451444,9.171454,40.397639088,0,-0.223694,0,187.5, -2.2, 4.1,0,0,1024,1024,1024,1024,0,0,0,0,181.6,-90,0,75,3.994,3.995,3.972,4.005,0,0,8.463,93.02,52.63044295714,13.12336,6,P-GPS,
32900,2022-07-20 16:01:25,52.1918291962045,0.0982410029937568,13.12336,13.3530188,39.27742415714,52.63044295714,11.811024,0.223694,36.30413502,50.463584292,21,5,15.948,52.95852695714,13.451444,9.171454,40.397639088,0,-0.223694,0,187.4, -0.5, 2.7,0,0,1024,1024,1024,1024,0,0,0,0,181.6,-90,0,75,3.994,3.995,3.972,4.005,0,0,8.463,93.02,52.63044295714,13.12336,6,P-GPS,
