time(millisecond),datetime(utc),latitude,longitude,height_above_takeoff(feet),height_above_ground_at_drone_location(feet),ground_elevation_at_drone_location(feet),altitude_above_seaLevel(feet),height_sonar(feet),speed(mph),distance(feet),mileage(feet),satellites,gpslevel,voltage(v),max_altitude(feet),max_ascent(feet),max_speed(mph),max_distance(feet), xSpeed(mph), ySpeed(mph), zSpeed(mph), compass_heading(degrees), pitch(degrees), roll(degrees),isPhoto,isVideo,rc_elevator,rc_aileron,rc_throttle,rc_rudder,rc_elevator(percent),rc_aileron(percent),rc_throttle(percent),rc_rudder(percent),gimbal_heading(degrees),gimbal_pitch(degrees),gimbal_roll(degrees),battery_percent,voltageCell1,voltageCell2,voltageCell3,voltageCell4,voltageCell5,voltageCell6,current(A),battery_temperature(f),altitude(feet),ascent(feet),flycStateRaw,flycState,message
100,2023-07-18 18:29:43,0,0,0,,,60.523841175608,0.328084,0,0,0,12,2,0,60.523841175608,0,0,0,0,0,0,175, 6.3, 0.7,0,0,1024,1024,1024,1024,0,0,0,0,175.1,0,0,90,4.205,4.212,4.209,4.204,0,0,0,74.3,60.523841175608,0,41,Motors_Started,"GPS signal weak. Hovering unstable. Fly with caution (Code: 30002)"
300,2023-07-18 18:29:43,0,0,0,,,60.523841175608,0.328084,0,0,0,12,2,0,60.523841175608,0,0,0,0,0,0,175, 6.3, 0.7,0,0,1024,1024,1024,1024,0,0,0,0,175.1,0,0,90,4.205,4.212,4.209,4.204,0,0,0,74.3,60.523841175608,0,41,Motors_Started,
500,2023-07-18 18:29:43,0,0,0,,,60.523841175608,0,0,0,0,12,2,0,60.523841175608,0,0,0,0,0,0,175, 6.3, 0.7,0,0,1024,1024,1024,1024,0,0,0,0,175.1,0,0,90,4.205,4.212,4.209,4.204,0,0,0,74.3,60.523841175608,0,41,Motors_Started,
700,2023-07-18 18:29:43,0,0,0,,,60.523841175608,0,0,0,0,12,2,0,60.523841175608,0,0,0,0,0,0,175, 6.3, 0.7,0,0,1024,1024,1024,1024,0,0,0,0,175.1,0,0,90,4.205,4.212,4.209,4.204,0,0,0,74.3,60.523841175608,0,41,Motors_Started,"Setting new Return-To-Home altitude to 26m (85 ft). Data Recorder File Index is 64. Setting new Maximum Flight Altitude to 30m (98 ft). No GPS. Fly with caution"
900,2023-07-18 18:29:43,0,0,0,,,60.523841175608,0,0,0,0,12,2,0,60.523841175608,0,0,0,0,0,0,175, 6.3, 0.7,0,0,1024,1024,1024,1024,0,0,0,0,175.1,0,0,90,4.205,4.212,4.209,4.204,0,0,0,74.3,60.523841175608,0,41,Motors_Started,
1100,2023-07-18 18:29:44,0,0,0,,,60.523841175608,0,0,0,0,12,2,0,60.523841175608,0,0,0,0,0,0,175.1, 6.3, 0.7,0,0,1024,1024,1043,1024,0,0,3,0,175.1,0,0,90,4.205,4.212,4.209,4.204,0,0,0,74.3,60.523841175608,0,41,Motors_Started,
1300,2023-07-18 18:29:44,0,0,0,,,60.523841175608,0,0,0,0,12,2,0,60.523841175608,0,0,0,0,0,0,175.1, 6.3, 0.7,0,0,1024,1024,1211,1024,0,0,28,0,175.1,0,0,90,4.205,4.212,4.209,4.204,0,0,0,74.3,60.523841175608,0,41,Motors_Started,
1500,2023-07-18 18:29:44,0,0,0,,,60.523841175608,0,0,0,0,12,2,16.936,60.523841175608,0,0,0,0,0,0,175.2, 6.3, 0.7,0,0,1024,1024,1223,1024,0,0,30,0,175.1,0,0,90,4.205,4.212,4.209,4.204,0,0,1.143,74.3,60.523841175608,0,41,Motors_Started,
1700,2023-07-18 18:29:44,0,0,0,,,60.523841175608,0,0,0,0,12,2,16.936,60.523841175608,0,0,0,0,0,0,175.2, 6.3, 0.7,0,0,1024,1024,1135,1024,0,0,17,0,175.1,0,0,90,4.205,4.212,4.209,4.204,0,0,1.143,74.3,60.523841175608,0,11,AutoTakeoff,
1900,2023-07-18 18:29:44,0,0,0,,,60.523841175608,0,0,0,0,12,2,16.936,60.523841175608,0,0,0,0,0,0,175.4, 6.2, 0.7,0,0,1024,1024,1024,1024,0,0,0,0,175.1,0,0,90,4.205,4.212,4.209,4.204,0,0,1.143,74.3,60.523841175608,0,11,AutoTakeoff,
2100,2023-07-18 18:29:45,0,0,0,,,60.523841175608,0,0,0,0,13,2,16.936,60.523841175608,0,0,0,0,0,-0.223694,176.1, 0.5, 0.4,0,0,1024,1024,1024,1024,0,0,0,0,175.1,0,0,90,4.205,4.212,4.209,4.204,0,0,1.143,74.3,60.523841175608,0,11,AutoTakeoff,
2300,2023-07-18 18:29:45,52.2073386373257,0.0869654413732723,0,0,60.523841175608,60.523841175608,0.328084,0,0,0,13,2,16.936,60.523841175608,0,0,0,0,0,-0.894776,176.3, -1.2, 0,0,0,1024,1024,1684,1024,0,0,100,0,175.2,0,0,90,4.205,4.212,4.209,4.204,0,0,1.143,74.3,60.523841175608,0,11,AutoTakeoff,"GPS signal weak. Hovering unstable. Fly with caution (Code: 30002)"
2500,2023-07-18 18:29:45,52.2073387121504,0.0869654967315189,0.328084,0.328084,60.523841175608,60.851925175608,0.328084,0,0.0299744760248,0.0299744760248,13,2,16.936,60.851925175608,0.328084,0,0.0299744760248,0,0,-0.894776,176.2, 0, 0.2,0,0,1024,1024,1684,1024,0,0,100,0,175.2,0,0,90,4.205,4.212,4.209,4.204,0,0,1.143,74.3,60.851925175608,0.328084,11,AutoTakeoff,
2700,2023-07-18 18:29:45,52.2073389621268,0.0869657469794641,0.656168,0.656168,60.523841175608,61.180009175608,0.656168,0,0.136791014876,0.136972773412,13,2,16.759,61.180009175608,0.656168,0,0.136791014876,0,0,-1.11847,176.2, 0.2, 0.2,0,0,1024,1024,1684,1024,0,0,100,0,175.3,0,0,90,4.147,4.152,4.152,4.148,0,0,3.567,74.3,61.180009175608,0.656168,11,AutoTakeoff,
2900,2023-07-18 18:29:45,52.2073396915326,0.0869664408273923,1.312336,1.312336,60.523841175608,61.836177175608,1.312336,0,0.44482941056,0.44500985676,13,2,16.759,61.836177175608,1.312336,0,0.44482941056,0,0,-1.565858,176.1, 0.2, 0,0,0,1024,1024,1684,1024,0,0,100,0,175.3,0,0,90,4.147,4.152,4.152,4.148,0,0,3.567,74.3,61.836177175608,1.312336,11,AutoTakeoff,
3100,2023-07-18 18:29:46,52.2073412168167,0.0869678911858314,1.64042,1.64042,60.523841175608,62.164261175608,1.968504,0,1.088910796,1.08909452304,13,2,16.759,62.164261175608,1.64042,0,1.088910796,0,0,-2.23694,176.1, 0.3, 0.1,0,0,1024,1024,1684,1024,0,0,100,0,175.4,0,0,90,4.147,4.152,4.152,4.148,0,0,3.567,74.3,62.164261175608,1.64042,11,AutoTakeoff,
3300,2023-07-18 18:29:46,52.2073438392055,0.0869703402286658,2.624672,2.5918636,60.556649575608,63.148513175608,2.952756,0,2.19127959768,2.19147644808,13,3,16.759,63.148513175608,2.624672,0,2.19127959768,0,0,-3.131716,176.2, 0.6, 0.2,0,0,1024,1024,1684,1024,0,0,100,0,175.4,0,0,90,4.147,4.152,4.152,4.148,0,0,3.567,74.3,63.148513175608,2.624672,11,AutoTakeoff,
3500,2023-07-18 18:29:46,52.2073477230062,0.0869739251274559,3.937008,3.9041996,60.556649575608,64.460849175608,3.937008,0,3.819225844,3.8194555028,12,3,16.759,64.460849175608,3.937008,0,3.819225844,0,0,-4.250186,176.2, 0.7, 0.2,0,0,1024,1024,1684,1024,0,0,100,0,175.4,0,0,90,4.147,4.152,4.152,4.148,0,0,3.567,74.3,64.460849175608,3.937008,11,AutoTakeoff,
3700,2023-07-18 18:29:46,52.2073528151355,0.0869785685657585,5.249344,5.1837272,60.589457975608,65.773185175608,5.577428,0,5.9474083268,5.9477036024,15,3,16.497,65.773185175608,5.249344,0,5.9474083268,0,0,-5.816044,176.2, 1, 0.4,0,0,1024,1024,1684,1024,0,0,100,0,175.4,0,0,90,4.098,4.101,4.099,4.096,0,0,7.824,74.12,65.773185175608,5.249344,6,P-GPS,"Setting new Maximum Flight Altitude to 120m (394 ft)"
3900,2023-07-18 18:29:46,52.2073587035176,0.0869839921330808,7.545932,7.4475068,60.622266375608,68.069773175608,7.545932,0,8.414370348,8.414698432,14,3,16.497,68.069773175608,7.545932,0,8.414370348,0,0,-7.82929,175.9, 0.6, 0.4,0,0,1024,1024,1684,1024,0,0,100,0,175.4,0,0,90,4.098,4.101,4.099,4.096,0,0,7.824,74.12,68.069773175608,7.545932,6,P-GPS,
4100,2023-07-18 18:29:47,52.2073650216085,0.0869897675330766,11.154856,11.0236224,60.655074775608,71.678697175608,10.170604,0,11.0565292252,11.0568573092,14,3,16.497,71.678697175608,11.154856,0,11.0565292252,0,0,-9.842536,175.5, 0.3, 0.2,0,0,1024,1024,1684,1024,0,0,100,0,175.4,0,0,90,4.098,4.101,4.099,4.096,0,0,7.824,74.12,71.678697175608,11.154856,6,P-GPS,
4300,2023-07-18 18:29:47,52.2073712533962,0.0869953649503388,15.748032,15.58399,60.687883175608,76.271873175608,13.451444,0,13.651739282,13.6521985996,14,3,16.497,76.271873175608,15.748032,0,13.651739282,0,0,-12.079476,175.4, 0.4, 0.2,0,0,1024,1024,1684,1024,0,0,100,0,175.4,0,0,90,4.098,4.101,4.099,4.096,0,0,7.824,74.12,76.271873175608,15.748032,6,P-GPS,
4500,2023-07-18 18:29:47,52.2073768926003,0.0870005326164768,20.341208,20.177166,60.687883175608,80.865049175608,17.388452,0,16.0114178352,16.0118771528,15,3,16.497,80.865049175608,20.341208,0,16.0114178352,0,0,-13.197946,175.4, 0.5, 0.1,0,0,1024,1024,1684,1024,0,0,100,0,175.4,0,0,90,4.098,4.101,4.099,4.096,0,0,7.824,74.12,80.865049175608,20.341208,6,P-GPS,
4700,2023-07-18 18:29:47,52.2073818615425,0.087005110388795,24.6063,24.4094496,60.720691575608,85.130141175608,21.32546,0,18.0933076656,18.0937669832,15,3,16.178,85.130141175608,24.6063,0,18.0933076656,0,0,-13.42164,175.4, 0.7, 0.1,0,0,1024,1024,1684,1024,0,0,100,0,175.4,0,0,90,4.012,4.026,4.029,4.032,0,0,12.199,74.12,85.130141175608,24.6063,6,P-GPS,
4900,2023-07-18 18:29:47,52.2073860576101,0.0870089278703769,28.543308,28.3464576,60.720691575608,89.067149175608,25.262468,0,19.8460636272,19.8465229448,15,3,16.178,89.067149175608,28.543308,0,19.8460636272,0,0,-13.42164,175.4, 0.9, 0.3,0,0,1024,1024,1684,1024,0,0,100,0,175.4,0,0,90,4.012,4.026,4.029,4.032,0,0,12.199,74.12,89.067149175608,28.543308,6,P-GPS,
5100,2023-07-18 18:29:48,52.2073894835017,0.0870120424030788,32.8084,32.6115496,60.720691575608,93.332241175608,29.199476,0,21.2768707596,21.2773628856,15,3,16.178,93.332241175608,32.8084,0,21.2768707596,0,0,-13.42164,175.3, 1.2, 0.5,0,0,1449,1024,1684,1024,64,0,100,0,175.4,0,0,90,4.012,4.026,4.029,4.032,0,0,12.199,74.12,93.332241175608,32.8084,6,P-GPS,
5300,2023-07-18 18:29:48,52.2073922561945,0.0870145260844906,36.745408,36.5157492,60.753499975608,97.269249175608,33.136484,0,22.4308406128,22.4313655472,16,3,16.178,97.269249175608,36.745408,0,22.4308406128,0,0,-13.42164,175.4, 0.2, 0,0,0,1684,1024,1684,1024,100,0,100,0,175.4,0,0,90,4.012,4.026,4.029,4.032,0,0,12.199,74.12,97.269249175608,36.745408,6,P-GPS,
5500,2023-07-18 18:29:48,52.207394232445,0.0870164955799693,40.354332,40.1246732,60.753499975608,100.87817317561,37.073492,0.223694,23.2751319784,23.2762146556,16,3,16.178,100.87817317561,40.354332,0.223694,23.2751319784,-0.223694,0,-13.42164,175.5, -11, -0.3,0,0,1684,1024,1684,1024,100,0,100,0,175.4,0,0,90,4.012,4.026,4.029,4.032,0,0,12.199,74.12,100.87817317561,40.354332,6,P-GPS,
5700,2023-07-18 18:29:48,52.2073948744982,0.0870181799214241,44.29134,44.0616812,60.753499975608,104.81518117561,40.682416,2.0356154,23.6649285788,23.7197186068,16,3,16.266,104.81518117561,44.29134,2.0356154,23.6649285788,-2.013246,0.223694,-13.42164,175.5, -24.8, 0.1,0,0,1684,1024,1622,1024,100,0,91,0,175.4,0,0,89,4.07,4.067,4.068,4.067,0,0,13.503,74.3,104.81518117561,44.29134,6,P-GPS,
5900,2023-07-18 18:29:48,52.2073932955607,0.0870197816105012,48.228348,48.0314976,60.720691575608,108.75218917561,44.29134,4.026492,23.351542742,24.3980322768,16,3,16.266,108.75218917561,48.228348,4.026492,23.6649285788,-4.026492,0.223694,-13.197946,175.3, -25, 0.7,0,0,1684,1024,1684,1024,100,0,100,0,175.4,0,0,89,4.07,4.067,4.068,4.067,0,0,13.503,74.3,108.75218917561,48.228348,6,P-GPS,
6100,2023-07-18 18:29:49,52.2073897184756,0.0870212088869492,51.837272,51.67323,60.687883175608,112.36111317561,40.354332,5.8384134,22.423229064,25.7415690652,16,3,16.266,112.36111317561,51.837272,5.8384134,23.6649285788,-5.816044,0.447388,-11.855782,175, -26.7, 1.3,0,0,1684,1024,1684,1024,100,0,100,0,175.4,0,0,89,4.07,4.067,4.068,4.067,0,0,13.503,74.3,112.36111317561,51.837272,6,P-GPS,
6300,2023-07-18 18:29:49,52.207383951215,0.0870224505109674,55.446196,55.3477708,60.622266375608,115.97003717561,43.963256,8.5227414,20.8757552612,27.864010078,16,3,16.266,115.97003717561,55.446196,8.5227414,23.6649285788,-8.500372,0.447388,-12.526864,175.2, -23.3, 0.9,0,0,1684,1024,1684,1024,100,0,100,0,175.4,0,0,89,4.07,4.067,4.068,4.067,0,0,13.503,74.3,115.97003717561,55.446196,6,P-GPS,
6500,2023-07-18 18:29:49,52.2073760403103,0.0870234462328902,59.711288,59.6784796,60.556649575608,120.23512917561,46.916012,10.5359874,18.825952046,30.758859252,16,3,16.266,120.23512917561,59.711288,10.5359874,23.6649285788,-10.513618,0.671082,-13.197946,175.3, -21.5, 0.5,0,0,1684,1024,1684,1024,100,0,100,0,175.4,0,0,89,4.07,4.067,4.068,4.067,0,0,13.503,74.3,120.23512917561,59.711288,6,P-GPS,
6700,2023-07-18 18:29:49,52.2073664052563,0.0870241919286615,63.97638,64.0419968,60.458224375608,124.50022117561,50.85302,12.1018454,16.5886160164,34.27821632,16,4,16.245,124.50022117561,63.97638,12.1018454,23.6649285788,-12.079476,0.671082,-13.197946,175.3, -21, 0.4,0,0,1684,1024,1684,1024,100,0,100,0,175.4,0,0,89,4.021,4.023,4.02,4.01,0,0,11.097,74.48,124.50022117561,63.97638,6,P-GPS,
6900,2023-07-18 18:29:49,52.2073552504003,0.0870241417200243,68.569556,68.733598,60.359799175608,129.09339717561,54.461944,13.869028,14.4563981004,38.34809834,20,4,16.245,129.09339717561,68.569556,13.869028,23.6649285788,-13.869028,0,-13.197946,178.9, -20.9, -0.3,0,0,1684,1024,1684,1024,100,0,100,0,175.4,0,0,89,4.021,4.023,4.02,4.01,0,0,11.097,74.48,129.09339717561,68.569556,6,P-GPS,
7100,2023-07-18 18:29:50,52.2073427455474,0.0870238113446755,73.162732,73.4251992,60.261373975608,133.68657317561,58.398952,15.211192,13.1362537012,42.911090612,20,4,16.245,133.68657317561,73.162732,15.211192,23.6649285788,-15.211192,0,-13.197946,180.5, -20, -0.4,0,0,1684,1024,1684,1024,100,0,100,0,175.4,0,0,89,4.021,4.023,4.02,4.01,0,0,11.097,74.48,133.68657317561,73.162732,6,P-GPS,
7300,2023-07-18 18:29:50,52.207328926751,0.0870231854422529,77.755908,78.1168004,60.162948775608,138.27974917561,62.992128,16.77705,13.3878285124,47.954725944,20,4,16.245,138.27974917561,77.755908,16.77705,23.6649285788,-16.77705,-0.223694,-13.197946,180.5, -20.2, -0.6,0,0,1684,1024,1684,1024,100,0,100,0,175.4,0,0,89,4.021,4.023,4.02,4.01,0,0,11.097,74.48,138.27974917561,77.755908,6,P-GPS,
7500,2023-07-18 18:29:50,52.2073139104075,0.0870222448358951,82.021,82.513126,60.031715175608,142.54484117561,67.913388,18.119214,15.5783469552,53.437337668,20,4,16.245,142.54484117561,82.021,18.119214,23.6649285788,-18.119214,-0.223694,-13.197946,180.9, -19.1, -0.8,0,0,1684,1024,1684,1024,100,0,100,0,175.4,0,0,89,4.021,4.023,4.02,4.01,0,0,11.097,74.48,142.54484117561,82.021,6,P-GPS,
7700,2023-07-18 18:29:50,52.207297789023,0.0870211815353694,86.286092,86.9094516,59.900481575608,146.80993317561,72.834648,19.237684,19.42749406,59.32414888,20,4,16.1,146.80993317561,86.286092,19.237684,23.6649285788,-19.237684,-0.223694,-13.42164,181, -17.6, 0,0,0,1684,1024,1684,1024,100,0,100,0,175.4,0,0,89,4.015,4.017,4.025,4.024,0,0,14.98,74.48,146.80993317561,86.286092,6,P-GPS,"Home Point updated (Code: 3000001)"
7900,2023-07-18 18:29:50,52.2072807923569,0.0870199187877954,89.566932,90.3543336,59.736439575608,150.09077317561,77.427824,20.356154,24.367290806,65.531826244,20,4,16.1,150.09077317561,89.566932,20.356154,24.367290806,-20.356154,-0.447388,-13.42164,181.2, -17.4, -1,0,0,1684,1024,1684,1024,100,0,100,0,175.4,0,0,89,4.015,4.017,4.025,4.024,0,0,14.98,74.48,150.09077317561,89.566932,6,P-GPS,
8100,2023-07-18 18:29:51,52.2072630617872,0.0870185873292505,92.847772,93.7664072,59.605205975608,153.37161317561,81.692916,21.25093,30.0250337692,72.007548236,20,4,16.1,153.37161317561,92.847772,21.25093,30.0250337692,-21.25093,-0.447388,-13.197946,181.4, -17.7, -1.6,0,0,1024,1024,984,1024,0,0,-6,0,175.4,0,0,89,4.015,4.017,4.025,4.024,0,0,14.98,74.48,153.37161317561,92.847772,6,P-GPS,
8300,2023-07-18 18:29:51,52.2072445779741,0.0870173366253187,96.456696,97.5393732,59.441163975608,156.98053717561,83.66142,22.145706,36.226051028,78.757220368,20,4,16.1,156.98053717561,96.456696,22.145706,36.226051028,-22.145706,-0.223694,-13.42164,181.1, -12, -1.4,0,0,1024,1024,1024,1024,0,0,0,0,175.4,0,0,89,4.015,4.017,4.025,4.024,0,0,14.98,74.48,156.98053717561,96.456696,6,P-GPS,
8500,2023-07-18 18:29:51,52.2072258828489,0.0870161975889467,98.753284,100.0000032,59.277121975608,159.27712517561,83.66142,21.698318,42.674870132,85.583007988,20,4,16.1,159.27712517561,98.753284,22.145706,42.674870132,-21.698318,-0.223694,-12.30317,180.9, 22.1, -0.8,0,0,1024,1024,1024,1024,0,0,0,0,175.4,0,0,89,4.015,4.017,4.025,4.024,0,0,14.98,74.48,159.27712517561,98.753284,6,P-GPS,
8700,2023-07-18 18:29:51,52.2072083381174,0.0870151244466055,99.737536,101.0170636,59.244313575608,160.26137717561,83.66142,19.908766,48.820211536,91.988520004,21,5,16.113,160.26137717561,99.737536,22.145706,48.820211536,-19.908766,-0.223694,-10.513618,180.9, 28.4, -0.8,0,0,1024,1024,1024,1024,0,0,0,0,175.4,0,0,89,4.056,4.101,4.093,4.113,0,0,13.817,74.66,160.26137717561,99.737536,6,P-GPS,
8900,2023-07-18 18:29:51,52.2071921701181,0.0870141324118685,100.721788,102.0013156,59.244313575608,161.24562917561,82.021,18.566602,54.536090984,97.891735416,21,5,16.113,161.24562917561,100.721788,22.145706,54.536090984,-18.566602,-0.223694,-8.052984,180.6, 29, -1.4,0,0,1024,1024,1024,1024,0,0,0,0,175.4,0,0,89,4.056,4.101,4.093,4.113,0,0,13.817,74.66,161.24562917561,100.721788,6,P-GPS,
9100,2023-07-18 18:29:52,52.2071772281329,0.0870131598056303,101.049872,102.3293996,59.244313575608,161.57371317561,83.66142,17.224438,59.848755196,103.347444252,21,5,16.113,161.57371317561,101.049872,22.145706,59.848755196,-17.224438,-0.223694,-5.368656,180.4, 29.6, -1.9,0,0,1024,1024,1024,1024,0,0,0,0,175.4,0,0,89,4.056,4.101,4.093,4.113,0,0,13.817,74.66,161.57371317561,101.049872,6,P-GPS,
9300,2023-07-18 18:29:52,52.2071633396579,0.0870123305522858,101.049872,102.3293996,59.244313575608,161.57371317561,83.66142,16.105968,64.810697612,108.417982472,21,5,16.113,161.57371317561,101.049872,22.145706,64.810697612,-16.105968,-0.223694,-2.684328,180.4, 29.7, -1.7,0,0,1024,1024,1024,1024,0,0,0,0,175.4,0,0,89,4.056,4.101,4.093,4.113,0,0,13.817,74.66,161.57371317561,101.049872,6,P-GPS,
9500,2023-07-18 18:29:52,52.2071505972503,0.0870116284771466,102.690292,103.9698196,59.244313575608,163.21413317561,83.66142,14.763804,69.379267312,113.069885508,21,5,16.113,163.21413317561,102.690292,22.145706,69.379267312,-14.763804,-0.223694,-0.671082,180.6, 31, -1,0,0,1024,1024,1024,1024,0,0,0,0,175.4,0,0,89,4.056,4.101,4.093,4.113,0,0,13.817,74.66,163.21413317561,102.690292,6,P-GPS,
9700,2023-07-18 18:29:52,52.2071395380398,0.0870110983961221,102.690292,103.9698196,59.244313575608,163.21413317561,83.66142,12.750558,73.354989224,117.106631044,21,5,16.641,163.21413317561,102.690292,22.145706,73.354989224,-12.750558,-0.223694,0,180.3, 31.8, -1.4,0,0,1024,1024,1024,1024,0,0,0,0,175.4,0,0,89,4.17,4.17,4.162,4.146,0,0,6.603,75.02,163.21413317561,102.690292,6,P-GPS,
9900,2023-07-18 18:29:52,52.2071306081753,0.0870107795122113,103.018376,104.2979036,59.244313575608,163.54221717561,83.66142,10.289924,76.57316518,120.365489416,21,5,16.641,163.54221717561,103.018376,22.145706,76.57316518,-10.289924,0,0.223694,180.7, 28.6, -0.9,0,0,1024,1024,1024,1024,0,0,0,0,175.4,0,0,89,4.17,4.17,4.162,4.146,0,0,6.603,75.02,163.54221717561,103.018376,6,P-GPS,
10100,2023-07-18 18:29:53,52.2071239389192,0.0870106280020742,103.018376,104.2979036,59.244313575608,163.54221717561,83.66142,8.052984,78.98130174,122.798888444,21,5,16.641,163.54221717561,103.018376,22.145706,78.98130174,-8.052984,0,0,180.6, 28.4, -1,0,0,1024,1024,1024,1024,0,0,0,0,175.4,0,0,89,4.17,4.17,4.162,4.146,0,0,6.603,75.02,163.54221717561,103.018376,6,P-GPS,
10300,2023-07-18 18:29:53,52.2071194034468,0.0870106316193608,103.018376,104.2979036,59.244313575608,163.54221717561,83.66142,5.59235,80.623034076,124.45374414,21,5,16.641,163.54221717561,103.018376,22.145706,80.623034076,-5.59235,0,0,180.5, 28.3, -1.1,0,0,1024,1024,1024,1024,0,0,0,0,175.4,0,0,89,4.17,4.17,4.162,4.146,0,0,6.603,75.02,163.54221717561,103.018376,6,P-GPS,
10500,2023-07-18 18:29:53,52.2071167889896,0.087010752492653,103.018376,104.2979036,59.244313575608,163.54221717561,83.66142,3.35541,81.572837256,125.407812412,21,5,16.641,163.54221717561,103.018376,22.145706,81.572837256,-3.35541,0,0,180.6, 28.1, -1,0,0,1024,1024,1024,1024,0,0,0,0,175.4,0,0,89,4.17,4.17,4.162,4.146,0,0,6.603,75.02,163.54221717561,103.018376,6,P-GPS,
10700,2023-07-18 18:29:53,52.2071158758572,0.0870109701869027,103.34646,104.6259876,59.244313575608,163.87030117561,83.66142,1.342164,81.90945144,125.744426596,21,5,16.329,163.87030117561,103.34646,22.145706,81.90945144,-1.342164,0,0,181, 17.6, -1.2,0,0,1024,1024,1024,1024,0,0,0,0,175.4,0,0,89,4.092,4.096,4.095,4.092,0,0,6.717,75.2,163.87030117561,103.34646,6,P-GPS,
10900,2023-07-18 18:29:53,52.2071159706418,0.087011263204593,103.34646,104.6259876,59.244313575608,163.87030117561,83.66142,0.447388,81.88320472,125.81857358,21,5,16.329,163.87030117561,103.34646,22.145706,81.90945144,-0.447388,0,0,182.2, 9.1, -0.5,0,0,1024,1024,1024,1024,0,0,0,0,175.4,0,0,89,4.092,4.096,4.095,4.092,0,0,6.717,75.2,163.87030117561,103.34646,6,P-GPS,
11100,2023-07-18 18:29:54,52.2071164333933,0.0870115855974466,103.34646,104.6259876,59.244313575608,163.87030117561,83.66142,0.223694,81.724740148,126.00230062,21,5,16.329,163.87030117561,103.34646,22.145706,81.90945144,-0.223694,0,0,181.3, 5, -0.6,0,0,1024,1024,1024,1024,0,0,0,0,175.4,0,0,89,4.092,4.096,4.095,4.092,0,0,6.717,75.2,163.87030117561,103.34646,6,P-GPS,
11300,2023-07-18 18:29:54,52.2071170094683,0.0870119169828398,103.34646,104.6259876,59.244313575608,163.87030117561,83.66142,0,81.52559316,126.225069656,21,5,16.329,163.87030117561,103.34646,22.145706,81.90945144,0,0,0,180.9, 3.5, -0.5,0,0,1024,1024,1024,1024,0,0,0,0,175.4,0,0,89,4.092,4.096,4.095,4.092,0,0,6.717,75.2,163.87030117561,103.34646,6,P-GPS,
11500,2023-07-18 18:29:54,52.2071175278364,0.0870122321900497,103.34646,104.6259876,59.244313575608,163.87030117561,83.66142,0,81.347115464,126.426841316,21,5,16.329,163.87030117561,103.34646,22.145706,81.90945144,0,0,0,180.9, 3.1, -0.9,0,0,1024,1024,1024,1024,0,0,0,0,175.4,0,0,89,4.092,4.096,4.095,4.092,0,0,6.717,75.2,163.87030117561,103.34646,6,P-GPS,
11700,2023-07-18 18:29:54,52.207117974859,0.0870125570119025,103.34646,104.6259876,59.244313575608,163.87030117561,83.66142,0,81.194884488,126.605319012,21,5,16.436,163.87030117561,103.34646,22.145706,81.90945144,0,0,0,180.8, 0.8, -0.2,0,0,1024,1024,1024,1024,0,0,0,0,175.4,0,0,89,4.111,4.114,4.113,4.105,0,0,7.813,75.38,163.87030117561,103.34646,6,P-GPS,
11900,2023-07-18 18:29:54,52.2071183154975,0.0870128675148922,103.34646,104.6259876,59.244313575608,163.87030117561,83.66142,0,81.080711256,126.747707468,21,5,16.436,163.87030117561,103.34646,22.145706,81.90945144,0,0,0,181.1, 2.6, -0.6,0,0,1024,1024,1024,1024,0,0,0,0,175.4,0,0,89,4.111,4.114,4.113,4.105,0,0,7.813,75.38,163.87030117561,103.34646,6,P-GPS,
12100,2023-07-18 18:29:55,52.2071185727283,0.0870131505230088,103.34646,104.6259876,59.244313575608,163.87030117561,83.66142,0,80.996065584,126.860896448,21,5,16.436,163.87030117561,103.34646,22.145706,81.90945144,0,0,0,181, 0.6, -0.6,0,0,1024,1024,1024,1024,0,0,0,0,175.4,0,0,89,4.111,4.114,4.113,4.105,0,0,7.813,75.38,163.87030117561,103.34646,6,P-GPS,
12300,2023-07-18 18:29:55,52.2071186820081,0.0870133685807347,103.34646,104.6259876,59.244313575608,163.87030117561,83.66142,0,80.9629291,126.923888576,21,5,16.436,163.87030117561,103.34646,22.145706,81.90945144,0,0,0,181.1, 0.1, -0.6,0,0,1024,1024,1024,1024,0,0,0,0,175.4,0,0,89,4.111,4.114,4.113,4.105,0,0,7.813,75.38,163.87030117561,103.34646,6,P-GPS,
12500,2023-07-18 18:29:55,52.2071186629381,0.0870134796401711,103.34646,104.6259876,59.244313575608,163.87030117561,83.66142,0.223694,80.973099704,126.949807212,21,5,16.436,163.87030117561,103.34646,22.145706,81.90945144,-0.223694,0,0,181.1, 0.5, -1.1,0,0,1024,1024,1024,1024,0,0,0,0,175.4,0,0,89,4.111,4.114,4.113,4.105,0,0,7.813,75.38,163.87030117561,103.34646,6,P-GPS,
12700,2023-07-18 18:29:55,52.2071185338687,0.0870135494485602,103.34646,104.6259876,59.244313575608,163.87030117561,83.66142,0.223694,81.021656136,126.999347896,21,5,16.408,163.87030117561,103.34646,22.145706,81.90945144,-0.223694,0,0,181.1, 1, -1.4,0,0,1024,1024,1024,1024,0,0,0,0,175.4,0,0,89,4.103,4.108,4.106,4.103,0,0,7.351,75.38,163.87030117561,103.34646,6,P-GPS,
12900,2023-07-18 18:29:55,52.2071183108714,0.0870136022504598,103.34646,104.6259876,59.244313575608,163.87030117561,83.66142,0.223694,81.10400522,127.08169698,21,5,16.408,163.87030117561,103.34646,22.145706,81.90945144,-0.223694,0,0,181.1, 1.8, -1.4,0,0,1024,1024,1024,1024,0,0,0,0,175.4,0,0,89,4.103,4.108,4.106,4.103,0,0,7.351,75.38,163.87030117561,103.34646,6,P-GPS,
13100,2023-07-18 18:29:56,52.2071180085956,0.0870136887088523,103.34646,104.6259876,59.244313575608,163.87030117561,83.66142,0.223694,81.215881864,127.193573624,21,5,16.408,163.87030117561,103.34646,22.145706,81.90945144,-0.223694,0,0,180.8, 2.4, -1.3,0,0,1024,1024,1024,1024,0,0,0,0,175.4,0,0,89,4.103,4.108,4.106,4.103,0,0,7.351,75.38,163.87030117561,103.34646,6,P-GPS,
13300,2023-07-18 18:29:56,52.2071176297144,0.0870137592896282,103.34646,104.6259876,59.244313575608,163.87030117561,83.66142,0.223694,81.35498948,127.33268124,21,5,16.408,163.87030117561,103.34646,22.145706,81.90945144,-0.223694,0,0,180.7, 2.9, -1.1,0,0,1024,1024,1024,1024,0,0,0,0,175.4,0,0,89,4.103,4.108,4.106,4.103,0,0,7.351,75.38,163.87030117561,103.34646,6,P-GPS,
13500,2023-07-18 18:29:56,52.2071172683268,0.0870137902375248,103.34646,104.6259876,59.244313575608,163.87030117561,83.66142,0.223694,81.486551164,127.464571008,21,5,16.408,163.87030117561,103.34646,22.145706,81.90945144,-0.223694,0,0,180.7, 3.2, -1.7,0,0,1024,1024,1024,1024,0,0,0,0,175.4,0,0,89,4.103,4.108,4.106,4.103,0,0,7.351,75.38,163.87030117561,103.34646,6,P-GPS,
13700,2023-07-18 18:29:56,52.2071169250497,0.0870138980711104,103.34646,104.6259876,59.244313575608,163.87030117561,83.66142,0.223694,81.613847756,127.592195684,21,5,16.41,163.87030117561,103.34646,22.145706,81.90945144,-0.223694,0,0,180.6, 3.4, -1.4,0,0,1024,1024,1024,1024,0,0,0,0,175.4,0,0,89,4.102,4.107,4.104,4.101,0,0,7.459,75.38,163.87030117561,103.34646,6,P-GPS,
13900,2023-07-18 18:29:56,52.207116609855,0.0870140364576618,103.34646,104.6259876,59.244313575608,163.87030117561,83.66142,0,81.731957996,127.711290176,21,5,16.41,163.87030117561,103.34646,22.145706,81.90945144,0,0,0,180.5, 3.4, -1.3,0,0,1024,1024,1024,1024,0,0,0,0,175.4,0,0,89,4.102,4.107,4.104,4.101,0,0,7.459,75.38,163.87030117561,103.34646,6,P-GPS,
14100,2023-07-18 18:29:57,52.2071163517847,0.0870142186360984,103.34646,104.6259876,59.244313575608,163.87030117561,83.66142,0,81.83071128,127.813980468,21,5,16.41,163.87030117561,103.34646,22.145706,81.90945144,0,0,0,180.5, 3.4, -1.1,0,0,1024,1024,1024,1024,0,0,0,0,175.4,0,0,89,4.102,4.107,4.104,4.101,0,0,7.459,75.38,163.87030117561,103.34646,6,P-GPS,
14300,2023-07-18 18:29:57,52.2071161449446,0.0870144242168067,103.34646,104.6259876,59.244313575608,163.87030117561,83.66142,0,81.911748028,127.902235064,21,5,16.41,163.87030117561,103.34646,22.145706,81.911748028,0,0,0,180.6, 3.3, -0.9,0,0,1024,1024,1024,1024,0,0,0,0,175.4,0,0,89,4.102,4.107,4.104,4.101,0,0,7.459,75.38,163.87030117561,103.34646,6,P-GPS,
14500,2023-07-18 18:29:57,52.2071159941323,0.0870146432810819,103.34646,104.6259876,59.244313575608,163.87030117561,83.66142,0,81.972771652,127.976053964,21,5,16.41,163.87030117561,103.34646,22.145706,81.972771652,0,0,0,180.7, 3.3, -0.8,0,0,1024,1024,1024,1024,0,0,0,0,175.4,0,0,89,4.102,4.107,4.104,4.101,0,0,7.459,75.38,163.87030117561,103.34646,6,P-GPS,
14700,2023-07-18 18:29:57,52.2071158363807,0.0870148303979011,103.34646,104.6259876,59.244313575608,163.87030117561,83.66142,0,82.035435696,128.047248192,21,5,16.41,163.87030117561,103.34646,22.145706,82.035435696,0,0,0,180.6, 3.2, -0.9,0,0,1024,1024,1024,1024,0,0,0,0,175.4,0,0,89,4.103,4.107,4.104,4.101,0,0,7.454,75.56,163.87030117561,103.34646,6,P-GPS,
14900,2023-07-18 18:29:57,52.2071157324296,0.087014876384623,103.34646,104.6259876,59.244313575608,163.87030117561,83.66142,0,82.074477692,128.086290188,21,5,16.41,163.87030117561,103.34646,22.145706,82.074477692,0,0,0,180.6, 3.5, -0.9,0,0,1024,1024,1024,1024,0,0,0,0,175.4,0,0,89,4.103,4.107,4.104,4.101,0,0,7.454,75.56,163.87030117561,103.34646,6,P-GPS,
15100,2023-07-18 18:29:58,52.2071156288039,0.087014926331138,103.34646,104.6259876,59.244313575608,163.87030117561,83.66142,0,82.113191604,128.125988352,21,5,16.41,163.87030117561,103.34646,22.145706,82.113191604,0,0,0,180.5, 3.6, -0.8,0,0,1024,1024,1024,1024,0,0,0,0,175.4,0,0,89,4.103,4.107,4.104,4.101,0,0,7.454,75.56,163.87030117561,103.34646,6,P-GPS,
15300,2023-07-18 18:29:58,52.2071154916816,0.0870149815620369,103.34646,104.6259876,59.244313575608,163.87030117561,83.66142,0,82.164700792,128.17749754,21,5,16.41,163.87030117561,103.34646,22.145706,82.164700792,0,0,0,180.5, 3.6, -0.9,0,0,1024,1024,1024,1024,0,0,0,0,175.4,0,0,89,4.103,4.107,4.104,4.101,0,0,7.454,75.56,163.87030117561,103.34646,6,P-GPS,
15500,2023-07-18 18:29:58,52.2071153577461,0.0870150631344712,103.34646,104.6259876,59.244313575608,163.87030117561,83.66142,0,82.215553812,128.229662896,21,5,16.41,163.87030117561,103.34646,22.145706,82.215553812,0,0,0,180.5, 3.5, -0.9,0,0,1024,1024,1024,1024,0,0,0,0,175.4,0,0,89,4.103,4.107,4.104,4.101,0,0,7.454,75.56,163.87030117561,103.34646,6,P-GPS,
15700,2023-07-18 18:29:58,52.2071152203667,0.0870151395378553,103.34646,104.6259876,59.244313575608,163.87030117561,83.66142,0,82.267391084,128.28248442,21,5,16.404,163.87030117561,103.34646,22.145706,82.267391084,0,0,0,180.5, 3.6, -0.8,0,0,1024,1024,1024,1024,0,0,0,0,175.4,0,0,89,4.101,4.104,4.103,4.101,0,0,7.396,75.74,163.87030117561,103.34646,6,P-GPS,
15900,2023-07-18 18:29:58,52.2071150762023,0.087015187810283,103.34646,104.6259876,59.244313575608,163.87030117561,83.66142,0,82.320868776,128.336290196,21,5,16.404,163.87030117561,103.34646,22.145706,82.320868776,0,0,0,180.5, 3.5, -0.7,0,0,1024,1024,1024,1024,0,0,0,0,175.4,0,0,89,4.101,4.104,4.103,4.101,0,0,7.396,75.74,163.87030117561,103.34646,6,P-GPS,
16100,2023-07-18 18:29:59,52.207114925133,0.0870152136730086,103.34646,104.6259876,59.244313575608,163.87030117561,83.66142,0,82.376314972,128.391736392,21,5,16.404,163.87030117561,103.34646,22.145706,82.376314972,0,0,0,180.6, 3.4, -0.7,0,0,1024,1024,1024,1024,0,0,0,0,175.4,0,0,89,4.101,4.104,4.103,4.101,0,0,7.396,75.74,163.87030117561,103.34646,6,P-GPS,
16300,2023-07-18 18:29:59,52.2071147645887,0.0870152061763131,103.34646,104.6259876,59.244313575608,163.87030117561,83.66142,0,82.434057756,128.450135344,21,5,16.404,163.87030117561,103.34646,22.145706,82.434057756,0,0,0,180.6, 3.3, -0.8,0,0,1024,1024,1024,1024,0,0,0,0,175.4,0,0,89,4.101,4.104,4.103,4.101,0,0,7.396,75.74,163.87030117561,103.34646,6,P-GPS,
16500,2023-07-18 18:29:59,52.2071146081222,0.0870151540349615,103.34646,104.6259876,59.244313575608,163.87030117561,83.66142,0,82.489175868,128.508534296,21,5,16.404,163.87030117561,103.34646,22.145706,82.489175868,0,0,0,180.6, 3.2, -0.9,0,0,1024,1024,1024,1024,0,0,0,0,175.4,-1.3,0,89,4.101,4.104,4.103,4.101,0,0,7.396,75.74,163.87030117561,103.34646,6,P-GPS,
16700,2023-07-18 18:29:59,52.2071144300327,0.0870151151919437,103.34646,104.6259876,59.244313575608,163.87030117561,83.66142,0,82.55249608,128.574151096,21,5,16.404,163.87030117561,103.34646,22.145706,82.55249608,0,0,0,180.6, 3.7, -0.5,0,0,1024,1024,1024,1024,0,0,0,0,175.4,-3.9,0,89,4.101,4.105,4.104,4.102,0,0,7.378,75.74,163.87030117561,103.34646,6,P-GPS,
16900,2023-07-18 18:29:59,52.2071142223017,0.0870150421472189,103.674544,104.9540716,59.244313575608,164.19838517561,83.66142,0,82.625330728,128.65157892,21,5,16.404,164.19838517561,103.674544,22.145706,82.625330728,0,0,0,181.1, 4, -0.5,0,0,1024,1024,1024,1024,0,0,0,0,175.4,-6.8,0,89,4.101,4.105,4.104,4.102,0,0,7.378,75.74,164.19838517561,103.674544,6,P-GPS,
17100,2023-07-18 18:30:00,52.20711404303,0.0870149647582552,103.674544,104.9540716,59.244313575608,164.19838517561,83.66142,0,82.687666688,128.719164224,21,5,16.404,164.19838517561,103.674544,22.145706,82.687666688,0,0,0,181.4, 3.9, -0.1,0,0,1024,1024,1024,1024,0,0,0,0,175.4,-9.7,0,89,4.101,4.105,4.104,4.102,0,0,7.378,75.74,164.19838517561,103.674544,6,P-GPS,
17300,2023-07-18 18:30:00,52.2071139023267,0.0870148743470597,103.674544,104.9540716,59.244313575608,164.19838517561,83.66142,0,82.735895036,128.774282336,21,5,16.404,164.19838517561,103.674544,22.145706,82.735895036,0,0,0,181.7, 3.6, 0.1,0,0,1024,1024,1024,1024,0,0,0,0,175.4,-12.6,0,89,4.101,4.105,4.104,4.102,0,0,7.378,75.74,164.19838517561,103.674544,6,P-GPS,
17500,2023-07-18 18:30:00,52.2071137868101,0.0870147612745247,103.674544,104.9540716,59.244313575608,164.19838517561,83.66142,0,82.774280864,128.823494936,21,5,16.404,164.19838517561,103.674544,22.145706,82.774280864,0,0,0,181.9, 3.4, 0.2,0,0,1024,1024,1024,1024,0,0,0,0,175.4,-15.6,0,89,4.101,4.105,4.104,4.102,0,0,7.378,75.74,164.19838517561,103.674544,6,P-GPS,
17700,2023-07-18 18:30:00,52.2071136710537,0.0870146186485833,103.674544,104.9540716,59.244313575608,164.19838517561,83.66142,0,82.812010524,128.87631646,21,5,16.403,164.19838517561,103.674544,22.145706,82.812010524,0,0,0,181.7, 3.9, 0.5,0,0,1024,1024,1024,1024,0,0,0,0,175.4,-18.5,0,89,4.101,4.105,4.103,4.103,0,0,7.281,75.74,164.19838517561,103.674544,6,P-GPS,
17900,2023-07-18 18:30:00,52.2071135961101,0.0870144267646347,103.674544,104.9540716,59.244313575608,164.19838517561,83.66142,0,82.833335984,128.92716948,21,5,16.403,164.19838517561,103.674544,22.145706,82.833335984,0,0,0,181, 4.1, 0,0,0,1024,1024,1024,1024,0,0,0,0,175.4,-21.4,0,89,4.101,4.105,4.103,4.103,0,0,7.281,75.74,164.19838517561,103.674544,6,P-GPS,
18100,2023-07-18 18:30:01,52.2071135640184,0.0870143032701202,103.674544,104.9540716,59.244313575608,164.19838517561,83.66142,0,82.84121,128.957353208,21,5,16.403,164.19838517561,103.674544,22.145706,82.84121,0,0,0,181, 3.7, 0,0,0,1024,1024,1024,1024,0,0,0,0,175.4,-24.3,0,89,4.101,4.105,4.103,4.103,0,0,7.281,75.74,164.19838517561,103.674544,6,P-GPS,
18300,2023-07-18 18:30:01,52.2071135707177,0.0870142493603174,103.674544,104.9540716,59.244313575608,164.19838517561,83.66142,0,82.837272992,128.969492316,21,5,16.403,164.19838517561,103.674544,22.145706,82.84121,0,0,0,180.8, 3.4, 0,0,0,1024,1024,1024,1024,0,0,0,0,175.4,-27.2,0,89,4.101,4.105,4.103,4.103,0,0,7.281,75.74,164.19838517561,103.674544,6,P-GPS,
18500,2023-07-18 18:30:01,52.2071136155057,0.0870142587827374,103.674544,104.9540716,59.244313575608,164.19838517561,83.66142,0,82.82152496,128.9862246,21,5,16.403,164.19838517561,103.674544,22.145706,82.84121,0,0,0,180.9, 3, 0.6,0,0,1024,1024,1024,1024,0,0,0,0,175.4,-30.2,0,89,4.101,4.105,4.103,4.103,0,0,7.281,75.74,164.19838517561,103.674544,6,P-GPS,
18700,2023-07-18 18:30:01,52.2071136616814,0.0870143436928613,103.674544,104.9540716,59.244313575608,164.19838517561,83.66142,0,82.807089264,129.011487068,21,5,16.399,164.19838517561,103.674544,22.145706,82.84121,0,0,0,180.9, 3.2, 0.7,0,0,1024,1024,1024,1024,0,0,0,0,175.4,-33.1,0,89,4.1,4.102,4.102,4.098,0,0,7.229,75.92,164.19838517561,103.674544,6,P-GPS,
18900,2023-07-18 18:30:01,52.2071137043962,0.0870144386789632,103.674544,104.9540716,59.244313575608,164.19838517561,83.66142,0,82.794622072,129.037733788,21,5,16.399,164.19838517561,103.674544,22.145706,82.84121,0,0,0,180.9, 3.4, 1,0,0,1024,1024,1024,1024,0,0,0,0,175.4,-36,0,89,4.1,4.102,4.102,4.098,0,0,7.229,75.92,164.19838517561,103.674544,6,P-GPS,
19100,2023-07-18 18:30:02,52.2071137544785,0.0870145185178959,103.674544,104.9540716,59.244313575608,164.19838517561,83.66142,0,82.77887404,129.06332434,21,5,16.399,164.19838517561,103.674544,22.145706,82.84121,0,0,0,181, 3.5, 0.8,0,0,1024,1024,1024,1024,0,0,0,0,175.4,-38.9,0,89,4.1,4.102,4.102,4.098,0,0,7.229,75.92,164.19838517561,103.674544,6,P-GPS,
19300,2023-07-18 18:30:02,52.2071138271432,0.0870146035783032,103.674544,104.9540716,59.244313575608,164.19838517561,83.66142,0,82.755251992,129.09613274,21,5,16.399,164.19838517561,103.674544,22.145706,82.84121,0,0,0,181, 3.7, 0.3,0,0,1024,1024,1024,1024,0,0,0,0,175.4,-41.8,0,89,4.1,4.102,4.102,4.098,0,0,7.229,75.92,164.19838517561,103.674544,6,P-GPS,
19500,2023-07-18 18:30:02,52.2071139583887,0.0870146865032882,103.674544,104.9540716,59.244313575608,164.19838517561,83.66142,0,82.7099764,129.147313844,21,5,16.399,164.19838517561,103.674544,22.145706,82.84121,0,0,0,180.8, 3.5, 0,0,0,1024,1024,1024,1024,0,0,0,0,175.4,-44.7,0,89,4.1,4.102,4.102,4.098,0,0,7.229,75.92,164.19838517561,103.674544,6,P-GPS,
19700,2023-07-18 18:30:02,52.2071140830547,0.0870148151703477,103.674544,104.9540716,59.244313575608,164.19838517561,83.66142,0,82.6689659,129.20111962,21,5,16.389,164.19838517561,103.674544,22.145706,82.84121,0,0,0,180.9, 4.1, 0,0,0,1024,1024,1024,1024,0,0,0,0,175.4,-47.7,0,89,4.098,4.1,4.101,4.099,0,0,7.365,75.74,164.19838517561,103.674544,6,P-GPS,
19900,2023-07-18 18:30:02,52.2071141708487,0.0870150240957355,103.674544,104.9540716,59.244313575608,164.19838517561,83.66142,0,82.643375348,129.257878152,20,5,16.389,164.19838517561,103.674544,22.145706,82.84121,0,0,0,180.9, 4.7, 0.2,0,0,1024,1024,1024,1024,0,0,0,0,175.4,-50.6,0,89,4.098,4.1,4.101,4.099,0,0,7.365,75.74,164.19838517561,103.674544,6,P-GPS,
20100,2023-07-18 18:30:03,52.2071143105411,0.0870153155092378,103.674544,104.9540716,59.244313575608,164.19838517561,83.66142,0,82.60170868,129.34055532,20,5,16.389,164.19838517561,103.674544,22.145706,82.84121,0,0,0,181, 4.8, 0.6,0,0,1024,1024,1024,1024,0,0,0,0,175.4,-53.5,0,89,4.098,4.1,4.101,4.099,0,0,7.365,75.74,164.19838517561,103.674544,6,P-GPS,
20300,2023-07-18 18:30:03,52.2071144506276,0.0870156062272426,103.674544,104.9540716,59.244313575608,164.19838517561,83.66142,0,82.559713928,129.423232488,20,5,16.389,164.19838517561,103.674544,22.145706,82.84121,0,0,0,181, 4.9, 0.5,0,0,1024,1024,1024,1024,0,0,0,0,175.4,-56.4,0,89,4.098,4.1,4.101,4.099,0,0,7.365,75.74,164.19838517561,103.674544,6,P-GPS,
20500,2023-07-18 18:30:03,52.2071146245535,0.0870158947783703,103.674544,104.9540716,59.244313575608,164.19838517561,83.66142,0,82.505580068,129.513783672,20,5,16.389,164.19838517561,103.674544,22.145706,82.84121,0,0,0,180.8, 4.7, 0.8,0,0,1024,1024,1024,1024,0,0,0,0,175.4,-59.3,0,89,4.098,4.1,4.101,4.099,0,0,7.365,75.74,164.19838517561,103.674544,6,P-GPS,
20700,2023-07-18 18:30:03,52.2071148000215,0.0870161481561913,103.674544,104.9540716,59.244313575608,164.19838517561,83.66142,0,82.450133872,129.599085512,20,5,16.394,164.19838517561,103.674544,22.145706,82.84121,0,0,0,181.1, 4.6, 0.5,0,0,1024,1024,1024,1024,0,0,0,0,175.4,-62.3,0,89,4.096,4.101,4.1,4.097,0,0,7.272,75.74,164.19838517561,103.674544,6,P-GPS,
20900,2023-07-18 18:30:03,52.2071149885112,0.0870162925261192,103.674544,104.9540716,59.244313575608,164.19838517561,83.66142,0,82.386485576,129.675201,20,5,16.394,164.19838517561,103.674544,22.145706,82.84121,0,0,0,181.1, 4.5, -0.3,0,0,1024,1024,1024,1024,0,0,0,0,175.4,-65.2,0,89,4.096,4.101,4.1,4.097,0,0,7.272,75.74,164.19838517561,103.674544,6,P-GPS,
21100,2023-07-18 18:30:04,52.2071151743794,0.0870163922199362,103.674544,104.9540716,59.244313575608,164.19838517561,83.66142,0,82.322181112,129.746395228,20,5,16.394,164.19838517561,103.674544,22.145706,82.84121,0,0,0,181.1, 4.6, -1.3,0,0,1024,1024,1024,1024,0,0,0,0,175.4,-68.1,0,89,4.096,4.101,4.1,4.097,0,0,7.272,75.74,164.19838517561,103.674544,6,P-GPS,
21300,2023-07-18 18:30:04,52.2071153458723,0.0870165423076234,103.674544,104.9540716,59.244313575608,164.19838517561,83.66142,0,82.265094496,129.817589456,20,5,16.394,164.19838517561,103.674544,22.145706,82.84121,0,0,0,181, 4.4, -1.4,0,0,1024,1024,1024,1024,0,0,0,0,175.4,-71,0,89,4.096,4.101,4.1,4.097,0,0,7.272,75.74,164.19838517561,103.674544,6,P-GPS,
21500,2023-07-18 18:30:04,52.2071155106145,0.0870167924840584,103.674544,104.9540716,59.244313575608,164.19838517561,83.66142,0,82.213257224,129.899610456,20,5,16.394,164.19838517561,103.674544,22.145706,82.84121,0,0,0,181, 4.7, -1.1,0,0,1024,1024,1024,1024,0,0,0,0,175.4,-73.9,0,89,4.096,4.101,4.1,4.097,0,0,7.272,75.74,164.19838517561,103.674544,6,P-GPS,
21700,2023-07-18 18:30:04,52.2071156450982,0.0870171429169994,103.674544,104.9540716,59.244313575608,164.19838517561,83.66142,0,82.175527564,129.992130144,20,5,16.382,164.19838517561,103.674544,22.145706,82.84121,0,0,0,180.9, 4.8, -0.4,0,0,1024,1024,1024,1024,0,0,0,0,175.4,-76.9,0,89,4.097,4.1,4.099,4.095,0,0,7.326,75.92,164.19838517561,103.674544,6,P-GPS,
21900,2023-07-18 18:30:04,52.2071157996629,0.0870175469312168,103.674544,104.9540716,59.244313575608,164.19838517561,83.66142,0,82.13254856,130.09842936,20,5,16.382,164.19838517561,103.674544,22.145706,82.84121,0,0,0,180.9, 4.8, 0.2,0,0,1024,1024,1024,1024,0,0,0,0,175.4,-79.8,0,89,4.097,4.1,4.099,4.095,0,0,7.326,75.92,164.19838517561,103.674544,6,P-GPS,
22100,2023-07-18 18:30:05,52.2071159461746,0.0870179704193675,103.674544,104.9540716,59.244313575608,164.19838517561,83.66142,0,82.09317848,130.207353248,20,5,16.382,164.19838517561,103.674544,22.145706,82.84121,0,0,0,181, 4.8, 0.5,0,0,1024,1024,1024,1024,0,0,0,0,175.4,-82.7,0,89,4.097,4.1,4.099,4.095,0,0,7.326,75.92,164.19838517561,103.674544,6,P-GPS,
22300,2023-07-18 18:30:05,52.2071160951022,0.0870183403961411,103.674544,104.9540716,59.244313575608,164.19838517561,83.66142,0,82.051183728,130.306434616,20,5,16.382,164.19838517561,103.674544,22.145706,82.84121,0,0,0,181, 4.7, 0.4,0,0,1024,1024,1024,1024,0,0,0,0,175.4,-85.6,0,89,4.097,4.1,4.099,4.095,0,0,7.326,75.92,164.19838517561,103.674544,6,P-GPS,
22500,2023-07-18 18:30:05,52.2071162757446,0.0870186939710538,103.674544,104.9540716,59.244313575608,164.19838517561,83.66142,0,81.997377952,130.409124908,20,5,16.382,164.19838517561,103.674544,22.145706,82.84121,0,0,0,181, 4.6, 0.3,0,0,1024,1024,1024,1024,0,0,0,0,175.4,-88.5,0,89,4.097,4.1,4.099,4.095,0,0,7.326,75.92,164.19838517561,103.674544,6,P-GPS,
22700,2023-07-18 18:30:05,52.2071164454727,0.0870190508172517,103.674544,104.9540716,59.244313575608,164.19838517561,83.66142,0,81.947837268,130.51017478,20,5,16.395,164.19838517561,103.674544,22.145706,82.84121,0,0,0,181.1, 5.1, 0.3,0,0,1024,1024,1024,1024,0,0,0,0,175.4,-89.9,0,89,4.099,4.102,4.101,4.097,0,0,7.138,75.92,164.19838517561,103.674544,6,P-GPS,
22900,2023-07-18 18:30:05,52.2071166433517,0.0870194256799835,103.674544,104.9540716,59.244313575608,164.19838517561,83.66142,0,81.888782148,130.620739088,20,5,16.395,164.19838517561,103.674544,22.145706,82.84121,0,0,0,181, 5, 0.7,0,0,1024,1024,1024,1024,0,0,0,0,175.4,-90,0,89,4.099,4.102,4.101,4.097,0,0,7.138,75.92,164.19838517561,103.674544,6,P-GPS,
23100,2023-07-18 18:30:06,52.2071168415735,0.0870197498517732,103.674544,104.9540716,59.244313575608,164.19838517561,83.66142,0,81.828086608,130.723101296,20,5,16.395,164.19838517561,103.674544,22.145706,82.84121,0,0,0,181.1, 4.6, 0.8,0,0,1024,1024,1024,1024,0,0,0,0,175.4,-89.9,0,89,4.099,4.102,4.101,4.097,0,0,7.138,75.92,164.19838517561,103.674544,6,P-GPS,
23300,2023-07-18 18:30:06,52.2071170653076,0.0870200049805706,103.674544,104.9540716,59.244313575608,164.19838517561,83.66142,0,81.755580044,130.822838832,20,5,16.395,164.19838517561,103.674544,22.145706,82.84121,0,0,0,181.1, 4.4, 0,0,0,1024,1024,1024,1024,0,0,0,0,175.4,-89.9,0,89,4.099,4.102,4.101,4.097,0,0,7.138,75.92,164.19838517561,103.674544,6,P-GPS,
23500,2023-07-18 18:30:06,52.20711729216,0.0870202252261433,103.674544,104.9540716,59.244313575608,164.19838517561,83.66142,0,81.68143306,130.918967444,20,5,16.395,164.19838517561,103.674544,22.145706,82.84121,0,0,0,181, 4, 0.1,0,0,1024,1024,1024,1024,0,0,0,0,175.4,-89.9,0,89,4.099,4.102,4.101,4.097,0,0,7.138,75.92,164.19838517561,103.674544,6,P-GPS,
23700,2023-07-18 18:30:06,52.20711751269,0.0870203759184591,103.674544,104.9540716,59.244313575608,164.19838517561,83.66142,0,81.606629908,131.006237788,20,5,16.378,164.19838517561,103.674544,22.145706,82.84121,0,0,0,181, 3.9, -0.2,0,0,1024,1024,1024,1024,0,0,0,0,175.4,-90,0,88,4.09,4.095,4.095,4.091,0,0,7.208,75.92,164.19838517561,103.674544,6,P-GPS,
23900,2023-07-18 18:30:06,52.2071177077077,0.0870204792505324,103.674544,104.9540716,59.244313575608,164.19838517561,83.66142,0,81.540028856,131.08104094,20,5,16.378,164.19838517561,103.674544,22.145706,82.84121,0,0,0,181, 3.9, -0.9,0,0,1024,1024,1024,1024,0,0,0,0,175.4,-89.9,0,88,4.09,4.095,4.095,4.091,0,0,7.208,75.92,164.19838517561,103.674544,6,P-GPS,
24100,2023-07-18 18:30:07,52.2071179329325,0.0870205688404117,103.674544,104.9540716,59.244313575608,164.19838517561,83.66142,0,81.46161678,131.165686612,20,5,16.378,164.19838517561,103.674544,22.145706,82.84121,0,0,0,181, 3.8, -1.2,0,0,1024,1024,1024,1024,0,0,0,0,175.4,-89.9,0,88,4.09,4.095,4.095,4.091,0,0,7.208,75.92,164.19838517561,103.674544,6,P-GPS,
24300,2023-07-18 18:30:07,52.207118112701,0.0870207990955581,103.674544,104.9540716,59.244313575608,164.19838517561,83.66142,0,81.404858248,131.249019948,20,5,16.378,164.19838517561,103.674544,22.145706,82.84121,0,0,0,180.9, 3.5, -0.5,0,0,1024,1024,1024,1024,0,0,0,0,175.4,-90,0,88,4.09,4.095,4.095,4.091,0,0,7.208,75.92,164.19838517561,103.674544,6,P-GPS,
24500,2023-07-18 18:30:07,52.2071182781114,0.0870211543515479,103.674544,104.9540716,59.244313575608,164.19838517561,83.66142,0,81.357286068,131.348757484,20,5,16.378,164.19838517561,103.674544,22.145706,82.84121,0,0,0,180.9, 3.4, 0.9,0,0,1024,1024,1024,1024,0,0,0,0,175.4,-90,0,88,4.09,4.095,4.095,4.091,0,0,7.208,75.92,164.19838517561,103.674544,6,P-GPS,
24700,2023-07-18 18:30:07,52.2071184469999,0.0870215188691894,103.674544,104.9540716,59.244313575608,164.19838517561,83.66142,0,81.308729636,131.451119692,20,5,16.374,164.19838517561,103.674544,22.145706,82.84121,0,0,0,180.8, 3.5, 1.8,0,0,1024,1024,1024,1024,0,0,0,0,175.4,-89.9,0,88,4.086,4.094,4.092,4.088,0,0,7.428,75.92,164.19838517561,103.674544,6,P-GPS,
24900,2023-07-18 18:30:07,52.2071186164368,0.0870218061446557,103.674544,104.9540716,59.244313575608,164.19838517561,83.66142,0,81.257548532,131.540030456,20,5,16.374,164.19838517561,103.674544,22.145706,82.84121,0,0,0,181, 2.8, 1.6,0,0,1024,1024,1024,1024,0,0,0,0,175.4,-90,0,88,4.086,4.094,4.092,4.088,0,0,7.428,75.92,164.19838517561,103.674544,6,P-GPS,
25100,2023-07-18 18:30:08,52.2071187863705,0.08702191316042,103.674544,104.9540716,59.244313575608,164.19838517561,83.66142,0,81.200133832,131.606631508,20,5,16.374,164.19838517561,103.674544,22.145706,82.84121,0,0,0,181.1, 2.6, 0.8,0,0,1024,1024,1024,1024,0,0,0,0,175.4,-90,0,88,4.086,4.094,4.092,4.088,0,0,7.428,75.92,164.19838517561,103.674544,6,P-GPS,
25300,2023-07-18 18:30:08,52.2071188980148,0.0870218504013711,103.674544,104.9540716,59.244313575608,164.19838517561,83.66142,0.223694,81.157810996,131.649610512,20,5,16.374,164.19838517561,103.674544,22.145706,82.84121,0,-0.223694,0,181.1, 2.8, -0.9,0,0,1024,1024,1024,1024,0,0,0,0,175.4,-90,0,88,4.086,4.094,4.092,4.088,0,0,7.428,75.92,164.19838517561,103.674544,6,P-GPS,
25500,2023-07-18 18:30:08,52.2071189844552,0.0870217497010047,103.674544,104.9540716,59.244313575608,164.19838517561,83.66142,0,81.123034092,131.688324424,20,5,16.374,164.19838517561,103.674544,22.145706,82.84121,0,0,0,181, 3.3, -1.8,0,0,1024,1024,1024,1024,0,0,0,0,175.4,-89.9,0,88,4.086,4.094,4.092,4.088,0,0,7.428,75.92,164.19838517561,103.674544,6,P-GPS,
25700,2023-07-18 18:30:08,52.2071190542586,0.087021720276912,103.674544,104.9540716,59.244313575608,164.19838517561,83.66142,0,81.096787372,131.714899228,20,5,16.366,164.19838517561,103.674544,22.145706,82.84121,0,0,0,181, 3.1, -1.6,0,0,1024,1024,1024,1024,0,0,0,0,175.4,-90,0,88,4.087,4.095,4.095,4.091,0,0,7.489,75.92,164.19838517561,103.674544,6,P-GPS,
25900,2023-07-18 18:30:08,52.2071190833861,0.0870218021359333,103.674544,104.9540716,59.244313575608,164.19838517561,83.66142,0,81.08924144,131.735896604,20,5,16.366,164.19838517561,103.674544,22.145706,82.84121,0,0,0,180.9, 3.4, -1.2,0,0,1024,1024,1024,1024,0,0,0,0,175.4,-89.9,0,88,4.087,4.095,4.095,4.091,0,0,7.489,75.92,164.19838517561,103.674544,6,P-GPS,
26100,2023-07-18 18:30:09,52.2071191180308,0.0870219282621547,103.674544,104.9540716,59.244313575608,164.19838517561,83.66142,0,81.08103934,131.7667365,20,5,16.366,164.19838517561,103.674544,22.145706,82.84121,0,0,0,181, 3.8, -1.1,0,0,1024,1024,1024,1024,0,0,0,0,175.4,-90,0,88,4.087,4.095,4.095,4.091,0,0,7.489,75.92,164.19838517561,103.674544,6,P-GPS,
26300,2023-07-18 18:30:09,52.2071191387457,0.0870220693677873,103.674544,104.9540716,59.244313575608,164.19838517561,83.66142,0,81.078742752,131.799216816,20,5,16.366,164.19838517561,103.674544,22.145706,82.84121,0,0,0,181, 4.2, -1.1,0,0,1024,1024,1024,1024,0,0,0,0,175.4,-89.9,0,88,4.087,4.095,4.095,4.091,0,0,7.489,75.92,164.19838517561,103.674544,6,P-GPS,
26500,2023-07-18 18:30:09,52.2071191610711,0.0870221891471561,103.674544,104.9540716,59.244313575608,164.19838517561,83.66142,0,81.074805744,131.82743204,20,5,16.366,164.19838517561,103.674544,22.145706,82.84121,0,0,0,181, 4.2, -1.3,0,0,1024,1024,1024,1024,0,0,0,0,175.4,-90,0,88,4.087,4.095,4.095,4.091,0,0,7.489,75.92,164.19838517561,103.674544,6,P-GPS,
26700,2023-07-18 18:30:09,52.2071192405209,0.0870223174577294,103.674544,104.9540716,59.244313575608,164.19838517561,83.66142,0,81.050527528,131.868114456,20,5,16.361,164.19838517561,103.674544,22.145706,82.84121,0,0,0,181.1, 3.7, -1.4,0,0,1024,1024,1024,1024,0,0,0,0,175.4,-89.9,0,88,4.09,4.091,4.091,4.086,0,0,7.455,76.1,164.19838517561,103.674544,6,P-GPS,
26900,2023-07-18 18:30:09,52.2071193406855,0.0870224978851896,103.674544,104.9540716,59.244313575608,164.19838517561,83.66142,0,81.020999968,131.9225764,20,5,16.361,164.19838517561,103.674544,22.145706,82.84121,0,0,0,181.1, 3.2, -1.4,0,0,1024,1024,1024,1024,0,0,0,0,175.4,-89.9,0,88,4.09,4.091,4.091,4.086,0,0,7.455,76.1,164.19838517561,103.674544,6,P-GPS,
27100,2023-07-18 18:30:09,52.207119463878,0.0870227377409991,103.674544,104.9540716,59.244313575608,164.19838517561,83.66142,0,80.984910728,131.992458292,20,5,16.361,164.19838517561,103.674544,22.145706,82.84121,0,0,0,181, 3.2, -0.4,0,0,1024,1024,1024,1024,0,0,0,0,175.4,-89.9,0,88,4.09,4.091,4.091,4.086,0,0,7.455,76.1,164.19838517561,103.674544,6,P-GPS,
27300,2023-07-18 18:30:10,52.2071195592965,0.0870229828776976,103.674544,104.9540716,59.244313575608,164.19838517561,83.66142,0,80.959320176,132.057418924,20,5,16.361,164.19838517561,103.674544,22.145706,82.84121,0,0,0,181, 3.2, 0.2,0,0,1024,1024,1024,1024,0,0,0,0,175.4,-89.9,0,88,4.09,4.091,4.091,4.086,0,0,7.455,76.1,164.19838517561,103.674544,6,P-GPS,
27500,2023-07-18 18:30:10,52.2071196550577,0.0870231337202968,103.674544,104.9540716,59.244313575608,164.19838517561,83.66142,0,80.9301207,132.105975356,20,5,16.361,164.19838517561,103.674544,22.145706,82.84121,0,0,0,181, 3.3, -0.1,0,0,1024,1024,1024,1024,0,0,0,0,175.4,-90,0,88,4.09,4.091,4.091,4.086,0,0,7.455,76.1,164.19838517561,103.674544,6,P-GPS,
27700,2023-07-18 18:30:10,52.2071197802892,0.0870231934841625,103.674544,104.9540716,59.244313575608,164.19838517561,83.66142,0,80.887141696,132.153547536,20,5,16.362,164.19838517561,103.674544,22.145706,82.84121,0,0,0,180.9, 3.2, -0.5,0,0,1024,1024,1024,1024,0,0,0,0,175.4,-89.9,0,88,4.088,4.092,4.09,4.088,0,0,7.423,76.1,164.19838517561,103.674544,6,P-GPS,
27900,2023-07-18 18:30:10,52.2071198801454,0.0870232083132902,103.674544,104.9540716,59.244313575608,164.19838517561,83.66142,0,80.851708624,132.18996486,20,5,16.362,164.19838517561,103.674544,22.145706,82.84121,0,0,0,181, 3.1, -0.8,0,0,1024,1024,1024,1024,0,0,0,0,175.4,-89.9,0,88,4.088,4.092,4.09,4.088,0,0,7.423,76.1,164.19838517561,103.674544,6,P-GPS,
28100,2023-07-18 18:30:11,52.2071199372183,0.0870232144644249,103.674544,104.9540716,59.244313575608,164.19838517561,83.66142,0,80.831367416,132.210962236,20,5,16.362,164.19838517561,103.674544,22.145706,82.84121,0,0,0,180.9, 3.6, -1.3,0,0,1024,1024,1024,1024,0,0,0,0,175.4,-90,0,88,4.088,4.092,4.09,4.088,0,0,7.423,76.1,164.19838517561,103.674544,6,P-GPS,
28300,2023-07-18 18:30:11,52.2071199665515,0.0870232273433632,103.674544,104.9540716,59.244313575608,164.19838517561,83.66142,0,80.821196812,132.222117092,20,5,16.362,164.19838517561,103.674544,22.145706,82.84121,0,0,0,181, 4.1, -1.4,0,0,1024,1024,1024,1024,0,0,0,0,175.4,-90,0,88,4.088,4.092,4.09,4.088,0,0,7.423,76.1,164.19838517561,103.674544,6,P-GPS,
28500,2023-07-18 18:30:11,52.2071199865981,0.0870232656621365,103.674544,104.9540716,59.244313575608,164.19838517561,83.66142,0,80.8152913,132.233271948,20,5,16.362,164.19838517561,103.674544,22.145706,82.84121,0,0,0,180.9, 4.5, -0.9,0,0,1024,1024,1024,1024,0,0,0,0,175.4,-89.9,0,88,4.088,4.092,4.09,4.088,0,0,7.423,76.1,164.19838517561,103.674544,6,P-GPS,
28700,2023-07-18 18:30:11,52.2071200345215,0.0870232993046495,103.674544,104.9540716,59.244313575608,164.19838517561,83.66142,0,80.799215184,132.25230082,20,5,16.36,164.19838517561,103.674544,22.145706,82.84121,0,0,0,181, 3.9, -1,0,0,1024,1024,1024,1024,0,0,0,0,175.4,-90,0,88,4.087,4.09,4.091,4.087,0,0,7.432,76.1,164.19838517561,103.674544,6,P-GPS,
28900,2023-07-18 18:30:11,52.2071200909434,0.0870233305740827,103.674544,104.9540716,59.244313575608,164.19838517561,83.66142,0,80.780186312,132.274282448,20,5,16.36,164.19838517561,103.674544,22.145706,82.84121,0,0,0,180.9, 3.7, -1.1,0,0,1024,1024,1024,1024,0,0,0,0,175.4,-89.9,0,88,4.087,4.09,4.091,4.087,0,0,7.432,76.1,164.19838517561,103.674544,6,P-GPS,
29100,2023-07-18 18:30:12,52.2071201699476,0.0870233746315851,103.674544,104.9540716,59.244313575608,164.19838517561,83.66142,0,80.753283424,132.304466176,20,5,16.36,164.19838517561,103.674544,22.145706,82.84121,0,0,0,180.8, 3.5, -0.8,0,0,1024,1024,1024,1024,0,0,0,0,175.4,-89.9,0,88,4.087,4.09,4.091,4.087,0,0,7.432,76.1,164.19838517561,103.674544,6,P-GPS,
29300,2023-07-18 18:30:12,52.2071202281343,0.087023415159175,103.674544,104.9540716,59.244313575608,164.19838517561,83.66142,0,80.733926468,132.32776014,20,5,16.36,164.19838517561,103.674544,22.145706,82.84121,0,0,0,180.9, 3.3, -0.8,0,0,1024,1024,1024,1024,0,0,0,0,175.4,-89.9,0,88,4.087,4.09,4.091,4.087,0,0,7.432,76.1,164.19838517561,103.674544,6,P-GPS,
29500,2023-07-18 18:30:12,52.2071202568849,0.0870234715399167,103.674544,104.9540716,59.244313575608,164.19838517561,83.66142,0,80.725396284,132.34416434,20,5,16.36,164.19838517561,103.674544,22.145706,82.84121,0,0,0,180.9, 3.3, -0.2,0,0,1024,1024,1024,1024,0,0,0,0,175.4,-90,0,88,4.087,4.09,4.091,4.087,0,0,7.432,76.1,164.19838517561,103.674544,6,P-GPS,
29700,2023-07-18 18:30:12,52.2071202752353,0.0870235251002233,103.674544,104.9540716,59.244313575608,164.19838517561,83.66142,0,80.720803108,132.357943868,20,5,16.346,164.19838517561,103.674544,22.145706,82.84121,0,0,0,181, 3.4, -0.1,0,0,1024,1024,1024,1024,0,0,0,0,175.4,-90,0,88,4.085,4.089,4.09,4.086,0,0,7.489,76.28,164.19838517561,103.674544,6,P-GPS,
29900,2023-07-18 18:30:12,52.2071202399738,0.0870235270399277,103.674544,104.9540716,59.244313575608,164.19838517561,83.66142,0,80.733598384,132.370739144,20,5,16.346,164.19838517561,103.674544,22.145706,82.84121,0,0,0,181.1, 3.7, -0.6,0,0,1024,1024,1024,1024,0,0,0,0,175.4,-90,0,88,4.085,4.089,4.09,4.086,0,0,7.489,76.28,164.19838517561,103.674544,6,P-GPS,
30100,2023-07-18 18:30:13,52.2071202169801,0.0870235313946515,103.674544,104.9540716,59.244313575608,164.19838517561,83.66142,0,80.742128568,132.378941244,20,5,16.346,164.19838517561,103.674544,22.145706,82.84121,0,0,0,180.9, 3.3, -0.4,0,0,1024,1024,1024,1024,0,0,0,0,175.4,-90,0,88,4.085,4.089,4.09,4.086,0,0,7.489,76.28,164.19838517561,103.674544,6,P-GPS,
30300,2023-07-18 18:30:13,52.2071201902513,0.0870235570022447,103.674544,104.9540716,59.244313575608,164.19838517561,83.66142,0,80.752627256,132.390424184,20,5,16.346,164.19838517561,103.674544,22.145706,82.84121,0,0,0,180.9, 2.9, -0.3,0,0,1024,1024,1024,1024,0,0,0,0,175.4,-90,0,88,4.085,4.089,4.09,4.086,0,0,7.489,76.28,164.19838517561,103.674544,6,P-GPS,
30500,2023-07-18 18:30:13,52.207120136211,0.0870235271377866,103.674544,104.9540716,59.244313575608,164.19838517561,83.66142,0,80.77099996,132.411093476,20,5,16.346,164.19838517561,103.674544,22.145706,82.84121,0,0,0,181, 3, -0.5,0,0,1024,1024,1024,1024,0,0,0,0,175.4,-90,0,88,4.085,4.089,4.09,4.086,0,0,7.489,76.28,164.19838517561,103.674544,6,P-GPS,
30700,2023-07-18 18:30:13,52.2071200552878,0.0870234978360176,103.674544,104.9540716,59.244313575608,164.19838517561,83.66142,0,80.7988871,132.441605288,20,5,16.34,164.19838517561,103.674544,22.145706,82.84121,0,0,0,181, 3.4, -0.6,0,0,1024,1024,1024,1024,0,0,0,0,175.4,-90,0,88,4.086,4.09,4.089,4.085,0,0,7.486,76.28,164.19838517561,103.674544,6,P-GPS,
30900,2023-07-18 18:30:13,52.2071199717773,0.0870234277130818,103.674544,104.9540716,59.244313575608,164.19838517561,83.66142,0,80.826446156,132.475726024,20,5,16.34,164.19838517561,103.674544,22.145706,82.84121,0,0,0,180.9, 3.2, -1,0,0,1024,1024,1024,1024,0,0,0,0,175.4,-89.9,0,88,4.086,4.09,4.089,4.085,0,0,7.486,76.28,164.19838517561,103.674544,6,P-GPS,
31100,2023-07-18 18:30:14,52.2071198630972,0.0870233555980171,103.674544,104.9540716,59.244313575608,164.19838517561,83.66142,0,80.863191564,132.518705028,20,5,16.34,164.19838517561,103.674544,22.145706,82.84121,0,0,0,180.9, 3, -1.2,0,0,1024,1024,1024,1024,0,0,0,0,175.4,-89.9,0,88,4.086,4.09,4.089,4.085,0,0,7.486,76.28,164.19838517561,103.674544,6,P-GPS,
31300,2023-07-18 18:30:14,52.2071197661195,0.087023312543569,103.674544,104.9540716,59.244313575608,164.19838517561,83.66142,0,80.896656132,132.555122352,20,5,16.34,164.19838517561,103.674544,22.145706,82.84121,0,0,0,180.9, 2.8, -1.2,0,0,1024,1024,1024,1024,0,0,0,0,175.4,-89.9,0,88,4.086,4.09,4.089,4.085,0,0,7.486,76.28,164.19838517561,103.674544,6,P-GPS,
31500,2023-07-18 18:30:14,52.207119678257,0.0870232545271847,103.674544,104.9540716,59.244313575608,164.19838517561,83.66142,0,80.926183692,132.589899256,20,5,16.34,164.19838517561,103.674544,22.145706,82.84121,0,0,0,180.9, 2.4, -1.2,0,0,1024,1024,1024,1024,0,0,0,0,175.4,-89.9,0,88,4.086,4.09,4.089,4.085,0,0,7.486,76.28,164.19838517561,103.674544,6,P-GPS,
31700,2023-07-18 18:30:14,52.207119554499,0.0870232565857179,103.34646,104.6259876,59.244313575608,163.87030117561,83.66142,0,80.970803116,132.634846764,20,5,16.339,164.19838517561,103.674544,22.145706,82.84121,0,0,0,180.9, 2.6, -1.1,0,0,1024,1024,1024,1024,0,0,0,0,175.4,-90,0,88,4.083,4.087,4.086,4.083,0,0,7.514,76.46,163.87030117561,103.34646,6,P-GPS,
31900,2023-07-18 18:30:14,52.2071194062568,0.0870232768250481,103.34646,104.6259876,59.244313575608,163.87030117561,83.66142,0,81.024936976,132.689308708,20,5,16.339,164.19838517561,103.674544,22.145706,82.84121,0,0,0,180.9, 2.7, -0.8,0,0,1024,1024,1024,1024,0,0,0,0,175.4,-89.9,0,88,4.083,4.087,4.086,4.083,0,0,7.514,76.46,163.87030117561,103.34646,6,P-GPS,
32100,2023-07-18 18:30:15,52.2071192394072,0.0870232550129846,103.34646,104.6259876,59.244313575608,163.87030117561,83.66142,0,81.083992096,132.750332332,20,5,16.339,164.19838517561,103.674544,22.145706,82.84121,0,0,0,181, 3.1, -0.9,0,0,1024,1024,1396,1024,0,0,56,0,175.4,-89.9,0,88,4.083,4.087,4.086,4.083,0,0,7.514,76.46,163.87030117561,103.34646,6,P-GPS,
32300,2023-07-18 18:30:15,52.2071190749392,0.0870231278068195,103.34646,104.6259876,59.244313575608,163.87030117561,83.66142,0,81.138782124,132.8166053,20,5,16.339,164.19838517561,103.674544,22.145706,82.84121,0,0,0,181.1, 3.6, -1.7,0,0,1024,1024,1684,1024,0,0,100,0,175.4,-90,0,88,4.083,4.087,4.086,4.083,0,0,7.514,76.46,163.87030117561,103.34646,6,P-GPS,
32500,2023-07-18 18:30:15,52.2071189186611,0.0870229700197291,103.674544,104.9540716,59.244313575608,164.19838517561,83.66142,0,81.189635144,132.88386252,20,5,16.339,164.19838517561,103.674544,22.145706,82.84121,0,0,-0.894776,181.2, 2.9, -2,0,0,1024,1024,1684,1024,0,0,100,0,175.4,-89.9,0,88,4.083,4.087,4.086,4.083,0,0,7.514,76.46,164.19838517561,103.674544,6,P-GPS,
32700,2023-07-18 18:30:15,52.2071187548442,0.0870228767985834,104.330712,105.6102396,59.244313575608,164.85455317561,83.66142,0,81.245409424,132.947182732,21,5,16.339,164.85455317561,104.330712,22.145706,82.84121,0,0,-3.131716,181, 3.3, -1.7,0,0,1024,1024,1684,1024,0,0,100,0,175.4,-90,0,88,4.023,4.027,4.026,4.022,0,0,7.486,76.46,164.85455317561,104.330712,6,P-GPS,
32900,2023-07-18 18:30:15,52.2071186227078,0.0870228700812647,105.643048,106.9225756,59.244313575608,166.16688917561,83.66142,0,81.29265352,132.99541108,21,5,16.339,166.16688917561,105.643048,22.145706,82.84121,0,0,-5.59235,180.8, 3.9, -1.5,0,0,1024,1024,1684,1024,0,0,100,0,175.4,-89.9,0,88,4.023,4.027,4.026,4.022,0,0,7.486,76.46,166.16688917561,105.643048,6,P-GPS,
33100,2023-07-18 18:30:16,52.2071185527502,0.0870228996696207,107.939636,109.2191636,59.244313575608,168.46347717561,83.66142,0,81.31890024,133.0216578,21,5,16.339,168.46347717561,107.939636,22.145706,82.84121,0,0,-7.82929,180.9, 3.9, -1.1,0,0,1024,1024,1684,1024,0,0,100,0,175.4,-90,0,88,4.023,4.027,4.026,4.022,0,0,7.486,76.46,168.46347717561,107.939636,6,P-GPS,
