time(millisecond),datetime(utc),latitude,longitude,height_above_takeoff(feet),height_above_ground_at_drone_location(feet),ground_elevation_at_drone_location(feet),altitude_above_seaLevel(feet),height_sonar(feet),speed(mph),distance(feet),mileage(feet),satellites,gpslevel,voltage(v),max_altitude(feet),max_ascent(feet),max_speed(mph),max_distance(feet), xSpeed(mph), ySpeed(mph), zSpeed(mph), compass_heading(degrees), pitch(degrees), roll(degrees),isPhoto,isVideo,rc_elevator,rc_aileron,rc_throttle,rc_rudder,rc_elevator(percent),rc_aileron(percent),rc_throttle(percent),rc_rudder(percent),gimbal_heading(degrees),gimbal_pitch(degrees),gimbal_roll(degrees),battery_percent,voltageCell1,voltageCell2,voltageCell3,voltageCell4,voltageCell5,voltageCell6,current(A),battery_temperature(f),altitude(feet),ascent(feet),flycStateRaw,flycState,message
100,2023-07-03 14:45:46,0,0,0,,,53.750575538916,0,0,0,0,12,0,0,53.750575538916,0,0,0,0,0,0,272.3, 4.9, -0.1,0,0,1024,1024,1024,1024,0,0,0,0,272.5,0,0,100,4.345,4.345,4.346,4.341,0,0,0,74.3,53.750575538916,0,41,Motors_Started,"No GPS. Fly with caution GPS signal weak. Hovering unstable. Fly with caution (Code: 30002)"
300,2023-07-03 14:45:46,0,0,0,,,53.750575538916,0,0,0,0,12,0,0,53.750575538916,0,0,0,0,0,0,272.4, 4.9, -0.1,0,0,1024,1024,1024,1024,0,0,0,0,272.5,0,0,100,4.345,4.345,4.346,4.341,0,0,0,74.3,53.750575538916,0,41,Motors_Started,"Setting new Return-To-Home altitude to 26m (85 ft). Data Recorder File Index is 49. Setting new Maximum Flight Altitude to 30m (98 ft)"
500,2023-07-03 14:45:46,0,0,0,,,53.750575538916,0,0,0,0,12,0,0,53.750575538916,0,0,0,0,0,0,272.4, 4.9, 0,0,0,1024,1024,1024,1024,0,0,0,0,272.5,0,0,100,4.345,4.345,4.346,4.341,0,0,0,74.3,53.750575538916,0,41,Motors_Started,
700,2023-07-03 14:45:46,0,0,0,,,53.750575538916,0,0,0,0,12,0,0,53.750575538916,0,0,0,0,0,0,272.2, 4.9, 0,0,0,1024,1024,1024,1024,0,0,0,0,272.5,0,0,100,4.345,4.345,4.346,4.341,0,0,0,74.3,53.750575538916,0,41,Motors_Started,
900,2023-07-03 14:45:46,0,0,0,,,53.750575538916,0,0,0,0,12,0,0,53.750575538916,0,0,0,0,0,0,271.9, 4.9, 0,0,0,1024,1024,1024,1024,0,0,0,0,272.5,0,0,100,4.345,4.345,4.346,4.341,0,0,0,74.3,53.750575538916,0,41,Motors_Started,
1100,2023-07-03 14:45:47,0,0,0,,,53.750575538916,0,0,0,0,12,2,17.371,53.750575538916,0,0,0,0,0,0,271.6, 5, 0,0,0,1024,1024,1024,1024,0,0,0,0,272.4,0,0,100,4.345,4.345,4.346,4.341,0,0,1.254,74.3,53.750575538916,0,41,Motors_Started,
1300,2023-07-03 14:45:47,0,0,0,,,53.750575538916,0,0,0,0,12,2,17.371,53.750575538916,0,0,0,0,0,0,271.5, 5, 0,0,0,1024,1024,1064,1024,0,0,6,0,272.4,0,0,100,4.345,4.345,4.346,4.341,0,0,1.254,74.3,53.750575538916,0,41,Motors_Started,
1500,2023-07-03 14:45:47,0,0,0,,,53.750575538916,0,0,0,0,12,2,17.371,53.750575538916,0,0,0,0,0,0,271.5, 5, 0,0,0,1024,1024,1127,1024,0,0,16,0,272.3,0,0,100,4.345,4.345,4.346,4.341,0,0,1.254,74.3,53.750575538916,0,41,Motors_Started,
1700,2023-07-03 14:45:47,0,0,0,,,53.750575538916,0,0,0,0,12,2,17.371,53.750575538916,0,0,0,0,0,0,271.6, 5, 0,0,0,1024,1024,1168,1024,0,0,22,0,272.3,0,0,100,4.345,4.345,4.346,4.341,0,0,1.254,74.3,53.750575538916,0,11,AutoTakeoff,
1900,2023-07-03 14:45:47,0,0,0,,,53.750575538916,0,0,0,0,12,2,17.371,53.750575538916,0,0,0,0,0,0,271.4, 4.6, -0.1,0,0,1024,1024,1364,1024,0,0,52,0,272.3,0,0,100,4.345,4.345,4.346,4.341,0,0,1.254,74.3,53.750575538916,0,11,AutoTakeoff,
2100,2023-07-03 14:45:48,0,0,0,,,53.750575538916,0,0,0,0,12,2,17.208,53.750575538916,0,0,0,0,0,-0.223694,270, -0.5, 0,0,0,1024,1024,1684,1024,0,0,100,0,272.1,0,0,100,4.291,4.292,4.288,4.281,0,0,3.705,74.3,53.750575538916,0,11,AutoTakeoff,
2300,2023-07-03 14:45:48,0,0,0,,,53.750575538916,0.328084,0,0,0,12,2,17.208,53.750575538916,0,0,0,0,0,-1.11847,270.4, -0.1, 0,0,0,1024,1024,1684,1024,0,0,100,0,271.9,0,0,100,4.291,4.292,4.288,4.281,0,0,3.705,74.3,53.750575538916,0,11,AutoTakeoff,
2500,2023-07-03 14:45:48,0,0,0.656168,,,54.406743538916,0.656168,0,0,0,12,2,17.208,54.406743538916,0.656168,0,0,0,0,-2.684328,271.5, 1.4, 0.7,0,0,1024,1024,1684,1024,0,0,100,0,271.8,0,0,100,4.291,4.292,4.288,4.281,0,0,3.705,74.3,54.406743538916,0.656168,11,AutoTakeoff,
2700,2023-07-03 14:45:48,0,0,1.64042,,,55.390995538916,1.968504,0.223694,0,0,12,2,17.208,55.390995538916,1.64042,0.223694,0,0.223694,0,-4.250186,270.7, -0.1, -1.5,0,0,1024,1024,1684,1024,0,0,100,0,271.8,0,0,100,4.291,4.292,4.288,4.281,0,0,3.705,74.3,55.390995538916,1.64042,11,AutoTakeoff,
2900,2023-07-03 14:45:48,0,0,3.28084,,,57.031415538916,3.608924,0,0,0,12,2,17.208,57.031415538916,3.28084,0.223694,0,0,0,-6.487126,270.7, 0.4, -3.5,0,0,1024,1024,1684,1024,0,0,100,0,271.7,0,0,100,4.291,4.292,4.288,4.281,0,0,3.705,74.3,57.031415538916,3.28084,11,AutoTakeoff,
3100,2023-07-03 14:45:49,0,0,5.577428,,,59.328003538916,5.905512,0.223694,0,0,12,2,17.208,59.328003538916,5.577428,0.223694,0,0,0.223694,-8.500372,270.5, -1.8, -3.4,0,0,1024,1024,1684,1024,0,0,100,0,271.7,0,0,100,4.291,4.292,4.288,4.281,0,0,3.705,74.3,59.328003538916,5.577428,6,P-GPS,
3300,2023-07-03 14:45:49,0,0,8.530184,,,62.280759538916,8.858268,0,0,0,12,2,16.9,62.280759538916,8.530184,0.223694,0,0,0,-10.737312,271.1, -2.7, -2.6,0,0,1024,1024,1684,1024,0,0,100,0,271.7,0,0,100,4.181,4.189,4.183,4.18,0,0,7.437,74.12,62.280759538916,8.530184,6,P-GPS,
3500,2023-07-03 14:45:49,0,0,11.811024,,,65.561599538916,12.467192,0,0,0,11,2,16.9,65.561599538916,11.811024,0.223694,0,0,0,-12.750558,271.8, -2.8, -2.8,0,0,1024,1024,1684,1024,0,0,100,0,271.7,0,0,100,4.181,4.189,4.183,4.18,0,0,7.437,74.12,65.561599538916,11.811024,6,P-GPS,
3700,2023-07-03 14:45:49,0,0,15.748032,,,69.498607538916,16.4042,0,0,0,11,2,16.9,69.498607538916,15.748032,0.223694,0,0,0,-13.42164,271.4, -3.4, -1.5,0,0,1024,1024,1684,1024,0,0,100,0,271.7,0,0,100,4.181,4.189,4.183,4.18,0,0,7.437,74.12,69.498607538916,15.748032,6,P-GPS,
3900,2023-07-03 14:45:50,52.2063722391728,0.0867338858226134,21.32546,21.32546,53.750575538916,75.076035538916,20.341208,0.223694,0,0,12,2,16.9,75.076035538916,21.32546,0.223694,0,0,0.223694,-13.197946,271.9, -4.6, -3,0,0,1024,1024,1684,1024,0,0,100,0,271.7,0,0,100,4.181,4.189,4.183,4.18,0,0,7.437,74.12,75.076035538916,21.32546,6,P-GPS,"No GPS. Fly with caution GPS signal weak. Hovering unstable. Fly with caution (Code: 30002)"
4100,2023-07-03 14:45:50,52.2063724824246,0.0867338915376641,25.590552,25.590552,53.750575538916,79.341127538916,24.6063,0.223694,0.088759517276,0.088759517276,12,2,16.9,79.341127538916,25.590552,0.223694,0.088759517276,0,0.223694,-13.197946,271.7, -7.5, -3.5,0,0,1024,1024,1684,1024,0,0,100,0,271.7,0,0,100,4.181,4.189,4.183,4.18,0,0,7.437,74.12,79.341127538916,25.590552,6,P-GPS,
4300,2023-07-03 14:45:50,52.2063729181172,0.0867336886175152,30.183728,30.183728,53.750575538916,83.934303538916,28.543308,0,0.25160597918,0.254069561936,12,2,16.666,83.934303538916,30.183728,0.223694,0.25160597918,0,0,-13.197946,271.2, -6.9, -5.3,0,0,1024,1024,1684,1024,0,0,100,0,271.7,0,0,100,4.186,4.196,4.195,4.197,0,0,13.16,74.12,83.934303538916,30.183728,6,P-GPS,
4500,2023-07-03 14:45:50,52.2063732998616,0.0867337331393966,35.433072,35.433072,53.750575538916,89.183647538916,32.8084,0.3131716,0.38849410692,0.39370408084,12,2,16.666,89.183647538916,35.433072,0.3131716,0.38849410692,0.223694,0.223694,-13.42164,272.6, -9.2, -6.7,0,0,1024,1024,1684,1024,0,0,100,0,271.7,0,0,100,4.186,4.196,4.195,4.197,0,0,13.16,74.12,89.183647538916,35.433072,6,P-GPS,
4700,2023-07-03 14:45:50,52.2063737775775,0.0867337717023504,40.354332,40.354332,53.750575538916,94.104907538916,36.745408,0.223694,0.56186681588,0.56821196044,12,2,16.666,94.104907538916,40.354332,0.3131716,0.56186681588,0.223694,0,-13.197946,271.9, -10.3, -8.8,0,0,1024,1024,1684,1024,0,0,100,0,271.7,0,0,100,4.186,4.196,4.195,4.197,0,0,13.16,74.12,94.104907538916,40.354332,6,P-GPS,
4900,2023-07-03 14:45:51,52.2063741041419,0.086733485128739,44.947508,44.947508,53.750575538916,98.698083538916,41.0105,0,0.68630579624,0.703494117,12,4,16.666,98.698083538916,44.947508,0.3131716,0.68630579624,0,0,-13.42164,272.9, -9.7, -8.7,0,0,1024,1024,1684,1024,0,0,100,0,271.7,0,0,100,4.186,4.196,4.195,4.197,0,0,13.16,74.12,98.698083538916,44.947508,6,P-GPS,
5100,2023-07-03 14:45:51,52.2063742911835,0.0867328495613097,49.2126,49.2126,53.750575538916,102.96317553892,41.994752,0.223694,0.78370737416,0.86113519816,12,4,16.666,102.96317553892,49.2126,0.3131716,0.78370737416,0,-0.223694,-13.645334,272.7, -7.8, -7.3,0,0,1024,1024,1684,1024,0,0,100,0,271.7,0,0,100,4.186,4.196,4.195,4.197,0,0,13.16,74.12,102.96317553892,49.2126,6,P-GPS,
5300,2023-07-03 14:45:51,52.2063744757299,0.0867319499712843,53.149608,53.149608,53.750575538916,106.90018353892,46.259844,0.447388,0.92369425528,1.07324150416,12,4,16.781,106.90018353892,53.149608,0.447388,0.92369425528,0,-0.447388,-13.197946,271.9, -4.1, -9.3,0,0,1024,1024,1684,1024,0,0,100,0,271.7,0,0,100,4.204,4.203,4.197,4.199,0,0,11.128,74.3,106.90018353892,53.149608,6,P-GPS,"Setting new Maximum Flight Altitude to 120m (394 ft)"
5500,2023-07-03 14:45:51,52.2063745580408,0.0867311291478745,57.086616,57.086616,53.750575538916,110.83719153892,50.196852,0.223694,1.04674544032,1.25920935788,11,4,16.781,110.83719153892,57.086616,0.447388,1.04674544032,0,-0.223694,-13.197946,271.8, -2.3, -6.1,0,0,1024,1024,1684,1024,0,0,100,0,271.7,0,0,100,4.204,4.203,4.197,4.199,0,0,11.128,74.3,110.83719153892,57.086616,6,P-GPS,
5700,2023-07-03 14:45:51,52.2063746492312,0.0867306504409399,60.367456,60.367456,53.750575538916,114.11803153892,54.13386,0,1.13862864536,1.3712926948,12,4,16.781,114.11803153892,60.367456,0.447388,1.13862864536,0,0,-13.197946,272.1, -3.2, -6.5,0,0,1024,1024,1684,1024,0,0,100,0,271.7,0,0,100,4.204,4.203,4.197,4.199,0,0,11.128,74.3,114.11803153892,60.367456,6,P-GPS,
5900,2023-07-03 14:45:52,52.2063747463345,0.0867304836656729,63.97638,63.97638,53.750575538916,117.72695553892,57.742784,0,1.18969491996,1.42272970432,12,4,16.781,117.72695553892,63.97638,0.447388,1.18969491996,0,0,-12.974252,272.1, -4.9, -5.7,0,0,1024,1024,1684,1024,0,0,100,0,271.7,0,0,100,4.204,4.203,4.197,4.199,0,0,11.128,74.3,117.72695553892,63.97638,6,P-GPS,
6100,2023-07-03 14:45:52,52.2063748874025,0.0867304491026592,67.25722,67.25722,53.750575538916,121.00779553892,61.679792,0,1.23450463268,1.47477366924,12,4,16.781,121.00779553892,67.25722,0.447388,1.23450463268,0,0,-12.974252,272.1, -6.1, -5.8,0,0,1024,1024,1684,1024,0,0,100,0,271.7,0,0,100,4.204,4.203,4.197,4.199,0,0,11.128,74.3,121.00779553892,67.25722,6,P-GPS,
6300,2023-07-03 14:45:52,52.206375047264,0.0867303911892865,70.866144,70.866144,53.750575538916,124.61671953892,64.960632,0.223694,1.28847773152,1.53451776564,12,4,16.756,124.61671953892,70.866144,0.447388,1.28847773152,-0.223694,0,-13.197946,271.7, -5.7, -5,0,0,1283,1024,940,1024,39,0,-13,0,271.7,0,0,100,4.169,4.171,4.176,4.179,0,0,10.631,74.3,124.61671953892,70.866144,6,P-GPS,"Home Point updated (Code: 3000001)"
6500,2023-07-03 14:45:52,52.2063752859351,0.0867303788536846,74.475068,74.475068,53.750575538916,128.22564353892,68.89764,0,1.3603346892,1.62164047184,12,4,16.756,128.22564353892,74.475068,0.447388,1.3603346892,0,0,-13.42164,270.3, -3.3, -1.9,0,0,1684,1024,1024,1024,100,0,0,0,271.7,0,0,100,4.169,4.171,4.176,4.179,0,0,10.631,74.3,128.22564353892,74.475068,6,P-GPS,
6700,2023-07-03 14:45:52,52.2063758895142,0.0867307045355052,77.755908,77.755908,53.750575538916,131.50648353892,72.834648,0.3131716,1.50986553388,1.85358273648,12,4,16.756,131.50648353892,77.755908,0.447388,1.50986553388,0.223694,0.223694,-11.632088,271, -17.5, -4.1,0,0,1684,1024,1024,1024,100,0,0,0,271.7,0,0,100,4.169,4.171,4.176,4.179,0,0,10.631,74.3,131.50648353892,77.755908,6,P-GPS,
6900,2023-07-03 14:45:52,52.2063769055078,0.0867315196809428,83.005252,83.005252,53.750575538916,136.75582753892,75.45932,0.7158208,1.78281173684,2.266650335,12,4,16.756,136.75582753892,83.005252,0.7158208,1.78281173684,0.671082,0.223694,-8.052984,271, -28, -6.1,0,0,1684,1024,1024,1024,100,0,0,0,271.7,0,0,100,4.169,4.171,4.176,4.179,0,0,10.631,74.3,136.75582753892,83.005252,6,P-GPS,
7100,2023-07-03 14:45:53,52.2063782066889,0.0867316160462525,85.629924,85.629924,53.750575538916,139.38049953892,77.09974,1.2079476,2.23560702692,2.74187344732,11,4,16.756,139.38049953892,85.629924,1.2079476,2.23560702692,1.11847,-0.447388,-6.039738,271.9, -29.3, -6.3,0,0,1684,1024,1024,1024,100,0,0,0,271.7,0,0,100,4.169,4.171,4.176,4.179,0,0,10.631,74.3,139.38049953892,85.629924,6,P-GPS,
7300,2023-07-03 14:45:53,52.2063800389406,0.0867309841618491,87.270344,87.270344,53.750575538916,141.02091953892,68.89764,1.9908766,2.91875665508,3.4251313432,11,4,16.754,141.02091953892,87.270344,1.9908766,2.91875665508,1.789552,-0.894776,-3.802798,276.4, -28.9, -9.8,0,0,1684,1024,1024,1024,100,0,0,0,271.7,0,0,100,4.201,4.22,4.227,4.238,0,0,11.072,74.66,141.02091953892,87.270344,6,P-GPS,
7500,2023-07-03 14:45:53,52.2063822979808,0.0867299413113661,87.926512,87.926512,53.750575538916,141.67708753892,68.89764,2.6172198,3.774442378,4.2816930504,12,4,16.754,141.67708753892,87.926512,2.6172198,3.774442378,2.23694,-1.342164,-1.565858,280.9, -27.4, -12.6,0,0,1684,1024,1024,1024,100,0,0,0,271.7,0,0,100,4.201,4.22,4.227,4.238,0,0,11.072,74.66,141.67708753892,87.926512,6,P-GPS,
7700,2023-07-03 14:45:53,52.2063849584673,0.0867283370769762,87.926512,87.926512,53.750575538916,141.67708753892,68.569556,3.35541,4.8036090776,5.3165356032,12,4,16.754,141.67708753892,87.926512,3.35541,4.8036090776,2.684328,-2.013246,-0.447388,289, -25.7, -14.2,0,0,1684,1024,1024,1024,100,0,0,0,271.7,0,0,100,4.201,4.22,4.227,4.238,0,0,11.072,74.66,141.67708753892,87.926512,6,P-GPS,
7900,2023-07-03 14:45:53,52.2063877511745,0.0867251773237107,87.926512,87.926512,53.750575538916,141.67708753892,68.89764,4.2725554,5.9851051784,6.5563978476,13,4,16.754,141.67708753892,87.926512,4.2725554,5.9851051784,2.908022,-3.131716,-0.223694,291.3, -25.2, -14.6,0,0,1684,1024,1024,1024,100,0,0,0,271.7,0,0,100,4.201,4.22,4.227,4.238,0,0,11.072,74.66,141.67708753892,87.926512,6,P-GPS,
8100,2023-07-03 14:45:54,52.2063903418461,0.0867202381543007,87.598428,87.598428,53.750575538916,141.34900353892,68.89764,5.5252418,7.275590784,8.010006818,13,4,16.754,141.67708753892,87.926512,5.5252418,7.275590784,2.908022,-4.697574,0,288.8, -26.4, -15.8,0,0,1684,1024,1024,1024,100,0,0,0,271.7,0,0,100,4.201,4.22,4.227,4.238,0,0,11.072,74.66,141.34900353892,87.598428,6,P-GPS,
8300,2023-07-03 14:45:54,52.2063929805652,0.0867133131491344,87.598428,87.5656196,53.783383938916,141.34900353892,68.89764,6.5318648,8.8557745616,9.8332352228,13,4,17.015,141.67708753892,87.926512,6.5318648,8.8557745616,2.460634,-6.039738,0,287.1, -24.4, -17.5,0,0,1684,1024,1024,1024,100,0,0,0,271.7,0,0,100,4.229,4.252,4.264,4.244,0,0,6.795,74.66,141.34900353892,87.598428,6,P-GPS,
8500,2023-07-03 14:45:54,52.2063953567856,0.0867048947336269,87.598428,87.5328112,53.816192338916,141.34900353892,69.553808,7.717443,10.6375003404,11.9055450004,13,4,17.015,141.67708753892,87.926512,7.717443,10.6375003404,2.23694,-7.381902,0.223694,285.1, -24.1, -18,0,0,1317,1024,1159,1024,44,0,20,0,271.7,0,0,100,4.229,4.252,4.264,4.244,0,0,6.795,74.66,141.34900353892,87.598428,6,P-GPS,
8700,2023-07-03 14:45:54,52.2063974820021,0.0866948242622484,87.598428,87.5000028,53.849000738916,141.34900353892,70.53806,8.6793272,12.692421666,14.2869427144,13,4,17.015,141.67708753892,87.926512,8.6793272,12.692421666,1.789552,-8.500372,0,283.3, -24.9, -16.8,0,0,1024,1024,1684,1024,0,0,100,0,271.7,0,0,100,4.229,4.252,4.264,4.244,0,0,6.795,74.66,141.34900353892,87.598428,6,P-GPS,
8900,2023-07-03 14:45:54,52.2063991609148,0.0866835463566255,87.598428,87.4671944,53.881809138916,141.34900353892,71.850396,9.6859502,14.9385175384,16.8818574956,13,4,17.015,141.67708753892,87.926512,9.6859502,14.9385175384,1.11847,-9.618842,-0.447388,281.8, -4.9, -14,0,0,1024,1024,1684,1024,0,0,100,0,271.7,0,0,100,4.229,4.252,4.264,4.244,0,0,6.795,74.66,141.34900353892,87.598428,6,P-GPS,
9100,2023-07-03 14:45:55,52.2064002775149,0.0866725103488489,87.926512,87.7952784,53.881809138916,141.67708753892,73.8189,6.934514,17.1161094716,19.3827762108,13,4,17.015,141.67708753892,87.926512,9.6859502,17.1161094716,0.223694,-6.934514,-4.921268,281.1, 23.7, -1.9,0,0,1024,1024,1684,1024,0,0,100,0,271.7,0,0,100,4.229,4.252,4.264,4.244,0,0,6.795,74.66,141.67708753892,87.926512,6,P-GPS,
9300,2023-07-03 14:45:55,52.2064009828756,0.0866668170070289,88.254596,88.1233624,53.881809138916,142.00517153892,76.443572,3.131716,18.2989179084,20.6814967248,13,4,16.802,142.00517153892,88.254596,9.6859502,18.2989179084,0.223694,-3.131716,-7.381902,279, 23.7, -4.3,0,0,1024,1024,1684,1024,0,0,100,0,271.7,0,0,100,4.105,4.121,4.18,4.206,0,0,8.851,74.66,142.00517153892,88.254596,6,P-GPS,
9500,2023-07-03 14:45:55,52.2064015791302,0.0866656109322914,88.58268,88.418638,53.914617538916,142.33325553892,78.412076,0.447388,18.6445872108,21.0279534288,13,4,16.802,142.33325553892,88.58268,9.6859502,18.6445872108,0,-0.447388,-9.171454,280.8, 1.7, -9,0,0,1024,1024,1684,1024,0,0,100,0,271.7,0,0,100,4.105,4.121,4.18,4.206,0,0,8.851,74.66,142.33325553892,88.58268,6,P-GPS,
9700,2023-07-03 14:45:55,52.2064018422757,0.0866661715104109,93.50394,93.339898,53.914617538916,147.25451553892,81.692916,0.223694,18.5977040072,21.1858274496,13,4,16.802,147.25451553892,93.50394,9.6859502,18.6445872108,0.223694,0,-10.513618,282.3, -8.7, -12.8,0,0,1024,1024,1684,1024,0,0,100,0,271.7,0,0,100,4.105,4.121,4.18,4.206,0,0,8.851,74.66,147.25451553892,93.50394,6,P-GPS,
9900,2023-07-03 14:45:55,52.2064022048144,0.0866667704972183,99.081368,98.917326,53.914617538916,152.83194353892,83.66142,0,18.566437602,21.3740820488,13,4,16.802,152.83194353892,99.081368,9.6859502,18.6445872108,0,0,-12.079476,283.1, -9.8, -14.5,0,0,1024,1024,1684,1024,0,0,100,0,271.7,0,0,100,4.105,4.121,4.18,4.206,0,0,8.851,74.66,152.83194353892,99.081368,6,P-GPS,
10100,2023-07-03 14:45:56,52.2064023350228,0.086667013454012,104.330712,104.16667,53.914617538916,158.08128753892,83.66142,0.223694,18.5506239532,21.4462277204,13,4,16.802,158.08128753892,104.330712,9.6859502,18.6445872108,0,-0.223694,-12.974252,283, -12.1, -12.3,0,0,1024,1024,1356,1024,0,0,50,0,271.7,0,0,100,4.105,4.121,4.18,4.206,0,0,8.851,74.66,158.08128753892,104.330712,6,P-GPS,
10300,2023-07-03 14:45:56,52.2064026095001,0.0866669344977721,109.251972,109.08793,53.914617538916,163.00254753892,83.66142,0.223694,18.6242788112,21.5479337604,13,4,16.672,163.00254753892,109.251972,9.6859502,18.6445872108,0,-0.223694,-13.197946,283.1, -11, -14.9,0,0,1024,1024,1024,1024,0,0,0,0,271.7,0,0,100,4.08,4.087,4.078,4.085,0,0,12.807,74.66,163.00254753892,109.251972,6,P-GPS,
10500,2023-07-03 14:45:56,52.2064030912281,0.0866670537918715,114.173232,114.00919,53.914617538916,167.92380753892,83.66142,0.447388,18.7080386564,21.7256896716,13,4,16.672,167.92380753892,114.173232,9.6859502,18.7080386564,0.447388,0,-11.408394,283.2, -11.7, -19.8,0,0,1024,1024,1024,1024,0,0,0,0,271.7,-0.3,0,100,4.08,4.087,4.078,4.085,0,0,12.807,74.66,167.92380753892,114.173232,6,P-GPS,
10700,2023-07-03 14:45:56,52.2064037474468,0.0866677800201264,118.438324,118.274282,53.914617538916,172.18889953892,83.66142,0.6263432,18.7246397068,22.0149941428,13,4,16.672,172.18889953892,118.438324,9.6859502,18.7246397068,0.447388,0.447388,-8.94776,284.8, -15, -25,0,0,1024,1024,1024,1024,0,0,0,0,271.7,-2.3,0,100,4.08,4.087,4.078,4.085,0,0,12.807,74.66,172.18889953892,118.438324,6,P-GPS,
10900,2023-07-03 14:45:57,52.2064045702341,0.0866690841471065,121.39108,121.1942296,53.947425938916,175.14165553892,83.66142,1.006623,18.683399548,22.4334980932,13,4,16.672,175.14165553892,121.39108,9.6859502,18.7246397068,0.447388,0.894776,-6.487126,284.7, -16.2, -25.8,0,0,1024,1024,1024,1024,0,0,0,0,271.7,-5.1,0,100,4.08,4.087,4.078,4.085,0,0,12.807,74.66,175.14165553892,121.39108,6,P-GPS,
11100,2023-07-03 14:45:57,52.206405438773,0.0866707133954165,122.703416,122.5065656,53.947425938916,176.45399153892,83.66142,1.2974252,18.6070544012,22.9163065076,13,4,16.672,176.45399153892,122.703416,9.6859502,18.7246397068,0.671082,1.11847,-4.250186,285.6, -16.6, -26,0,0,1024,1024,1024,1024,0,0,0,0,271.7,-8,0,100,4.08,4.087,4.078,4.085,0,0,12.807,74.66,176.45399153892,122.703416,6,P-GPS,
11300,2023-07-03 14:45:57,52.2064064505162,0.0866727546896136,122.703416,122.5065656,53.947425938916,176.45399153892,83.66142,1.6105968,18.5099087288,23.5033144004,13,4,16.741,176.45399153892,122.703416,9.6859502,18.7246397068,0.894776,1.342164,-2.013246,286, -16.3, -25.8,0,0,1024,1024,1024,1024,0,0,0,0,271.7,-10.9,0,99,4.223,4.229,4.23,4.224,0,0,14.73,75.02,176.45399153892,122.703416,6,P-GPS,
11500,2023-07-03 14:45:57,52.2064075473996,0.0866750978432455,122.047248,121.8175892,53.980234338916,175.79782353892,83.66142,1.8119214,18.404364106,24.16256639,13,4,16.741,176.45399153892,122.703416,9.6859502,18.7246397068,0.894776,1.565858,-0.447388,286.5, -15.5, -25.5,0,0,1024,1024,1024,1024,0,0,0,0,271.7,-13.8,0,99,4.223,4.229,4.23,4.224,0,0,14.73,75.02,175.79782353892,122.047248,6,P-GPS,
11700,2023-07-03 14:45:57,52.2064085748332,0.0866774788708492,121.719164,121.4895052,53.980234338916,175.46973953892,83.66142,1.7000744,18.297736806,24.813649088,13,4,16.741,176.45399153892,122.703416,9.6859502,18.7246397068,0.671082,1.565858,0,286.6, -15.2, -25,0,0,1024,1024,1024,1024,0,0,0,0,271.7,-16.7,0,99,4.223,4.229,4.23,4.224,0,0,14.73,75.02,175.46973953892,121.719164,6,P-GPS,
11900,2023-07-03 14:45:58,52.2064093184023,0.0866796504295615,121.39108,121.1614212,53.980234338916,175.14165553892,83.66142,1.4092722,18.1676515,25.3698498932,13,4,16.741,176.45399153892,122.703416,9.6859502,18.7246397068,0.447388,1.342164,0,287.3, -16.1, -25,0,0,1024,1024,1024,1024,0,0,0,0,271.7,-19.6,0,99,4.223,4.229,4.23,4.224,0,0,14.73,75.02,175.14165553892,121.39108,6,P-GPS,
12100,2023-07-03 14:45:58,52.2064097011803,0.0866813195963458,121.062996,120.8005288,54.013042738916,174.81357153892,83.66142,1.11847,18.0263457212,25.7683079112,13,4,16.741,176.45399153892,122.703416,9.6859502,18.7246397068,0,1.11847,0,288.8, -17.4, -24.8,0,0,1024,1024,1024,1024,0,0,0,0,271.7,-22.6,0,99,4.223,4.229,4.23,4.224,0,0,14.73,75.02,174.81357153892,121.062996,6,P-GPS,
12300,2023-07-03 14:45:58,52.2064098004108,0.0866825635520449,120.734912,120.4724448,54.013042738916,174.48548753892,83.66142,0.894776,17.87401632,26.0487869228,13,4,16.838,176.45399153892,122.703416,9.6859502,18.7246397068,0,0.894776,0.223694,288.6, -19, -26.2,0,0,1024,1024,1024,1024,0,0,0,0,271.7,-25.5,0,99,4.167,4.18,4.177,4.173,0,0,7.51,75.2,174.48548753892,120.734912,6,P-GPS,
12500,2023-07-03 14:45:58,52.2064097183227,0.0866833155794748,120.406828,120.1443608,54.013042738916,174.15740353892,83.66142,0.4921268,17.743438888,26.2195874532,13,5,16.838,176.45399153892,122.703416,9.6859502,18.7246397068,-0.223694,0.447388,0.223694,289.4, -19, -26.1,0,0,1024,1024,1024,1024,0,0,0,0,271.7,-28.4,0,99,4.167,4.18,4.177,4.173,0,0,7.51,75.2,174.15740353892,120.406828,6,P-GPS,
12700,2023-07-03 14:45:58,52.2064092933569,0.086683434286435,120.078744,119.8490852,53.980234338916,173.82931953892,83.66142,0.671082,17.6072184112,26.3769037312,13,5,16.838,176.45399153892,122.703416,9.6859502,18.7246397068,-0.671082,0,0,290.5, -20.3, -26.3,0,0,1024,1024,1024,1024,0,0,0,0,271.7,-31.3,0,99,4.167,4.18,4.177,4.173,0,0,7.51,75.2,173.82931953892,120.078744,6,P-GPS,
12900,2023-07-03 14:45:59,52.2064085924725,0.0866827369398358,120.078744,119.8490852,53.980234338916,173.82931953892,83.66142,1.2079476,17.5130583032,26.6764116148,13,5,16.838,176.45399153892,122.703416,9.6859502,18.7246397068,-1.11847,-0.447388,0,290.7, -21.7, -27.6,0,0,1024,1024,1024,1024,0,0,0,0,271.7,-34.2,0,99,4.167,4.18,4.177,4.173,0,0,7.51,75.2,173.82931953892,120.078744,6,P-GPS,
13100,2023-07-03 14:45:59,52.2064075199684,0.0866810747418344,119.75066,119.5210012,53.980234338916,173.50123553892,83.66142,1.901399,17.4676514776,27.216044178,13,5,16.838,176.45399153892,122.703416,9.6859502,18.7246397068,-1.342164,-1.342164,0.223694,291.1, -22.5, -27.1,0,0,1024,1024,1024,1024,0,0,0,0,271.7,-37.1,0,99,4.167,4.18,4.177,4.173,0,0,7.51,75.2,173.50123553892,119.75066,6,P-GPS,
13300,2023-07-03 14:45:59,52.2064061907697,0.0866784403147473,119.422576,119.2257256,53.947425938916,173.17315153892,83.66142,2.684328,17.5250005608,27.9790363284,13,5,16.573,176.45399153892,122.703416,9.6859502,18.7246397068,-1.789552,-2.013246,0,290.2, -18.7, -22,0,0,1024,1024,1024,1024,0,0,0,0,271.7,-40.1,0,99,4.097,4.121,4.114,4.104,0,0,12.166,75.2,173.17315153892,119.422576,6,P-GPS,
13500,2023-07-03 14:45:59,52.2064048744386,0.0866753283268265,119.422576,119.2257256,53.947425938916,173.17315153892,83.66142,2.4158952,17.6972774692,28.824475988,13,5,16.573,176.45399153892,122.703416,9.6859502,18.7246397068,-1.342164,-2.013246,-0.671082,290.5, -17.5, -19.6,0,0,1024,1024,1024,1024,0,0,0,0,271.7,-43,0,99,4.097,4.121,4.114,4.104,0,0,12.166,75.2,173.17315153892,119.422576,6,P-GPS,
13700,2023-07-03 14:45:59,52.2064039303674,0.0866725022197672,119.094492,118.93045,53.914617538916,172.84506753892,83.66142,1.9908766,17.9458995244,29.5441610504,13,5,16.573,176.45399153892,122.703416,9.6859502,18.7246397068,-0.894776,-1.789552,-0.223694,289.1, -15.4, -20.2,0,0,1024,1024,1024,1024,0,0,0,0,271.7,-45.9,0,99,4.097,4.121,4.114,4.104,0,0,12.166,75.2,172.84506753892,119.094492,6,P-GPS,
13900,2023-07-03 14:45:59,52.2064031293765,0.0866698705920758,118.766408,118.602366,53.914617538916,172.51698353892,83.66142,1.8119214,18.2175530764,30.201116452,15,5,16.573,176.45399153892,122.703416,9.6859502,18.7246397068,-0.894776,-1.565858,0,286.8, -13.3, -18.8,0,0,1024,1024,1024,1024,0,0,0,0,271.7,-48.8,0,99,4.097,4.121,4.114,4.104,0,0,12.166,75.2,172.51698353892,118.766408,6,P-GPS,
14100,2023-07-03 14:46:00,52.2064023221382,0.0866675473242887,118.11024,117.946198,53.914617538916,171.86081553892,83.66142,1.6105968,18.4517394356,30.7982621404,14,5,16.573,176.45399153892,122.703416,9.6859502,18.7246397068,-0.894776,-1.342164,0,284.6, -13.2, -16.3,0,0,1024,1024,1024,1024,0,0,0,0,271.7,-51.7,0,99,4.097,4.121,4.114,4.104,0,0,12.166,75.2,171.86081553892,118.11024,6,P-GPS,
14300,2023-07-03 14:46:00,52.2064015630566,0.0866656293432984,117.454072,117.29003,53.914617538916,171.20464753892,83.66142,1.2974252,18.6378614888,31.3087608444,15,5,16.717,176.45399153892,122.703416,9.6859502,18.7246397068,-0.671082,-1.11847,-0.223694,284.6, -13.1, -14.2,0,0,1024,1024,1024,1024,0,0,0,0,271.7,-54.7,0,99,4.19,4.197,4.204,4.196,0,0,13.988,75.38,171.20464753892,117.454072,6,P-GPS,
14500,2023-07-03 14:46:00,52.2064009401931,0.0866639383475183,116.797904,116.6666704,53.881809138916,170.54847953892,83.66142,1.006623,18.8213260616,31.7498697824,16,5,16.717,176.45399153892,122.703416,9.6859502,18.8213260616,-0.447388,-0.894776,0,284.5, -12.4, -13.8,0,0,1024,1024,1024,1024,0,0,0,0,271.7,-57.6,0,99,4.19,4.197,4.204,4.196,0,0,13.988,75.38,170.54847953892,116.797904,6,P-GPS,
14700,2023-07-03 14:46:00,52.2064005276408,0.0866624948518707,116.46982,116.3385864,53.881809138916,170.22039553892,83.66142,0.9171454,19.008202708,32.1060049644,16,5,16.717,176.45399153892,122.703416,9.6859502,19.008202708,-0.223694,-0.894776,0,283.6, -9.8, -13.5,0,0,1024,1024,1024,1024,0,0,0,0,271.7,-60.5,0,99,4.19,4.197,4.204,4.196,0,0,13.988,75.38,170.22039553892,116.46982,6,P-GPS,
14900,2023-07-03 14:46:00,52.2064002438512,0.0866614675889718,115.813652,115.6824184,53.881809138916,169.56422753892,83.66142,0.4921268,19.145997988,32.357940668,15,5,16.717,176.45399153892,122.703416,9.6859502,19.145997988,-0.223694,-0.447388,0,283.7, -10.2, -13.3,0,0,1024,1024,1024,1024,0,0,0,0,271.7,-63.4,0,99,4.19,4.197,4.204,4.196,0,0,13.988,75.38,169.56422753892,115.813652,6,P-GPS,
15100,2023-07-03 14:46:01,52.2064000723589,0.0866607526980949,115.485568,115.3543344,53.881809138916,169.23614353892,83.66142,0.223694,19.2482945792,32.5295942168,16,5,16.717,176.45399153892,122.703416,9.6859502,19.2482945792,0,-0.223694,0,283.7, -10.3, -13.2,0,0,1024,1024,1024,1024,0,0,0,0,271.7,-66.3,0,99,4.19,4.197,4.204,4.196,0,0,13.988,75.38,169.23614353892,115.485568,6,P-GPS,
15300,2023-07-03 14:46:01,52.2064000447841,0.08666032987401,115.157484,115.0262504,53.881809138916,168.90805953892,83.66142,0,19.3233930068,32.62467296,16,5,16.845,176.45399153892,122.703416,9.6859502,19.3233930068,0,0,0,284, -10.8, -13.7,0,0,1024,1024,1024,1024,0,0,0,0,271.7,-69.2,0,99,4.21,4.212,4.214,4.21,0,0,7.912,75.74,168.90805953892,115.157484,6,P-GPS,
15500,2023-07-03 14:46:01,52.2064001450576,0.0866601699694509,114.8294,114.6981664,53.881809138916,168.57997553892,83.66142,0,19.373032116,32.6758212556,16,5,16.845,176.45399153892,122.703416,9.6859502,19.373032116,0,0,0,284.1, -10.8, -14.7,0,0,1024,1024,1024,1024,0,0,0,0,271.7,-72.1,0,99,4.21,4.212,4.214,4.21,0,0,7.912,75.74,168.57997553892,114.8294,6,P-GPS,
15700,2023-07-03 14:46:01,52.2064003406873,0.0866601963697446,114.8294,114.6981664,53.881809138916,168.57997553892,83.66142,0,19.4056108572,32.7474419928,16,5,16.845,176.45399153892,122.703416,9.6859502,19.4056108572,0,0,0,284, -10.9, -15.6,0,0,1024,1024,1024,1024,0,0,0,0,271.7,-75,0,99,4.21,4.212,4.214,4.21,0,0,7.912,75.74,168.57997553892,114.8294,6,P-GPS,
15900,2023-07-03 14:46:01,52.2064005723215,0.0866603332151115,114.501316,114.3700824,53.881809138916,168.25189153892,83.66142,0,19.4245084956,32.837271392,16,5,16.845,176.45399153892,122.703416,9.6859502,19.4245084956,0,0,0,284.1, -11.2, -16.1,0,0,1024,1024,1024,1024,0,0,0,0,271.7,-78,0,99,4.21,4.212,4.214,4.21,0,0,7.912,75.74,168.25189153892,114.501316,6,P-GPS,
16100,2023-07-03 14:46:02,52.2064008013621,0.086660563800044,114.501316,114.3700824,53.881809138916,168.25189153892,83.66142,0,19.4255583644,32.935368508,16,5,16.845,176.45399153892,122.703416,9.6859502,19.4255583644,0,0,0,284.1, -11.5, -16.1,0,0,1024,1024,1024,1024,0,0,0,0,271.7,-80.9,0,99,4.21,4.212,4.214,4.21,0,0,7.912,75.74,168.25189153892,114.501316,6,P-GPS,
16300,2023-07-03 14:46:02,52.2064009780867,0.0866608015984006,114.501316,114.3700824,53.881809138916,168.25189153892,83.66142,0,19.4154533772,33.019029928,16,5,16.839,176.45399153892,122.703416,9.6859502,19.4255583644,0,0,0,284.1, -11.8, -15.7,0,0,1024,1024,1024,1024,0,0,0,0,271.7,-83.8,0,99,4.206,4.207,4.205,4.2,0,0,7.544,75.74,168.25189153892,114.501316,6,P-GPS,"Strong wind warning Strong wind warning. Aircraft unable to return to home automatically. Lower altitude immediately and return to home manually (Code: 30149)"
16500,2023-07-03 14:46:02,52.2064011507827,0.0866610332038369,114.173232,114.0419984,53.881809138916,167.92380753892,83.66142,0,19.4060701748,33.100722844,17,5,16.839,176.45399153892,122.703416,9.6859502,19.4255583644,0,0,0,284.1, -12, -15.1,0,0,1024,1024,1024,1024,0,0,0,0,271.7,-86.7,0,99,4.206,4.207,4.205,4.2,0,0,7.544,75.74,167.92380753892,114.173232,6,P-GPS,
16700,2023-07-03 14:46:02,52.2064014169587,0.0866612839192555,114.173232,114.0419984,53.881809138916,167.92380753892,83.66142,0,19.4121397288,33.212599488,23,5,16.839,176.45399153892,122.703416,9.6859502,19.4255583644,0,0,0,284.2, -11.6, -15.4,0,0,1024,1024,1024,1024,0,0,0,0,271.7,-89.6,0,99,4.206,4.207,4.205,4.2,0,0,7.544,75.74,167.92380753892,114.173232,6,P-GPS,
16900,2023-07-03 14:46:02,52.2064017937463,0.0866615568341268,114.173232,114.00919,53.914617538916,167.92380753892,83.66142,0,19.4370741128,33.363190044,23,5,16.839,176.45399153892,122.703416,9.6859502,19.4370741128,0,0,0,284.3, -11.2, -16.3,0,0,1024,1024,1024,1024,0,0,0,0,271.7,-89.9,0,99,4.206,4.207,4.205,4.2,0,0,7.544,75.74,167.92380753892,114.173232,6,P-GPS,"Strong wind warning. Aircraft unable to return to home automatically. Lower altitude immediately and return to home manually (Code: 30149)"
17100,2023-07-03 14:46:03,52.2064022059195,0.0866617961422699,113.845148,113.681106,53.914617538916,167.59572353892,83.66142,0,19.4765754264,33.522638868,23,5,16.839,176.45399153892,122.703416,9.6859502,19.4765754264,0,0,0,284.2, -10.9, -16.8,0,0,1024,1024,1024,1024,0,0,0,0,271.7,-90,0,99,4.206,4.207,4.205,4.2,0,0,7.544,75.74,167.59572353892,113.845148,6,P-GPS,
17300,2023-07-03 14:46:03,52.2064025917495,0.086661973164732,113.845148,113.681106,53.914617538916,167.59572353892,83.66142,0,19.5233602048,33.668964332,23,5,16.817,176.45399153892,122.703416,9.6859502,19.5233602048,0,0,0,284.1, -10.6, -16.7,0,0,1266,1024,1024,1024,37,0,0,0,271.7,-89.9,0,99,4.198,4.205,4.205,4.2,0,0,8.034,75.92,167.59572353892,113.845148,6,P-GPS,
17500,2023-07-03 14:46:03,52.2064029509,0.0866621192295819,113.517064,113.353022,53.914617538916,167.26763953892,83.66142,0,19.571194852,33.80413494,23,5,16.817,176.45399153892,122.703416,9.6859502,19.571194852,0,0,0,284.2, -10.8, -16.1,0,0,1684,1024,1024,1024,100,0,0,0,271.7,-90,0,99,4.198,4.205,4.205,4.2,0,0,8.034,75.92,167.26763953892,113.517064,6,P-GPS,
17700,2023-07-03 14:46:03,52.2064034332062,0.0866623628084636,113.517064,113.353022,53.914617538916,167.26763953892,83.66142,0.3131716,19.6280518092,33.988190064,23,5,16.817,176.45399153892,122.703416,9.6859502,19.6280518092,0.223694,0.223694,-0.447388,282.9, -16, -2.9,0,0,1684,1024,1024,1024,100,0,0,0,271.7,-89.9,0,99,4.198,4.205,4.205,4.2,0,0,8.034,75.92,167.26763953892,113.517064,6,P-GPS,
17900,2023-07-03 14:46:03,52.2064046772155,0.0866624845559659,113.517064,113.3202136,53.947425938916,167.26763953892,83.66142,1.3645334,19.8728024732,34.442914488,23,5,16.817,176.45399153892,122.703416,9.6859502,19.8728024732,1.342164,-0.223694,0.223694,285.3, -30.8, -9.3,0,0,1684,1024,1024,1024,100,0,0,0,271.7,-90,0,99,4.198,4.205,4.205,4.2,0,0,8.034,75.92,167.26763953892,113.517064,6,P-GPS,
18100,2023-07-03 14:46:04,52.2064066307126,0.0866609524302615,113.18898,112.9593212,53.980234338916,166.93955553892,83.66142,3.019869,20.5757552516,35.233596928,23,5,16.817,176.45399153892,122.703416,9.6859502,20.5757552516,2.23694,-2.013246,0,286.5, -30.7, -14.1,0,0,1684,1024,1024,1024,100,0,0,0,271.7,-90,0,99,4.198,4.205,4.205,4.2,0,0,8.034,75.92,166.93955553892,113.18898,6,P-GPS,
18300,2023-07-03 14:46:04,52.2064091436588,0.0866570856574536,113.18898,112.9593212,53.980234338916,166.93955553892,83.66142,4.3396636,21.8209652652,36.493767572,23,5,16.714,176.45399153892,122.703416,9.6859502,21.8209652652,2.460634,-3.579104,0.223694,286.1, -30.6, -15.7,0,0,1684,1024,1024,1024,100,0,0,0,271.7,-89.9,0,99,4.154,4.154,4.16,4.157,0,0,8.686,75.92,166.93955553892,113.18898,6,P-GPS,
18500,2023-07-03 14:46:04,52.2064117147636,0.0866514208268324,113.18898,112.9265128,54.013042738916,166.93955553892,83.66142,5.7936746,23.3965558668,38.070211192,23,5,16.714,176.45399153892,122.703416,9.6859502,23.3965558668,2.684328,-5.144962,0.223694,286.2, -30.1, -15.8,0,0,1684,1024,1024,1024,100,0,0,0,271.7,-90,0,99,4.154,4.154,4.16,4.157,0,0,8.686,75.92,166.93955553892,113.18898,6,P-GPS,
18700,2023-07-03 14:46:04,52.2064144690759,0.0866437664052105,112.860896,112.5656204,54.045851138916,166.61147153892,83.66142,6.822667,25.3652239088,40.054791308,23,5,16.714,176.45399153892,122.703416,9.6859502,25.3652239088,2.684328,-6.263432,0,286.8, -26.8, -20.7,0,0,1684,1024,1024,1024,100,0,0,0,271.7,-89.9,0,99,4.154,4.154,4.16,4.157,0,0,8.686,75.92,166.61147153892,112.860896,6,P-GPS,
18900,2023-07-03 14:46:05,52.2064170705247,0.086634738364493,113.18898,112.860896,54.078659538916,166.93955553892,83.66142,7.5608572,27.5492790968,42.28510634,23,5,16.714,176.45399153892,122.703416,9.6859502,27.5492790968,2.460634,-7.158208,-0.223694,286.7, -25.3, -19.6,0,0,1493,1024,1024,1024,71,0,0,0,271.7,-89.9,0,99,4.154,4.154,4.16,4.157,0,0,8.686,75.92,166.93955553892,113.18898,6,P-GPS,
19100,2023-07-03 14:46:05,52.206419706511,0.0866246264998023,113.18898,112.8280876,54.111467938916,166.93955553892,83.66142,7.9858758,29.9449484648,44.742127416,23,5,16.714,176.45399153892,122.703416,9.6859502,29.9449484648,2.460634,-7.605596,0,286, -22.8, -20.1,0,0,1024,1024,1024,1024,0,0,0,0,271.7,-90,0,99,4.154,4.154,4.16,4.157,0,0,8.686,75.92,166.93955553892,113.18898,6,P-GPS,
19300,2023-07-03 14:46:05,52.2064220906001,0.0866140943483069,113.517064,113.1233632,54.144276338916,167.26763953892,83.66142,8.3661556,32.375657204,47.252626184,23,5,16.378,176.45399153892,122.703416,9.6859502,32.375657204,2.23694,-8.052984,-0.223694,285.9, -18.4, -18.7,0,0,1024,1024,1024,1024,0,0,0,0,271.7,-90,0,99,4.111,4.112,4.106,4.091,0,0,13.637,75.74,167.26763953892,113.517064,6,P-GPS,
19500,2023-07-03 14:46:05,52.2064241966374,0.0866041114165838,113.517064,113.0905548,54.177084738916,167.26763953892,83.66142,7.158208,34.659449928,49.613190564,23,5,16.378,176.45399153892,122.703416,9.6859502,34.659449928,1.789552,-6.934514,-1.789552,283.2, 19, -11.1,0,0,1024,1024,1024,1024,0,0,0,0,271.7,-90,0,99,4.111,4.112,4.106,4.091,0,0,13.637,75.74,167.26763953892,113.517064,6,P-GPS,
19700,2023-07-03 14:46:05,52.2064257369375,0.0865970197678636,113.845148,113.4186388,54.177084738916,167.59572353892,83.66142,3.690951,36.296261004,51.295277232,23,5,16.378,176.45399153892,122.703416,9.6859502,36.296261004,0.894776,-3.579104,-2.684328,280.7, 22.9, -14.6,0,0,1024,1024,1024,1024,0,0,0,0,271.7,-89.9,0,99,4.111,4.112,4.106,4.091,0,0,13.637,75.74,167.59572353892,113.845148,6,P-GPS,
19900,2023-07-03 14:46:06,52.2064264533495,0.0865942274457711,114.8294,114.4028908,54.177084738916,168.57997553892,83.66142,1.1408394,36.96358386,51.972114524,23,5,16.378,176.45399153892,122.703416,9.6859502,36.96358386,0.223694,-1.11847,-2.23694,281.6, 6.9, -16.1,0,0,1024,1024,1024,1024,0,0,0,0,271.7,-89.9,0,99,4.111,4.112,4.106,4.091,0,0,13.637,75.74,168.57997553892,114.8294,6,P-GPS,
20100,2023-07-03 14:46:06,52.206427078177,0.0865936131024783,115.485568,115.0262504,54.209893138916,169.23614353892,83.66142,0.447388,37.201772844,52.238518732,23,5,16.378,176.45399153892,122.703416,9.6859502,37.201772844,0.447388,0,-1.11847,284.5, -6.5, -20.5,0,0,1024,1024,1024,1024,0,0,0,0,271.7,-89.9,0,99,4.111,4.112,4.106,4.091,0,0,13.637,75.74,169.23614353892,115.485568,6,P-GPS,
20300,2023-07-03 14:46:06,52.206427876887,0.0865942858800988,115.813652,115.3543344,54.209893138916,169.56422753892,83.66142,0.9395148,37.232940824,52.566274648,23,5,16.838,176.45399153892,122.703416,9.6859502,37.232940824,0.671082,0.671082,0.894776,285.3, -11.4, -26.2,0,0,1024,1024,1024,1024,0,0,0,0,271.7,-89.9,0,99,4.218,4.222,4.234,4.218,0,0,12.49,76.1,169.56422753892,115.813652,6,P-GPS,
20500,2023-07-03 14:46:06,52.2064285166465,0.0865954098042797,115.813652,115.3543344,54.209893138916,169.56422753892,83.66142,0.7158208,37.150919824,52.909450512,23,5,16.838,176.45399153892,122.703416,9.6859502,37.232940824,0.223694,0.671082,1.11847,285.6, -14.5, -25.7,0,0,1024,1024,1024,1024,0,0,0,0,271.7,-89.9,0,99,4.218,4.222,4.234,4.218,0,0,12.49,76.1,169.56422753892,115.813652,6,P-GPS,
20700,2023-07-03 14:46:06,52.2064287386622,0.0865962377823561,115.813652,115.3543344,54.209893138916,169.56422753892,83.66142,0.223694,37.041995936,53.111222172,23,5,16.838,176.45399153892,122.703416,9.6859502,37.232940824,0,0.223694,0.894776,285.7, -16, -24.1,0,0,1024,1024,1684,1024,0,0,100,0,271.7,-89.9,0,99,4.218,4.222,4.234,4.218,0,0,12.49,76.1,169.56422753892,115.813652,6,P-GPS,
20900,2023-07-03 14:46:07,52.2064286245039,0.086596409254955,116.141736,115.6824184,54.209893138916,169.89231153892,83.66142,0.223694,36.986877824,53.167980704,23,5,16.838,176.45399153892,122.703416,9.6859502,37.232940824,-0.223694,0,0.223694,285.6, -14.6, -20.9,0,0,1024,1024,1684,1024,0,0,100,0,271.7,-90,0,99,4.218,4.222,4.234,4.218,0,0,12.49,76.1,169.89231153892,116.141736,6,P-GPS,
21100,2023-07-03 14:46:07,52.2064282088932,0.0865958576376977,116.797904,116.3385864,54.209893138916,170.54847953892,83.66142,0.8052984,37.005578612,53.363518768,23,5,16.838,176.45399153892,122.703416,9.6859502,37.232940824,-0.671082,-0.447388,-1.789552,284.8, -11, -16.9,0,0,1024,1024,1684,1024,0,0,100,0,271.7,-89.9,0,99,4.218,4.222,4.234,4.218,0,0,12.49,76.1,170.54847953892,116.797904,6,P-GPS,
21300,2023-07-03 14:46:07,52.2064276179693,0.0865949220733567,117.782156,117.3228384,54.209893138916,171.53273153892,83.66142,0.9395148,37.062337144,53.663715628,23,5,16.561,176.45399153892,122.703416,9.6859502,37.232940824,-0.671082,-0.671082,-4.250186,284.2, -9.1, -13.8,0,0,1024,1024,1684,1024,0,0,100,0,271.7,-89.9,0,99,4.085,4.09,4.095,4.078,0,0,11.156,75.92,171.53273153892,117.782156,6,P-GPS,
21500,2023-07-03 14:46:07,52.2064271437824,0.08659403517167,120.406828,119.9475104,54.209893138916,174.15740353892,83.66142,0.6263432,37.135171792,53.926838996,23,5,16.561,176.45399153892,122.703416,9.6859502,37.232940824,-0.447388,-0.447388,-7.158208,284.4, -9, -13.6,0,0,1024,1024,1684,1024,0,0,100,0,271.7,-89.9,0,99,4.085,4.09,4.095,4.078,0,0,11.156,75.92,174.15740353892,120.406828,6,P-GPS,
21700,2023-07-03 14:46:07,52.2064269193294,0.0865933246074496,126.640424,126.1811064,54.209893138916,180.39099953892,83.66142,0.4921268,37.225066808,54.105644776,23,5,16.561,180.39099953892,126.640424,9.6859502,37.232940824,-0.223694,-0.447388,-9.171454,283.5, -8.4, -15.2,0,0,1024,1024,1486,1024,0,0,70,0,271.7,-89.9,0,99,4.085,4.09,4.095,4.078,0,0,11.156,75.92,180.39099953892,126.640424,6,P-GPS,
21900,2023-07-03 14:46:07,52.2064268233457,0.0865927816295259,132.217852,131.7585344,54.209893138916,185.96842753892,83.66142,0.3131716,37.308728228,54.231957116,23,5,16.561,185.96842753892,132.217852,9.6859502,37.308728228,-0.223694,-0.223694,-11.1847,282.9, -8, -14.3,0,0,1024,1024,1024,1024,0,0,0,0,271.7,-89.9,0,99,4.085,4.09,4.095,4.078,0,0,11.156,75.92,185.96842753892,132.217852,6,P-GPS,
22100,2023-07-03 14:46:08,52.2064270134069,0.0865925943321283,138.123364,137.6640464,54.209893138916,191.87393953892,83.66142,0,37.381234792,54.312993864,23,5,16.561,191.87393953892,138.123364,9.6859502,37.381234792,0,0,-10.513618,283.8, -12.4, -18.1,0,0,1024,1024,1024,1024,0,0,0,0,271.7,-90,0,99,4.085,4.09,4.095,4.078,0,0,11.156,75.92,191.87393953892,138.123364,6,P-GPS,"Strong wind warning. Aircraft unable to return to home automatically. Lower altitude immediately and return to home manually (Code: 30149)"
22300,2023-07-03 14:46:08,52.2064278526298,0.0865931420491039,142.71654,142.2572224,54.209893138916,196.46711553892,83.66142,0.8052984,37.442914584,54.642718284,23,5,16.24,196.46711553892,142.71654,9.6859502,37.442914584,0.671082,0.447388,-7.82929,284.6, -12.9, -24.5,0,0,1024,1024,1024,1024,0,0,0,0,271.7,-90,0,99,4.135,4.123,4.144,4.134,0,0,18.029,76.1,196.46711553892,142.71654,6,P-GPS,
22500,2023-07-03 14:46:08,52.2064291388697,0.0865943816816413,141.404204,140.9448864,54.209893138916,195.15477953892,83.66142,1.2750558,37.468177052,55.187993892,23,5,16.24,196.46711553892,142.71654,9.6859502,37.468177052,0.894776,0.894776,-5.368656,286, -15.9, -29.8,0,0,1024,1024,1024,1024,0,0,0,0,271.7,-89.9,0,99,4.135,4.123,4.144,4.134,0,0,18.029,76.1,195.15477953892,141.404204,6,P-GPS,
22700,2023-07-03 14:46:08,52.206430619377,0.0865960476191601,142.388456,141.89633,54.242701538916,196.13903153892,83.66142,1.5882274,37.463255792,55.844161892,23,5,16.24,196.46711553892,142.71654,9.6859502,37.468177052,1.11847,1.11847,-2.908022,286.8, -17.5, -30.5,0,0,1024,1024,1024,1024,0,0,0,0,271.7,-89.9,0,99,4.135,4.123,4.144,4.134,0,0,18.029,76.1,196.13903153892,142.388456,6,P-GPS,
22900,2023-07-03 14:46:08,52.2064320600568,0.0865977167719649,142.388456,141.8635216,54.275509938916,196.13903153892,83.66142,1.5882274,37.46063112,56.488518868,23,5,16.24,196.46711553892,142.71654,9.6859502,37.468177052,1.11847,1.11847,-1.11847,287.7, -18.1, -30.3,0,0,1024,1024,1024,1024,0,0,0,0,271.7,-90,0,99,4.135,4.123,4.144,4.134,0,0,18.029,76.1,196.13903153892,142.388456,6,P-GPS,
23100,2023-07-03 14:46:09,52.2064334426487,0.0865991579190557,142.060372,141.5354376,54.275509938916,195.81094753892,83.66142,1.11847,37.497376528,57.087272168,23,5,16.24,196.46711553892,142.71654,9.6859502,37.497376528,0.894776,0.671082,-0.223694,286.7, -15.1, -31.4,0,0,1024,1024,1684,1024,0,0,100,0,271.7,-90,0,99,4.135,4.123,4.144,4.134,0,0,18.029,76.1,195.81094753892,142.060372,6,P-GPS,
23300,2023-07-03 14:46:09,52.2064341727892,0.0865998423835418,141.404204,140.8792696,54.275509938916,195.15477953892,83.66142,0.3131716,37.534121936,57.394358792,23,5,16.6,196.46711553892,142.71654,9.6859502,37.534121936,0.223694,0.223694,0,285.9, -14, -31.6,0,0,1024,1024,1684,1024,0,0,100,0,271.7,-90,0,99,4.149,4.158,4.154,4.148,0,0,12.685,76.64,195.15477953892,141.404204,6,P-GPS,
23500,2023-07-03 14:46:09,52.2064337039352,0.0865994726955524,141.07612,140.5511856,54.275509938916,194.82669553892,83.66142,1.4092722,37.497704612,57.584319428,23,5,16.6,196.46711553892,142.71654,9.6859502,37.534121936,-1.342164,-0.447388,-1.565858,284.9, -11.4, -26.3,0,0,1024,1024,1684,1024,0,0,100,0,271.7,-89.9,0,99,4.149,4.158,4.154,4.148,0,0,12.685,76.64,194.82669553892,141.07612,6,P-GPS,
23700,2023-07-03 14:46:09,52.2064321704243,0.0865981935709156,141.732288,141.2073536,54.275509938916,195.48286353892,83.66142,2.3040482,37.397310908,58.212928372,23,5,16.6,196.46711553892,142.71654,9.6859502,37.534121936,-2.013246,-1.11847,-4.026492,284.7, -12.6, -17.7,0,0,1024,1024,1684,1024,0,0,100,0,271.7,-90,0,99,4.149,4.158,4.154,4.148,0,0,12.685,76.64,195.48286353892,141.732288,6,P-GPS,
23900,2023-07-03 14:46:09,52.2064303711766,0.0865962430246702,142.71654,142.224414,54.242701538916,196.46711553892,83.66142,2.23694,37.375657364,59.00098614,23,5,16.6,196.46711553892,142.71654,9.6859502,37.534121936,-1.789552,-1.342164,-6.71082,284.5, -9.7, -12.6,0,0,1024,1024,1684,1024,0,0,100,0,271.7,-90,0,99,4.149,4.158,4.154,4.148,0,0,12.685,76.64,196.46711553892,142.71654,6,P-GPS,
24100,2023-07-03 14:46:10,52.206428953349,0.0865944457217502,139.107616,138.6482984,54.209893138916,192.85819153892,83.66142,1.4316416,37.418636368,59.655841804,23,5,16.6,196.46711553892,142.71654,9.6859502,37.534121936,-1.11847,-0.894776,-9.171454,284, -7.7, -11.2,0,0,1024,1024,1684,1024,0,0,100,0,271.7,-89.9,0,99,4.149,4.158,4.154,4.148,0,0,12.685,76.64,192.85819153892,139.107616,6,P-GPS,
24300,2023-07-03 14:46:10,52.2064279184365,0.0865931787732615,137.79528,137.3359624,54.209893138916,191.54585553892,83.66142,1.11847,37.448820096,60.12795468,23,5,16.056,196.46711553892,142.71654,9.6859502,37.534121936,-0.894776,-0.671082,-11.408394,283.5, -8.2, -11.1,0,0,1024,1024,1024,1024,0,0,0,0,271.7,-89.9,0,99,4.014,4.017,4.021,4.004,0,0,17.017,76.46,191.54585553892,137.79528,6,P-GPS,
24500,2023-07-03 14:46:10,52.2064272946499,0.0865924531391356,139.107616,138.6482984,54.209893138916,192.85819153892,83.66142,0.4921268,37.462927708,60.407482248,23,5,16.056,196.46711553892,142.71654,9.6859502,37.534121936,-0.447388,-0.223694,-11.855782,283.4, -11.8, -12.4,0,0,1024,1024,1024,1024,0,0,0,0,271.7,-89.9,0,99,4.014,4.017,4.021,4.004,0,0,17.017,76.46,192.85819153892,139.107616,6,P-GPS,
24700,2023-07-03 14:46:10,52.2064272717334,0.0865923968296925,142.71654,142.2572224,54.209893138916,196.46711553892,83.66142,0,37.469161304,60.422574112,23,5,16.056,196.46711553892,142.71654,9.6859502,37.534121936,0,0,-10.06623,284.4, -14.9, -16.4,0,0,1024,1024,1024,1024,0,0,0,0,271.7,-90,0,99,4.014,4.017,4.021,4.004,0,0,17.017,76.46,196.46711553892,142.71654,6,P-GPS,
24900,2023-07-03 14:46:10,52.2064277387927,0.0865929221375229,145.99738,145.5380624,54.209893138916,199.74795553892,83.66142,0.3131716,37.461615372,60.629595116,23,5,16.056,199.74795553892,145.99738,9.6859502,37.534121936,0.223694,0.223694,-7.82929,284.8, -16.8, -18.7,0,0,1024,1024,1024,1024,0,0,0,0,271.7,-89.9,0,99,4.014,4.017,4.021,4.004,0,0,17.017,76.46,199.74795553892,145.99738,6,P-GPS,
25100,2023-07-03 14:46:11,52.2064285222193,0.0865938706888233,150.262472,149.8031544,54.209893138916,204.01304753892,83.66142,0.6263432,37.439633744,60.985566256,23,5,16.056,204.01304753892,150.262472,9.6859502,37.534121936,0.447388,0.447388,-5.368656,286.1, -19.1, -22.4,0,0,1024,1024,1024,1024,0,0,0,0,271.7,-90,0,99,4.014,4.017,4.021,4.004,0,0,17.017,76.46,204.01304753892,150.262472,6,P-GPS,
25300,2023-07-03 14:46:11,52.2064295857967,0.0865950650976645,151.574808,151.082682,54.242701538916,205.32538353892,83.66142,1.11847,37.432087812,61.45669488,23,5,16.439,205.32538353892,151.574808,9.6859502,37.534121936,0.894776,0.671082,-2.908022,287.6, -20.6, -27.5,0,0,1024,1024,1024,1024,0,0,0,0,271.7,-90,0,99,4.163,4.166,4.171,4.165,0,0,18.051,76.82,205.32538353892,151.574808,6,P-GPS,
25500,2023-07-03 14:46:11,52.2064308440014,0.0865963086864016,152.55906,152.066934,54.242701538916,206.30963553892,83.66142,1.2974252,37.461943456,61.99311222,23,5,16.439,206.30963553892,152.55906,9.6859502,37.534121936,1.11847,0.671082,-0.894776,287.3, -18.2, -29.8,0,0,1024,1024,481,1024,0,0,-82,0,271.7,-90,0,99,4.163,4.166,4.171,4.165,0,0,18.051,76.82,206.30963553892,152.55906,6,P-GPS,
25700,2023-07-03 14:46:11,52.206431936582,0.0865972378760886,152.55906,152.0341256,54.275509938916,206.30963553892,83.66142,0.9171454,37.52132666,62.442915384,23,5,16.439,206.30963553892,152.55906,9.6859502,37.534121936,0.894776,0.223694,-0.223694,287.4, -15.7, -30.4,0,0,1024,1024,364,1024,0,0,-100,0,271.7,-89.9,0,99,4.163,4.166,4.171,4.165,0,0,18.051,76.82,206.30963553892,152.55906,6,P-GPS,
25900,2023-07-03 14:46:12,52.2064327395412,0.0865979455046131,152.230976,151.7060416,54.275509938916,205.98155153892,83.66142,1.2079476,37.56397758,62.77559256,23,5,16.439,206.30963553892,152.55906,9.6859502,37.56397758,1.11847,0.447388,1.565858,287.6, -16.8, -32,0,0,1024,1024,364,1024,0,0,-100,0,271.7,-90,0,99,4.163,4.166,4.171,4.165,0,0,18.051,76.82,205.98155153892,152.230976,6,P-GPS,
26100,2023-07-03 14:46:12,52.2064336921985,0.0865989453187554,151.246724,150.7217896,54.275509938916,204.99729953892,83.66142,1.6105968,37.589568132,63.1889784,23,5,16.439,206.30963553892,152.55906,9.6859502,37.589568132,1.342164,0.894776,3.802798,287.6, -15.5, -33,0,0,1024,1024,364,1024,0,0,-100,0,271.7,-90,0,99,4.163,4.166,4.171,4.165,0,0,18.051,76.82,204.99729953892,151.246724,6,P-GPS,
26300,2023-07-03 14:46:12,52.2064348662119,0.0866003242570525,149.606304,149.0485612,54.308318338916,203.35687953892,83.66142,2.1027236,37.601379156,63.716865556,23,5,16.57,206.30963553892,152.55906,9.6859502,37.601379156,1.789552,1.11847,6.263432,287.7, -15, -32.4,0,0,1024,1024,364,1024,0,0,-100,0,271.7,-89.9,0,98,4.209,4.218,4.218,4.214,0,0,9.218,77.36,203.35687953892,149.606304,6,P-GPS,
26500,2023-07-03 14:46:12,52.2064362537297,0.0866021051899731,144.685044,144.1273012,54.308318338916,198.43561953892,83.66142,2.7290668,37.5984264,64.360894448,23,5,16.57,206.30963553892,152.55906,9.6859502,37.601379156,2.23694,1.565858,8.724066,287.4, -14.5, -31.9,0,0,1024,1024,364,1024,0,0,-100,0,271.7,-89.9,0,98,4.209,4.218,4.218,4.214,0,0,9.218,77.36,198.43561953892,144.685044,6,P-GPS,
26700,2023-07-03 14:46:12,52.2064378446217,0.0866041940074948,139.107616,138.5170648,54.341126738916,192.85819153892,83.66142,3.0422384,37.600394904,65.105645128,23,5,16.57,206.30963553892,152.55906,9.6859502,37.601379156,2.460634,1.789552,10.961006,287.5, -15.1, -31.8,0,0,1024,1024,1024,1024,0,0,0,0,271.7,-89.9,0,98,4.209,4.218,4.218,4.214,0,0,9.218,77.36,192.85819153892,139.107616,6,P-GPS,
26900,2023-07-03 14:46:13,52.2064395200263,0.0866064640133708,133.858272,133.2677208,54.341126738916,187.60884753892,83.66142,3.0422384,37.606300416,65.900264576,23,5,16.57,206.30963553892,152.55906,9.6859502,37.606300416,2.460634,1.789552,12.750558,287.5, -14.1, -31.6,0,0,1024,1024,1024,1024,0,0,0,0,271.7,-90,0,98,4.209,4.218,4.218,4.214,0,0,9.218,77.36,187.60884753892,133.858272,6,P-GPS,
27100,2023-07-03 14:46:13,52.2064404579742,0.0866079935528669,128.280844,127.6902928,54.341126738916,182.03141953892,83.66142,1.2750558,37.5738201,66.384188476,23,5,16.57,206.30963553892,152.55906,9.6859502,37.606300416,0.894776,0.894776,10.961006,286.3, -11.9, -30.5,0,0,1024,1024,1024,1024,0,0,0,0,271.7,-90,0,98,4.209,4.218,4.218,4.214,0,0,9.218,77.36,182.03141953892,128.280844,6,P-GPS,
27300,2023-07-03 14:46:13,52.2064400548284,0.0866083058969298,124.67192,124.0813688,54.341126738916,178.42249553892,83.66142,0.223694,37.424213796,66.54691814,23,5,16.952,206.30963553892,152.55906,9.6859502,37.606300416,-0.223694,0,8.94776,287.4, -14.6, -31.4,0,0,1024,1024,1024,1024,0,0,0,0,271.7,-90,0,98,4.144,4.157,4.153,4.15,0,0,4.489,77.54,178.42249553892,124.67192,6,P-GPS,
27500,2023-07-03 14:46:13,52.2064384228195,0.0866072362132253,123.0315,122.4409488,54.341126738916,176.78207553892,83.66142,1.9908766,37.214896204,67.188650444,23,5,16.952,206.30963553892,152.55906,9.6859502,37.606300416,-1.789552,-0.894776,6.71082,287.6, -16.4, -30.7,0,0,1024,1024,1024,1024,0,0,0,0,271.7,-90,0,98,4.144,4.157,4.153,4.15,0,0,4.489,77.54,176.78207553892,123.0315,6,P-GPS,
27700,2023-07-03 14:46:13,52.2064356487133,0.0866045497439389,122.047248,121.4895052,54.308318338916,175.79782353892,83.66142,3.6685816,37.033137668,68.365487752,23,5,16.952,206.30963553892,152.55906,9.6859502,37.606300416,-2.908022,-2.23694,4.026492,285.2, -14.5, -19.7,0,0,1024,1024,1024,1024,0,0,0,0,271.7,-90,0,98,4.144,4.157,4.153,4.15,0,0,4.489,77.54,175.79782353892,122.047248,6,P-GPS,
27900,2023-07-03 14:46:14,52.2064325610968,0.0866008429385978,122.047248,121.5223136,54.275509938916,175.79782353892,83.66142,3.9593838,37.003282024,69.764109844,23,5,16.952,206.30963553892,152.55906,9.6859502,37.606300416,-2.908022,-2.684328,1.342164,283.3, -8, -7,0,0,1024,1024,1024,1024,0,0,0,0,271.7,-90,0,98,4.144,4.157,4.153,4.15,0,0,4.489,77.54,175.79782353892,122.047248,6,P-GPS,
28100,2023-07-03 14:46:14,52.2064300233729,0.0865974241529824,121.39108,120.898954,54.242701538916,175.14165553892,83.66142,2.8409138,37.086287276,70.964897284,23,5,16.952,206.30963553892,152.55906,9.6859502,37.606300416,-2.013246,-2.013246,0,283.4, -4.8, -2.7,0,1,1024,1024,1024,1024,0,0,0,0,271.7,-90,0,98,4.144,4.157,4.153,4.15,0,0,4.489,77.54,175.14165553892,121.39108,6,P-GPS,
28300,2023-07-03 14:46:14,52.206428393463,0.0865950775953413,120.734912,120.2755944,54.209893138916,174.48548753892,83.66142,1.7448132,37.1883214,71.757876312,23,5,16.952,206.30963553892,152.55906,9.6859502,37.606300416,-1.11847,-1.342164,0,283.5, -5.2, -5.8,0,1,1024,1024,1024,1024,0,0,0,0,271.7,-90,0,98,4.144,4.157,4.153,4.15,0,0,4.489,77.54,174.48548753892,120.734912,6,P-GPS,
28500,2023-07-03 14:46:14,52.2064274253809,0.0865936558378228,120.734912,120.2755944,54.209893138916,174.48548753892,83.66142,0.9395148,37.261812216,72.232941944,23,5,16.26,206.30963553892,152.55906,9.6859502,37.606300416,-0.671082,-0.671082,0,283.5, -6.9, -8.4,0,1,1024,1024,1024,1024,0,0,0,0,271.7,-89.9,0,98,4.169,4.175,4.172,4.172,0,0,14.159,77.54,174.48548753892,120.734912,6,P-GPS,
28700,2023-07-03 14:46:14,52.2064270457384,0.0865930108095182,120.734912,120.2755944,54.209893138916,174.48548753892,83.66142,0.3131716,37.309056312,72.433073184,23,5,16.26,206.30963553892,152.55906,9.6859502,37.606300416,-0.223694,-0.223694,0.223694,283.3, -9.3, -12.2,0,1,1024,1024,1024,1024,0,0,0,0,271.7,-89.9,0,98,4.169,4.175,4.172,4.172,0,0,14.159,77.54,174.48548753892,120.734912,6,P-GPS,
28900,2023-07-03 14:46:15,52.2064269990659,0.0865927188196134,120.734912,120.2755944,54.209893138916,174.48548753892,83.66142,0,37.354988072,72.500330404,23,5,16.26,206.30963553892,152.55906,9.6859502,37.606300416,0,0,0.447388,283.3, -9.9, -14.8,0,1,1024,1024,1024,1024,0,0,0,0,271.7,-89.9,0,98,4.169,4.175,4.172,4.172,0,0,14.159,77.54,174.48548753892,120.734912,6,P-GPS,
29100,2023-07-03 14:46:15,52.2064271595283,0.0865925721047165,121.062996,120.6036784,54.209893138916,174.81357153892,83.66142,0,37.414043192,72.567587624,23,5,16.26,206.30963553892,152.55906,9.6859502,37.606300416,0,0,0.223694,283.7, -9.8, -16.8,0,1,1024,1024,1024,1024,0,0,0,0,271.7,-89.9,0,98,4.169,4.175,4.172,4.172,0,0,14.159,77.54,174.81357153892,121.062996,6,P-GPS,
29300,2023-07-03 14:46:15,52.2064273960864,0.0865924551941227,121.39108,120.9317624,54.209893138916,175.14165553892,83.66142,0,37.482284664,72.657810724,23,5,16.26,206.30963553892,152.55906,9.6859502,37.606300416,0,0,0.223694,283.6, -9.5, -18.8,0,1,1024,1024,1024,1024,0,0,0,0,271.7,-89.9,0,98,4.169,4.175,4.172,4.172,0,0,14.159,77.54,175.14165553892,121.39108,6,P-GPS,
29500,2023-07-03 14:46:15,52.2064275880451,0.0865923821651926,121.719164,121.2598464,54.209893138916,175.46973953892,83.66142,0,37.533793852,72.72966112,23,5,16.755,206.30963553892,152.55906,9.6859502,37.606300416,0,0,0,284.1, -9.6, -19.9,0,1,1024,1024,1024,1024,0,0,0,0,271.7,-89.9,0,98,4.155,4.154,4.163,4.159,0,0,8.357,77.72,175.46973953892,121.719164,6,P-GPS,
29700,2023-07-03 14:46:15,52.2064276715596,0.0865923948865414,122.047248,121.5879304,54.209893138916,175.79782353892,83.66142,0,37.54757338,72.760172932,24,5,16.755,206.30963553892,152.55906,9.6859502,37.606300416,0,0,0,284.3, -11, -20.8,0,1,1024,1024,1024,1024,0,0,0,0,271.7,-90,0,98,4.155,4.154,4.163,4.159,0,0,8.357,77.72,175.79782353892,122.047248,6,P-GPS,
29900,2023-07-03 14:46:15,52.2064276557794,0.0865924316666171,122.047248,121.5879304,54.209893138916,175.79782353892,83.66142,0,37.53773086,72.770343536,24,5,16.755,206.30963553892,152.55906,9.6859502,37.606300416,0,0,0,284.5, -11.4, -20.1,0,1,1024,1024,1024,1024,0,0,0,0,271.7,-90,0,98,4.155,4.154,4.163,4.159,0,0,8.357,77.72,175.79782353892,122.047248,6,P-GPS,
30100,2023-07-03 14:46:16,52.2064274956767,0.0865923293646051,122.375332,121.9160144,54.209893138916,176.12590753892,83.66142,0.223694,37.525591752,72.83300758,24,5,16.755,206.30963553892,152.55906,9.6859502,37.606300416,-0.223694,0,0,284.4, -10.9, -18.9,0,1,1024,1024,1024,1024,0,0,0,0,271.7,-89.9,0,98,4.155,4.154,4.163,4.159,0,0,8.357,77.72,176.12590753892,122.375332,6,P-GPS,
30300,2023-07-03 14:46:16,52.2064272311905,0.086592110892913,122.375332,121.9160144,54.209893138916,176.12590753892,83.66142,0.4921268,37.515093064,72.9412753,24,5,16.755,206.30963553892,152.55906,9.6859502,37.606300416,-0.447388,-0.223694,0,283.9, -11, -17.7,0,1,1024,1024,1024,1024,0,0,0,0,271.7,-90,0,98,4.155,4.154,4.163,4.159,0,0,8.357,77.72,176.12590753892,122.375332,6,P-GPS,
30500,2023-07-03 14:46:16,52.2064268989487,0.0865917591126687,122.703416,122.2440984,54.209893138916,176.45399153892,83.66142,0.4921268,37.517061568,73.08563226,24,5,16.623,206.30963553892,152.55906,9.6859502,37.606300416,-0.447388,-0.223694,0,283.8, -9.6, -16.6,0,1,1024,1024,1024,1024,0,0,0,0,271.7,-90,0,98,4.151,4.159,4.162,4.16,0,0,10.367,77.9,176.45399153892,122.703416,6,P-GPS,
30700,2023-07-03 14:46:16,52.2064265743742,0.0865914280780085,122.703416,122.2440984,54.209893138916,176.45399153892,83.66142,0.4921268,37.517061568,73.225396044,24,5,16.623,206.30963553892,152.55906,9.6859502,37.606300416,-0.447388,-0.223694,0,283.7, -9.4, -16.1,0,1,1024,1024,1024,1024,0,0,0,0,271.7,-89.9,0,98,4.151,4.159,4.162,4.16,0,0,10.367,77.9,176.45399153892,122.703416,6,P-GPS,
30900,2023-07-03 14:46:16,52.2064263860693,0.0865911902027646,122.703416,122.2769068,54.177084738916,176.45399153892,83.66142,0.223694,37.525919836,73.31201022,24,5,16.623,206.30963553892,152.55906,9.6859502,37.606300416,-0.223694,0,0,283.9, -9, -16.9,0,1,1024,1024,1024,1024,0,0,0,0,271.7,-89.9,0,98,4.151,4.159,4.162,4.16,0,0,10.367,77.9,176.45399153892,122.703416,6,P-GPS,
31100,2023-07-03 14:46:17,52.2064263202198,0.0865910354496528,123.0315,122.6049908,54.177084738916,176.78207553892,83.66142,0,37.54265212,73.354333056,24,5,16.623,206.30963553892,152.55906,9.6859502,37.606300416,0,0,0,284.1, -9.1, -18.3,0,1,1024,1024,1024,1024,0,0,0,0,271.7,-90,0,98,4.151,4.159,4.162,4.16,0,0,10.367,77.9,176.78207553892,123.0315,6,P-GPS,
31300,2023-07-03 14:46:17,52.2064262702576,0.086590938445873,123.0315,122.6049908,54.177084738916,176.78207553892,83.66142,0,37.551510388,73.38254828,24,5,16.623,206.30963553892,152.55906,9.6859502,37.606300416,0,0,0,284.2, -8.8, -19.8,0,1,1024,1024,1024,1024,0,0,0,0,271.7,-89.9,0,98,4.151,4.159,4.162,4.16,0,0,10.367,77.9,176.78207553892,123.0315,6,P-GPS,
31500,2023-07-03 14:46:17,52.2064261727319,0.0865909575139167,123.0315,122.6049908,54.177084738916,176.78207553892,83.66142,0.223694,37.529200676,73.418309436,24,5,16.69,206.30963553892,152.55906,9.6859502,37.606300416,-0.223694,0,0,284.3, -10.2, -19.7,0,1,1024,1024,1024,1024,0,0,0,0,271.7,-90,0,98,4.166,4.173,4.178,4.174,0,0,9.251,77.9,176.78207553892,123.0315,6,P-GPS,
