time(millisecond),datetime(utc),latitude,longitude,height_above_takeoff(feet),height_above_ground_at_drone_location(feet),ground_elevation_at_drone_location(feet),altitude_above_seaLevel(feet),height_sonar(feet),speed(mph),distance(feet),mileage(feet),satellites,gpslevel,voltage(v),max_altitude(feet),max_ascent(feet),max_speed(mph),max_distance(feet), xSpeed(mph), ySpeed(mph), zSpeed(mph), compass_heading(degrees), pitch(degrees), roll(degrees),isPhoto,isVideo,rc_elevator,rc_aileron,rc_throttle,rc_rudder,rc_elevator(percent),rc_aileron(percent),rc_throttle(percent),rc_rudder(percent),gimbal_heading(degrees),gimbal_pitch(degrees),gimbal_roll(degrees),battery_percent,voltageCell1,voltageCell2,voltageCell3,voltageCell4,voltageCell5,voltageCell6,current(A),battery_temperature(f),altitude(feet),ascent(feet),flycStateRaw,flycState,message
100,2023-07-19 16:48:44,52.2063673187917,0.0867229323744112,0,0,53.649150666904,53.649150666904,0.328084,0,0,0,13,2,0,53.649150666904,0,0,0,0,0,0,277.6, 4.8, 0.9,0,0,1024,1024,1024,1024,0,0,0,0,277.7,0,0,80,4.104,4.108,4.104,4.099,0,0,0,73.94,53.649150666904,0,41,Motors_Started,"No GPS signal. Aircraft unable to hover. Fly with caution (Code: 30008). GPS signal weak. Hovering unstable. Fly with caution (Code: 30002)"
300,2023-07-19 16:48:44,52.2063673277084,0.0867229294521593,0,0,53.649150666904,53.649150666904,0.328084,0,0.0033182087676,0.0033182087676,13,2,0,53.649150666904,0,0,0.0033182087676,0,0,0,277.6, 4.8, 0.9,0,0,1024,1024,1024,1024,0,0,0,0,277.7,0,0,80,4.104,4.108,4.104,4.099,0,0,0,73.94,53.649150666904,0,41,Motors_Started,
500,2023-07-19 16:48:44,52.2063673658622,0.0867229201634676,0,0,53.649150666904,53.649150666904,0,0,0.0173893050184,0.0173926514752,13,2,0,53.649150666904,0,0,0.0173893050184,0,0,0,277.7, 4.8, 0.9,0,0,1024,1024,1024,1024,0,0,0,0,277.7,0,0,80,4.104,4.108,4.104,4.099,0,0,0,73.94,53.649150666904,0,41,Motors_Started,
700,2023-07-19 16:48:44,52.2063674733217,0.0867229153166927,0,0,53.649150666904,53.649150666904,0,0,0.05650918816,0.05661417504,13,2,0,53.649150666904,0,0,0.05650918816,0,0,0,277.4, 4.8, 0.8,0,0,1024,1024,1024,1024,0,0,0,0,277.7,0,0,80,4.104,4.108,4.104,4.099,0,0,0,73.94,53.649150666904,0,41,Motors_Started,"Setting new Return-To-Home altitude to 26m (85 ft). Data Recorder File Index is 65. Setting new Maximum Flight Altitude to 30m (98 ft) GPS signal weak. Hovering unstable. Fly with caution (Code: 30002)"
900,2023-07-19 16:48:44,52.2063677027615,0.0867228866196044,0,0,53.649150666904,53.649150666904,0,0,0.14046424334,0.140570542556,13,2,16.546,53.649150666904,0,0,0.14046424334,0,0,0,277.4, 4.8, 0.8,0,0,1024,1024,1024,1024,0,0,0,0,277.7,0,0,80,4.104,4.108,4.104,4.099,0,0,1.494,73.94,53.649150666904,0,41,Motors_Started,
1100,2023-07-19 16:48:45,52.2063680908448,0.086722846497753,0,0,53.649150666904,53.649150666904,0,0,0.282336623208,0.282446531348,13,5,16.546,53.649150666904,0,0,0.282336623208,0,0,0,277.4, 4.8, 0.8,0,0,1024,1024,1024,1024,0,0,0,0,277.7,0,0,80,4.104,4.108,4.104,4.099,0,0,1.494,73.94,53.649150666904,0,41,Motors_Started,
1300,2023-07-19 16:48:45,52.2063686572271,0.0867227974094471,0,0,53.649150666904,53.649150666904,0,0,0.48925854584,0.48938321776,13,5,16.546,53.649150666904,0,0,0.48925854584,0,0,0,277.5, 4.8, 0.8,0,0,1024,1024,1024,1024,0,0,0,0,277.7,0,0,80,4.104,4.108,4.104,4.099,0,0,1.494,73.94,53.649150666904,0,41,Motors_Started,
1500,2023-07-19 16:48:45,52.2063693784959,0.0867227454652918,0,0,53.649150666904,53.649150666904,0,0,0.75264438104,0.75279201884,13,5,16.546,53.649150666904,0,0,0.75264438104,0,0,0,277, 4.8, 0.8,0,0,1024,1024,1024,1024,0,0,0,0,277.7,0,0,80,4.104,4.108,4.104,4.099,0,0,1.494,73.94,53.649150666904,0,41,Motors_Started,
1700,2023-07-19 16:48:45,52.206370186656,0.0867226618883083,0,0,53.649150666904,53.649150666904,0,0,1.04808402304,1.04824150336,13,5,16.546,53.649150666904,0,0,1.04808402304,0,0,0,276.8, 4.8, 0.9,0,0,1024,1024,1024,1024,0,0,0,0,277.6,0,0,80,4.104,4.108,4.104,4.099,0,0,1.494,73.94,53.649150666904,0,11,AutoTakeoff,"Setting new Maximum Flight Altitude to 120m (394 ft)"
1900,2023-07-19 16:48:45,52.2063710269912,0.0867225336118029,0,0,53.649150666904,53.649150666904,0,0,1.35586946596,1.35617458408,13,5,16.325,53.649150666904,0,0,1.35586946596,0,0,0,276.7, 4.8, 0.9,0,0,1024,1024,1024,1024,0,0,0,0,277.6,0,0,80,4.104,4.114,4.112,4.109,0,0,4.724,73.94,53.649150666904,0,11,AutoTakeoff,
2100,2023-07-19 16:48:46,52.2063718296175,0.0867224746014159,0,0,53.649150666904,53.649150666904,0,0,1.648950184,1.6493110764,13,5,16.325,53.649150666904,0,0,1.648950184,0,0,0,276.9, 0.2, 0.7,0,0,1024,1024,1024,1024,0,0,0,0,277.5,0,0,80,4.104,4.114,4.112,4.109,0,0,4.724,73.94,53.649150666904,0,11,AutoTakeoff,
2300,2023-07-19 16:48:46,52.2063725297638,0.0867224423201268,0,0,53.649150666904,53.649150666904,0.328084,0,1.90437342052,1.90485898484,13,5,16.325,53.649150666904,0,0,1.90437342052,0,0,-0.671082,277.1, -1.4, 0.7,0,0,1024,1024,1024,1024,0,0,0,0,277.5,0,0,80,4.104,4.114,4.112,4.109,0,0,4.724,73.94,53.649150666904,0,11,AutoTakeoff,
2500,2023-07-19 16:48:46,52.2063731638927,0.0867222209232717,0.328084,0.328084,53.649150666904,53.977234666904,0.328084,0,2.13850728628,2.14145676144,13,5,16.325,53.977234666904,0.328084,0,2.13850728628,0,0,-0.894776,276.9, 0.3, 0.1,0,0,1024,1024,1024,1024,0,0,0,0,277.5,0,0,80,4.104,4.114,4.112,4.109,0,0,4.724,73.94,53.977234666904,0.328084,11,AutoTakeoff,
2700,2023-07-19 16:48:46,52.206373721566,0.0867219339273792,0.656168,0.656168,53.649150666904,54.305318666904,0.656168,0,2.34668970764,2.35480322496,14,5,16.325,54.305318666904,0.656168,0,2.34668970764,0,0,-0.894776,277, 0, 0,0,0,1024,1024,1024,1024,0,0,0,0,277.5,0,0,80,4.104,4.114,4.112,4.109,0,0,4.724,73.94,54.305318666904,0.656168,11,AutoTakeoff,"Home Point updated (Code: 3000001)"
2900,2023-07-19 16:48:46,52.2063741069545,0.0867216006262799,0.984252,0.984252,53.649150666904,54.633402666904,0.984252,0,2.49449154964,2.51394036916,14,5,16.287,54.633402666904,0.984252,0,2.49449154964,0,0,-0.894776,277.2, -0.1, 1.4,0,0,1024,1024,1024,1024,0,0,0,0,277.5,0,0,80,4.051,4.055,4.052,4.049,0,0,4.066,73.76,54.633402666904,0.984252,11,AutoTakeoff,
3100,2023-07-19 16:48:47,52.2063743603836,0.0867213589384524,1.312336,1.312336,53.649150666904,54.961486666904,1.312336,0,2.593093915,2.62103682928,14,5,16.287,54.961486666904,1.312336,0,2.593093915,0,0,-0.894776,277, -0.4, 2.2,0,0,1024,1024,1024,1024,0,0,0,0,277.5,0,0,80,4.051,4.055,4.052,4.049,0,0,4.066,73.76,54.961486666904,1.312336,11,AutoTakeoff,
3300,2023-07-19 16:48:47,52.2063746186595,0.0867211515775559,1.64042,1.64042,53.649150666904,55.289570666904,1.64042,0,2.69294956124,2.72605651768,14,5,16.287,55.289570666904,1.64042,0,2.69294956124,0,0,-0.894776,277, -1.1, 2,0,0,1024,1024,1422,1024,0,0,60,0,277.5,0,0,80,4.051,4.055,4.052,4.049,0,0,4.066,73.76,55.289570666904,1.64042,11,AutoTakeoff,
3500,2023-07-19 16:48:47,52.2063748054929,0.0867208588867835,1.968504,1.968504,53.649150666904,55.617654666904,1.968504,0,2.77058079732,2.82055127136,14,5,16.287,55.617654666904,1.968504,0,2.77058079732,0,0,-1.11847,277, -1.7, 1.1,0,0,1024,1024,1684,1024,0,0,100,0,277.5,0,0,80,4.051,4.055,4.052,4.049,0,0,4.066,73.76,55.617654666904,1.968504,11,AutoTakeoff,
3700,2023-07-19 16:48:47,52.2063749582559,0.0867204733783355,2.296588,2.296588,53.649150666904,55.945738666904,2.296588,0,2.840961377,2.9231956316,14,5,16.287,55.945738666904,2.296588,0,2.840961377,0,0,-2.013246,277, -1.3, 0.8,0,0,1024,1024,1684,1024,0,0,100,0,277.5,0,0,80,4.051,4.055,4.052,4.049,0,0,4.066,73.76,55.945738666904,2.296588,11,AutoTakeoff,
3900,2023-07-19 16:48:47,52.2063750820344,0.086720049656177,3.28084,3.28084,53.649150666904,56.929990666904,3.28084,0,2.9048229276,3.02814642236,14,5,16.153,56.929990666904,3.28084,0,2.9048229276,0,0,-3.802798,277, -1.1, 0.8,0,0,1024,1024,1684,1024,0,0,100,0,277.4,0,0,80,4.035,4.04,4.038,4.036,0,0,7.619,73.94,56.929990666904,3.28084,11,AutoTakeoff,
4100,2023-07-19 16:48:48,52.2063751779342,0.0867196410162109,4.593176,4.593176,53.649150666904,58.242326666904,4.92126,0,2.96033145956,3.125984352,14,5,16.153,58.242326666904,4.593176,0,2.96033145956,0,0,-6.039738,277.1, -1.3, 0.2,0,0,1024,1024,1658,1024,0,0,96,0,277.4,0,0,80,4.035,4.04,4.038,4.036,0,0,7.619,73.94,58.242326666904,4.593176,6,P-GPS,
4300,2023-07-19 16:48:48,52.2063752276419,0.0867191986901297,6.889764,6.889764,53.649150666904,60.538914666904,7.217848,0,3.00386820636,3.22653225548,14,5,16.153,60.538914666904,6.889764,0,3.00386820636,0,0,-8.276678,277.2, -1.2, 0.6,0,0,1024,1024,1596,1024,0,0,87,0,277.4,0,0,80,4.035,4.04,4.038,4.036,0,0,7.619,73.94,60.538914666904,6.889764,6,P-GPS,
4500,2023-07-19 16:48:48,52.2063752785286,0.0867187682885227,10.170604,10.170604,53.649150666904,63.819754666904,9.84252,0,3.04969826032,3.3245407888,14,5,16.153,63.819754666904,10.170604,0,3.04969826032,0,0,-10.289924,277.4, -0.8, 0.6,0,0,1024,1024,1024,1024,0,0,0,0,277.4,0,0,80,4.035,4.04,4.038,4.036,0,0,7.619,73.94,63.819754666904,10.170604,6,P-GPS,
4700,2023-07-19 16:48:48,52.2063753079355,0.0867183909572907,14.435696,14.435696,53.649150666904,68.084846666904,13.12336,0,3.0866306762,3.4095801616,14,5,16.153,68.084846666904,14.435696,0,3.0866306762,0,0,-10.961006,277.4, -1.7, 1.1,0,0,1024,1024,1024,1024,0,0,0,0,277.4,0,0,80,4.035,4.04,4.038,4.036,0,0,7.619,73.94,68.084846666904,14.435696,6,P-GPS,
4900,2023-07-19 16:48:48,52.2063753267639,0.0867180302716565,18.04462,18.04462,53.649150666904,71.693770666904,16.076116,0,3.12052503424,3.4905184844,15,5,15.81,71.693770666904,18.04462,0,3.12052503424,0,0,-9.395148,277.4, -1.7, 1,0,0,1024,1024,1024,1024,0,0,0,0,277.4,0,0,80,3.933,3.934,3.93,3.927,0,0,11.682,73.76,71.693770666904,18.04462,6,P-GPS,
5100,2023-07-19 16:48:49,52.2063752916745,0.0867176432233936,19.68504,19.68504,53.649150666904,73.334190666904,18.700788,0,3.14009852568,3.5779856788,15,5,15.81,73.334190666904,19.68504,0,3.14009852568,0,0,-7.381902,277.3, -1.1, 0.8,0,0,1024,1024,1024,1024,0,0,0,0,277.4,0,0,80,3.933,3.934,3.93,3.927,0,0,11.682,73.76,73.334190666904,19.68504,6,P-GPS,
5300,2023-07-19 16:48:49,52.2063751461607,0.0867172587198281,20.669292,20.669292,53.649150666904,74.318442666904,20.341208,0,3.12488198976,3.6790355508,16,5,15.81,74.318442666904,20.669292,0,3.14009852568,0,0,-4.921268,277.4, -0.6, 0.9,0,0,1024,1024,1024,1024,0,0,0,0,277.4,0,0,80,3.933,3.934,3.93,3.927,0,0,11.682,73.76,74.318442666904,20.669292,6,P-GPS,
5500,2023-07-19 16:48:49,52.2063749324315,0.086716946153658,21.653544,21.653544,53.649150666904,75.302694666904,21.653544,0,3.08346794644,3.7837599636,16,5,15.81,75.302694666904,21.653544,0,3.14009852568,0,0,-2.460634,277.4, -0.9, 1.3,0,0,1024,1024,1024,1024,0,0,0,0,277.4,0,0,80,3.933,3.934,3.93,3.927,0,0,11.682,73.76,75.302694666904,21.653544,6,P-GPS,
5700,2023-07-19 16:48:49,52.2063747374226,0.0867167613714906,21.981628,21.981628,53.649150666904,75.630778666904,22.309712,0,3.03806768252,3.8660434308,16,5,15.81,75.630778666904,21.981628,0,3.14009852568,0,0,-0.671082,277.4, -1, 1.3,0,0,1024,1024,1024,1024,0,0,0,0,277.4,0,0,80,3.933,3.934,3.93,3.927,0,0,11.682,73.76,75.630778666904,21.981628,6,P-GPS,
5900,2023-07-19 16:48:49,52.2063745552351,0.0867166341073489,21.981628,21.981628,53.649150666904,75.630778666904,22.637796,0,2.99228684116,3.938320336,16,5,15.81,75.630778666904,21.981628,0,3.14009852568,0,0,0,277.4, -1.2, 1.5,0,0,1024,1024,1024,1024,0,0,0,0,277.4,0,0,80,4.069,4.077,4.077,4.077,0,0,11.682,73.76,75.630778666904,21.981628,6,P-GPS,
6100,2023-07-19 16:48:50,52.206374393954,0.0867165437764872,21.981628,21.981628,53.649150666904,75.630778666904,22.309712,0,2.95021991068,4.0005578708,16,5,15.81,75.630778666904,21.981628,0,3.14009852568,0,0,0,277.3, -1.7, 1.4,0,0,1024,1024,1024,1024,0,0,0,0,277.4,0,0,80,4.069,4.077,4.077,4.077,0,0,11.682,73.76,75.630778666904,21.981628,6,P-GPS,
6300,2023-07-19 16:48:50,52.2063743113318,0.0867164762688312,21.981628,21.981628,53.649150666904,75.630778666904,22.309712,0,2.93128618304,4.0342520976,16,5,15.81,75.630778666904,21.981628,0,3.14009852568,0,0,0,277.5, -1.7, 1.6,0,0,1024,1024,1024,1024,0,0,0,0,277.4,0,0,80,4.069,4.077,4.077,4.077,0,0,11.682,73.76,75.630778666904,21.981628,6,P-GPS,
6500,2023-07-19 16:48:50,52.2063742586466,0.086716349857873,21.981628,21.981628,53.649150666904,75.630778666904,22.309712,0,2.92867135356,4.0684384504,16,5,15.81,75.630778666904,21.981628,0,3.14009852568,0,0,0,277.5, -1.4, 1.6,0,0,1024,1024,1024,1024,0,0,0,0,277.4,0,0,80,4.069,4.077,4.077,4.077,0,0,11.682,73.76,75.630778666904,21.981628,6,P-GPS,
6700,2023-07-19 16:48:50,52.2063742183153,0.0867161861414319,21.981628,21.981628,53.649150666904,75.630778666904,22.309712,0,2.93460639312,4.1079069556,16,5,15.81,75.630778666904,21.981628,0,3.14009852568,0,0,0,277.5, -1, 1.2,0,0,1024,1024,1024,1024,0,0,0,0,277.4,0,0,80,4.069,4.077,4.077,4.077,0,0,11.682,73.76,75.630778666904,21.981628,6,P-GPS,
6900,2023-07-19 16:48:50,52.2063741612952,0.0867160137874357,21.981628,21.981628,53.649150666904,75.630778666904,22.309712,0,2.9368931386,4.1516733612,16,5,16.146,75.630778666904,21.981628,0,3.14009852568,0,0,0,277.5, -0.8, 1,0,0,1024,1024,1024,1024,0,0,0,0,277.4,0,0,80,4.029,4.036,4.035,4.033,0,0,5.657,74.12,75.630778666904,21.981628,6,P-GPS,
7100,2023-07-19 16:48:51,52.2063741127939,0.0867158517135804,21.981628,21.981628,53.649150666904,75.630778666904,21.981628,0,2.94121072404,4.1920276932,16,5,16.146,75.630778666904,21.981628,0,3.14009852568,0,0,0,277.4, -0.9, 0.9,0,0,1024,1024,1024,1024,0,0,0,0,277.4,0,0,80,4.029,4.036,4.035,4.033,0,0,5.657,74.12,75.630778666904,21.981628,6,P-GPS,
7300,2023-07-19 16:48:51,52.2063740308319,0.0867156997254641,21.981628,21.981628,53.649150666904,75.630778666904,22.309712,0,2.93464248236,4.2372704768,16,5,16.146,75.630778666904,21.981628,0,3.14009852568,0,0,0,277.5, -1, 1,0,0,1024,1024,1024,1024,0,0,0,0,277.4,0,0,80,4.029,4.036,4.035,4.033,0,0,5.657,74.12,75.630778666904,21.981628,6,P-GPS,
7500,2023-07-19 16:48:51,52.2063739330731,0.0867155746477963,21.981628,21.981628,53.649150666904,75.630778666904,21.981628,0,2.920603768,4.2826116856,16,5,16.146,75.630778666904,21.981628,0,3.14009852568,0,0,0,277.5, -1.1, 1.2,0,0,1024,1024,1024,1024,0,0,0,0,277.4,0,0,80,4.029,4.036,4.035,4.033,0,0,5.657,74.12,75.630778666904,21.981628,6,P-GPS,
7700,2023-07-19 16:48:51,52.2063738516658,0.0867154959618196,21.981628,21.981628,53.649150666904,75.630778666904,22.309712,0,2.90614182528,4.3171261224,16,5,16.146,75.630778666904,21.981628,0,3.14009852568,0,0,0,277.5, -1.1, 1.1,0,0,1024,1024,1024,1024,0,0,0,0,277.4,0,0,80,4.029,4.036,4.035,4.033,0,0,5.657,74.12,75.630778666904,21.981628,6,P-GPS,
7900,2023-07-19 16:48:51,52.2063737870994,0.0867154615343567,21.981628,21.981628,53.649150666904,75.630778666904,22.309712,0,2.89129274344,4.3418964644,16,5,16.124,75.630778666904,21.981628,0,3.14009852568,0,0,0,277.4, -1.4, 1,0,0,1024,1024,1024,1024,0,0,0,0,277.4,0,0,80,4.026,4.033,4.033,4.03,0,0,7.181,74.12,75.630778666904,21.981628,6,P-GPS,
8100,2023-07-19 16:48:52,52.2063737111647,0.0867154455964688,21.981628,21.981628,53.649150666904,75.630778666904,22.309712,0,2.8708006168,4.3698492212,16,5,16.124,75.630778666904,21.981628,0,3.14009852568,0,0,0,277.4, -1.6, 0.7,0,0,1024,1024,1024,1024,0,0,0,0,277.4,0,0,80,4.026,4.033,4.033,4.03,0,0,7.181,74.12,75.630778666904,21.981628,6,P-GPS,
8300,2023-07-19 16:48:52,52.206373607582,0.0867154096072388,21.981628,21.981628,53.649150666904,75.630778666904,22.309712,0,2.84493447424,4.408464708,16,5,16.124,75.630778666904,21.981628,0,3.14009852568,0,0,0,277.5, -1.6, 1.4,0,0,1024,1024,1024,1024,0,0,0,0,277.4,0,0,80,4.026,4.033,4.033,4.03,0,0,7.181,74.12,75.630778666904,21.981628,6,P-GPS,
8500,2023-07-19 16:48:52,52.2063735016178,0.0867153387187393,21.981628,21.981628,53.649150666904,75.630778666904,22.309712,0,2.82334982788,4.4502626096,16,5,16.124,75.630778666904,21.981628,0,3.14009852568,0,0,0,277.5, -1.1, 1.7,0,0,1024,1024,1024,1024,0,0,0,0,277.4,0,0,80,4.026,4.033,4.033,4.03,0,0,7.181,74.12,75.630778666904,21.981628,6,P-GPS,
8700,2023-07-19 16:48:52,52.2063734354478,0.0867152996173334,21.981628,21.981628,53.649150666904,75.630778666904,22.309712,0,2.8093996962,4.4759515868,16,5,16.124,75.630778666904,21.981628,0,3.14009852568,0,0,0,277.4, -0.8, 1.6,0,0,1024,1024,1024,1024,0,0,0,0,277.4,0,0,80,4.026,4.033,4.033,4.03,0,0,7.181,74.12,75.630778666904,21.981628,6,P-GPS,
8900,2023-07-19 16:48:52,52.2063734119044,0.0867153193038991,21.981628,21.981628,53.649150666904,75.630778666904,22.309712,0,2.7999016644,4.4855972564,16,5,16.108,75.630778666904,21.981628,0,3.14009852568,0,0,0,277.4, -0.9, 1.3,0,0,1024,1024,1024,1024,0,0,0,0,277.4,0,0,80,4.024,4.029,4.03,4.026,0,0,7.255,74.3,75.630778666904,21.981628,6,P-GPS,
9100,2023-07-19 16:48:53,52.206373400089,0.0867153825106888,21.981628,21.981628,53.649150666904,75.630778666904,22.309712,0,2.78790035168,4.5003610364,16,5,16.108,75.630778666904,21.981628,0,3.14009852568,0,0,0,277.4, -1, 0.9,0,0,1024,1024,1024,1024,0,0,0,0,277.4,0,0,80,4.024,4.029,4.03,4.026,0,0,7.255,74.3,75.630778666904,21.981628,6,P-GPS,
9300,2023-07-19 16:48:53,52.2063733692729,0.0867154695463311,21.981628,21.981628,53.649150666904,75.630778666904,22.309712,0,2.76718512792,4.5228347904,16,5,16.108,75.630778666904,21.981628,0,3.14009852568,0,0,0,277.4, -0.9, 1.3,0,0,1024,1024,1024,1024,0,0,0,0,277.4,0,0,80,4.024,4.029,4.03,4.026,0,0,7.255,74.3,75.630778666904,21.981628,6,P-GPS,
9500,2023-07-19 16:48:53,52.206373355371,0.0867155727243109,21.981628,21.981628,53.649150666904,75.630778666904,22.309712,0,2.74927174152,4.5464568384,16,5,16.108,75.630778666904,21.981628,0,3.14009852568,0,0,0,277.5, -0.9, 1.5,0,0,1024,1024,1684,1024,0,0,100,0,277.4,0,0,80,4.024,4.029,4.03,4.026,0,0,7.255,74.3,75.630778666904,21.981628,6,P-GPS,
9700,2023-07-19 16:48:53,52.2063733508091,0.0867156864209558,21.981628,21.981628,53.649150666904,75.630778666904,22.309712,0,2.7327920822,4.5719489652,16,5,16.108,75.630778666904,21.981628,0,3.14009852568,0,0,0,277.5, -1.1, 1.3,0,0,1024,1024,1684,1024,0,0,100,0,277.4,0,0,80,4.024,4.029,4.03,4.026,0,0,7.255,74.3,75.630778666904,21.981628,6,P-GPS,
9900,2023-07-19 16:48:53,52.2063733460449,0.0867158351955452,22.309712,22.309712,53.649150666904,75.958862666904,22.637796,0,2.71179142536,4.6052494912,16,5,16.109,75.958862666904,22.309712,0,3.14009852568,0,0,-1.565858,277.7, -0.4, 1,0,0,1024,1024,1684,1024,0,0,100,0,277.4,0,0,80,4.024,4.028,4.027,4.024,0,0,7.216,74.3,75.958862666904,22.309712,6,P-GPS,
10100,2023-07-19 16:48:54,52.2063733491563,0.0867160542431012,22.96588,22.96588,53.649150666904,76.615030666904,23.293964,0,2.68435704128,4.6542324324,16,5,16.109,76.615030666904,22.96588,0,3.14009852568,0,0,-3.802798,277.5, -1.4, 0.7,0,0,1024,1024,1684,1024,0,0,100,0,277.4,0,0,80,4.024,4.028,4.027,4.024,0,0,7.216,74.3,76.615030666904,22.96588,6,P-GPS,
10300,2023-07-19 16:48:54,52.2063733409353,0.0867162562558191,24.6063,24.6063,53.649150666904,78.255450666904,24.934384,0,2.65625664668,4.6995080244,16,5,16.109,78.255450666904,24.6063,0,3.14009852568,0,0,-6.039738,277.4, -1.6, 1,0,0,1024,1024,1684,1024,0,0,100,0,277.4,0,0,80,4.024,4.028,4.027,4.024,0,0,7.216,74.3,78.255450666904,24.6063,6,P-GPS,
10500,2023-07-19 16:48:54,52.2063733056922,0.0867163726758364,27.230972,27.230972,53.649150666904,80.880122666904,27.230972,0,2.63103354876,4.7285434584,16,5,16.109,80.880122666904,27.230972,0,3.14009852568,0,0,-8.500372,277.4, -1.3, 1,0,0,1024,1024,1684,1024,0,0,100,0,277.4,0,0,80,4.024,4.028,4.027,4.024,0,0,7.216,74.3,80.880122666904,27.230972,6,P-GPS,
10700,2023-07-19 16:48:54,52.2063732304991,0.0867164107287833,30.839896,30.839896,53.649150666904,84.489046666904,30.183728,0,2.6035269862,4.7572508084,16,5,16.109,84.489046666904,30.839896,0,3.14009852568,0,0,-10.737312,277.5, -0.3, 1.2,0,0,1024,1024,1681,1017,0,0,100,-1,277.4,0,0,80,4.024,4.028,4.027,4.024,0,0,7.216,74.3,84.489046666904,30.839896,6,P-GPS,
10900,2023-07-19 16:48:54,52.2063731076383,0.0867165212852935,34.44882,34.44882,53.649150666904,88.097970666904,33.792652,0,2.55255257512,4.8084319124,22,5,15.863,88.097970666904,34.44882,0,3.14009852568,0,0,-11.1847,277, -1.9, 1.9,0,0,1024,1024,1684,1024,0,0,100,0,277.4,0,0,80,3.923,3.925,3.92,3.918,0,0,8.901,74.3,88.097970666904,34.44882,6,P-GPS,
11100,2023-07-19 16:48:55,52.2063730416578,0.0867167473396139,38.057744,38.057744,53.649150666904,91.706894666904,37.401576,0,2.50440952896,4.8644358512,22,5,15.863,91.706894666904,38.057744,0,3.14009852568,0,0,-12.079476,277.5, -0.9, 1,0,0,1024,1024,1684,1024,0,0,100,0,277.4,-0.8,0,80,3.923,3.925,3.92,3.918,0,0,8.901,74.3,91.706894666904,38.057744,6,P-GPS,
11300,2023-07-19 16:48:55,52.2063730570038,0.086717128538786,41.994752,41.994752,53.649150666904,95.643902666904,41.338584,0,2.46313000008,4.9498361164,22,5,15.863,95.643902666904,41.994752,0,3.14009852568,0,0,-13.197946,277.4, -1.4, 1.8,0,0,1024,1024,1684,1024,0,0,100,0,277.4,-3.2,0,80,3.923,3.925,3.92,3.918,0,0,8.901,74.3,95.643902666904,41.994752,6,P-GPS,
11500,2023-07-19 16:48:55,52.2063731327746,0.0867176240968797,45.93176,45.93176,53.649150666904,99.580910666904,43.307088,0,2.43068905416,5.0640421568,22,5,15.863,99.580910666904,45.93176,0,3.14009852568,0,0,-13.42164,277.5, -0.9, 2.4,0,0,1024,1024,1684,1024,0,0,100,0,277.4,-6,0,80,3.923,3.925,3.92,3.918,0,0,8.901,74.3,99.580910666904,45.93176,6,P-GPS,
11700,2023-07-19 16:48:55,52.2063732881076,0.0867182148939339,49.868768,49.868768,53.649150666904,103.5179186669,47.244096,0,2.41987212468,5.2077757572,22,5,15.863,103.5179186669,49.868768,0,3.14009852568,0,0,-13.42164,277.4, -0.7, 2.2,0,0,1024,1024,1684,1024,0,0,100,0,277.4,-8.9,0,80,3.923,3.925,3.92,3.918,0,0,8.901,74.3,103.5179186669,49.868768,6,P-GPS,
11900,2023-07-19 16:48:55,52.2063734820821,0.0867189252170653,53.477692,53.477692,53.649150666904,107.1268426669,51.181104,0,2.4205873478,5.3816602772,22,5,15.943,107.1268426669,53.477692,0,3.14009852568,0,0,-13.42164,277.4, -1.1, 1.8,0,0,1024,1024,1684,1024,0,0,100,0,277.4,-11.9,0,80,3.936,3.95,3.953,3.954,0,0,14.61,74.3,107.1268426669,53.477692,6,P-GPS,
12100,2023-07-19 16:48:56,52.2063737068491,0.0867197321469595,57.4147,57.4147,53.649150666904,111.0638506669,55.446196,0,2.4380414166,5.5798230132,22,5,15.943,111.0638506669,57.4147,0,3.14009852568,0,0,-13.197946,277.3, -1.9, 1.6,0,0,1024,1024,1684,1024,0,0,100,0,277.4,-14.8,0,80,3.936,3.95,3.953,3.954,0,0,14.61,74.3,111.0638506669,57.4147,6,P-GPS,
12300,2023-07-19 16:48:56,52.2063739589327,0.0867205415212922,61.023624,61.023624,53.649150666904,114.6727746669,59.383204,0,2.48092527624,5.7828413924,22,5,15.943,114.6727746669,61.023624,0,3.14009852568,0,0,-13.197946,277.5, -1.8, 1.3,0,0,1024,1024,1684,1024,0,0,100,0,277.4,-17.7,0,80,3.936,3.95,3.953,3.954,0,0,14.61,74.3,114.6727746669,61.023624,6,P-GPS,
12500,2023-07-19 16:48:56,52.2063742047796,0.08672132417723,64.960632,64.960632,53.649150666904,118.6097826669,62.992128,0,2.53794955628,5.9794621336,22,5,15.943,118.6097826669,64.960632,0,3.14009852568,0,0,-13.197946,277.6, -1.9, 1.4,0,0,1024,1024,1684,1024,0,0,100,0,277.4,-20.6,0,80,3.936,3.95,3.953,3.954,0,0,14.61,74.3,118.6097826669,64.960632,6,P-GPS,
12700,2023-07-19 16:48:56,52.2063744599238,0.0867220973175626,68.89764,68.89764,53.649150666904,122.5467906669,66.929136,0,2.61211950616,6.1758204076,22,5,15.943,122.5467906669,68.89764,0,3.14009852568,0,0,-13.197946,277.6, -2.2, 1.3,0,0,1024,1024,1684,1023,0,0,100,-0,277.4,-23.5,0,80,3.936,3.95,3.953,3.954,0,0,14.61,74.3,122.5467906669,68.89764,6,P-GPS,
12900,2023-07-19 16:48:56,52.2063747100782,0.0867228719061747,72.506564,72.506564,53.649150666904,126.1557146669,70.53806,0,2.69673893144,6.3715881304,22,5,15.837,126.1557146669,72.506564,0,3.14009852568,0,0,-13.42164,277.4, -2.3, 1.7,0,0,1024,1024,1684,1023,0,0,100,-0,277.4,-26.4,0,79,3.95,3.955,3.95,3.947,0,0,12.163,74.48,126.1557146669,72.506564,6,P-GPS,
13100,2023-07-19 16:48:57,52.2063749954131,0.0867236101992444,76.443572,76.443572,53.649150666904,130.0927226669,74.146984,0,2.80490822624,6.5667324936,22,5,15.837,130.0927226669,76.443572,0,3.14009852568,0,0,-13.42164,277.5, -2, 1.9,0,0,1024,1024,1684,1020,0,0,100,-1,277.4,-29.4,0,79,3.95,3.955,3.95,3.947,0,0,12.163,74.48,130.0927226669,76.443572,6,P-GPS,
13300,2023-07-19 16:48:57,52.2063752910116,0.0867242797344798,80.38058,80.38058,53.649150666904,134.0297306669,77.09974,0,2.92421925368,6.7512469352,22,5,15.837,134.0297306669,80.38058,0,3.14009852568,0,0,-13.42164,277.5, -0.5, 1.6,0,0,1024,1024,1684,1022,0,0,100,-0,277.4,-32.3,0,79,3.95,3.955,3.95,3.947,0,0,12.163,74.48,134.0297306669,80.38058,6,P-GPS,
13500,2023-07-19 16:48:57,52.2063755713167,0.0867250203340501,83.989504,83.989504,53.649150666904,137.6386546669,80.708664,0,3.04690626548,6.945866364,22,5,15.837,137.6386546669,83.989504,0,3.14009852568,0,0,-13.42164,277.4, -0.4, 1.8,0,0,1024,1024,1684,1019,0,0,100,-1,277.4,-35.2,0,79,3.95,3.955,3.95,3.947,0,0,12.163,74.48,137.6386546669,83.989504,6,P-GPS,
13700,2023-07-19 16:48:57,52.2063758371185,0.0867258127689982,87.598428,87.598428,53.649150666904,141.2475786669,83.66142,0,3.17393054776,7.1478348744,23,5,15.837,141.2475786669,87.598428,0,3.17393054776,0,0,-13.42164,277.3, -0.8, 1.3,0,0,1024,1024,1684,1024,0,0,100,0,277.4,-38.1,0,79,3.95,3.955,3.95,3.947,0,0,12.163,74.48,141.2475786669,87.598428,6,P-GPS,
13900,2023-07-19 16:48:57,52.2063760735868,0.0867266551088487,91.207352,91.207352,53.649150666904,144.8565026669,83.66142,0,3.300853124,7.354987112,23,5,15.78,144.8565026669,91.207352,0,3.300853124,0,0,-13.42164,277.3, -1.2, 1.2,0,0,1024,1024,1684,1024,0,0,100,0,277.4,-41,0,79,3.951,3.955,3.954,3.951,0,0,12.022,74.66,144.8565026669,91.207352,6,P-GPS,
14100,2023-07-19 16:48:58,52.2063762692538,0.0867275153441475,94.816276,94.816276,53.649150666904,148.4654266669,83.66142,0,3.422572288,7.5601380372,23,5,15.78,148.4654266669,94.816276,0,3.422572288,0,0,-13.42164,277.4, -1.9, 2,0,0,1024,1024,1684,1023,0,0,100,-0,277.4,-43.9,0,79,3.951,3.955,3.954,3.951,0,0,12.022,74.66,148.4654266669,94.816276,6,P-GPS,
14300,2023-07-19 16:48:58,52.2063764669474,0.0867283114006478,98.753284,98.753284,53.649150666904,152.4024346669,83.66142,0,3.5477691424,7.7521984108,23,5,15.78,152.4024346669,98.753284,0,3.5477691424,0,0,-13.197946,277.5, -1.3, 1.8,0,0,1024,1024,1684,1024,0,0,100,0,277.4,-46.9,0,79,3.951,3.955,3.954,3.951,0,0,12.022,74.66,152.4024346669,98.753284,6,P-GPS,
14500,2023-07-19 16:48:58,52.2063766911158,0.0867290540259283,102.362208,102.362208,53.649150666904,156.0113586669,83.66142,0,3.683235026,7.9373034036,23,5,15.78,156.0113586669,102.362208,0,3.683235026,0,0,-13.197946,277.5, -0.8, 0.9,0,0,1024,1024,1684,1024,0,0,100,0,277.4,-49.8,0,79,3.951,3.955,3.954,3.951,0,0,12.022,74.66,156.0113586669,102.362208,6,P-GPS,
14700,2023-07-19 16:48:58,52.2063768878017,0.0867297798623217,106.299216,106.299216,53.649150666904,159.9483666669,83.66142,0,3.8122048464,8.1147312308,25,5,15.78,159.9483666669,106.299216,0,3.8122048464,0,0,-13.197946,277.5, -1.5, 0.6,0,0,1024,1024,1684,1024,0,0,100,0,277.4,-52.7,0,79,3.951,3.955,3.954,3.951,0,0,12.022,74.66,159.9483666669,106.299216,6,P-GPS,
14900,2023-07-19 16:48:58,52.2063770602123,0.0867304383609969,110.236224,110.236224,53.649150666904,163.8853746669,83.66142,0,3.93044632,8.2748362228,25,5,15.816,163.8853746669,110.236224,0,3.93044632,0,0,-13.197946,277.4, -1.4, 1.2,0,0,1024,1024,1684,1024,0,0,100,0,277.4,-55.6,0,79,3.943,3.948,3.948,3.944,0,0,11.267,74.84,163.8853746669,110.236224,6,P-GPS,
15100,2023-07-19 16:48:59,52.2063772116747,0.0867310277705903,113.845148,113.845148,53.649150666904,167.4942986669,83.66142,0,4.0378282132,8.4177496132,25,5,15.816,167.4942986669,113.845148,0,4.0378282132,0,0,-13.197946,277.4, -1.6, 1.4,0,0,1024,1024,1684,1024,0,0,100,0,277.4,-58.6,0,79,3.943,3.948,3.948,3.944,0,0,11.267,74.84,167.4942986669,113.845148,6,P-GPS,
15300,2023-07-19 16:48:59,52.2063773722533,0.0867315732986784,117.782156,117.782156,53.649150666904,171.4313066669,83.66142,0,4.1457022324,8.5530514548,24,5,15.816,171.4313066669,117.782156,0,4.1457022324,0,0,-13.197946,277.4, -1.9, 1.4,0,0,1024,1024,1684,1024,0,0,100,0,277.4,-61.5,0,79,3.943,3.948,3.948,3.944,0,0,11.267,74.84,171.4313066669,117.782156,6,P-GPS,
15500,2023-07-19 16:48:59,52.2063775730716,0.086732051495601,121.719164,121.719164,53.649150666904,175.3683146669,83.66142,0,4.2607940996,8.6826774432,24,5,15.816,175.3683146669,121.719164,0,4.2607940996,0,0,-13.197946,277.5, -1.7, 1.5,0,0,1024,1024,1684,1024,0,0,100,0,277.4,-64.4,0,79,3.943,3.948,3.948,3.944,0,0,11.267,74.84,175.3683146669,121.719164,6,P-GPS,
15700,2023-07-19 16:48:59,52.2063778266716,0.0867324817307652,125.656172,125.656172,53.649150666904,179.3053226669,83.66142,0,4.3882547336,8.8161420144,24,5,15.816,179.3053226669,125.656172,0,4.3882547336,0,0,-13.197946,277.5, -1.8, 0.5,0,0,1024,1024,1684,1024,0,0,100,0,277.4,-67.3,0,79,3.943,3.948,3.948,3.944,0,0,11.267,74.84,179.3053226669,125.656172,6,P-GPS,
15900,2023-07-19 16:48:59,52.2063780770086,0.0867328614773847,129.59318,129.59318,53.649150666904,183.2423306669,83.66142,0,4.5094489632,8.9408467428,24,5,15.76,183.2423306669,129.59318,0,4.5094489632,0,0,-13.197946,277.4, -1.9, 0.3,0,0,1024,1024,1684,1024,0,0,100,0,277.4,-70.2,0,79,3.929,3.937,3.937,3.936,0,0,11.719,75.02,183.2423306669,129.59318,6,P-GPS,
16100,2023-07-19 16:49:00,52.2063782843742,0.0867331584167097,133.530188,133.530188,53.649150666904,187.1793386669,83.66142,0,4.6080382052,9.041502914,24,5,15.76,187.1793386669,133.530188,0,4.6080382052,0,0,-13.197946,277.5, -2.3, 0.6,0,0,1024,1024,1684,1024,0,0,100,0,277.4,-73.1,0,79,3.929,3.937,3.937,3.936,0,0,11.719,75.02,187.1793386669,133.530188,6,P-GPS,
16300,2023-07-19 16:49:00,52.2063784590528,0.086733372571457,137.467196,137.467196,53.649150666904,191.1163466669,83.66142,0,4.6871392576,9.121227326,25,5,15.76,191.1163466669,137.467196,0,4.6871392576,0,0,-13.42164,277.5, -1.9, 1.1,0,0,1024,1024,1684,1024,0,0,100,0,277.4,-76.1,0,79,3.929,3.937,3.937,3.936,0,0,11.719,75.02,191.1163466669,137.467196,6,P-GPS,
16500,2023-07-19 16:49:00,52.2063786504979,0.0867335280413309,141.404204,141.404204,53.649150666904,195.0533546669,83.66142,0,4.7650263992,9.1992457012,25,5,15.76,195.0533546669,141.404204,0,4.7650263992,0,0,-13.42164,277.4, -1.8, 0.5,0,0,1024,1024,1684,1024,0,0,100,0,277.4,-79,0,79,3.929,3.937,3.937,3.936,0,0,11.719,75.02,195.0533546669,141.404204,6,P-GPS,
16700,2023-07-19 16:49:00,52.2063788045004,0.0867336560249777,145.669296,145.669296,53.649150666904,199.3184466669,83.66142,0,4.8279857188,9.262303446,24,5,15.76,199.3184466669,145.669296,0,4.8279857188,0,0,-13.197946,277.4, -2, 0.5,0,0,1024,1024,1664,1024,0,0,97,0,277.4,-74.1,0,79,3.929,3.937,3.937,3.936,0,0,11.719,75.02,199.3184466669,145.669296,6,P-GPS,
16900,2023-07-19 16:49:00,52.2063788865925,0.0867337483540276,149.934388,149.934388,53.649150666904,203.5835386669,83.66142,0,4.8642390008,9.2986879616,24,5,15.723,203.5835386669,149.934388,0,4.8642390008,0,0,-13.197946,277.3, -2.3, 1.3,0,0,1024,1024,1670,1024,0,0,98,0,277.3,-13.2,0,79,3.93,3.936,3.934,3.933,0,0,12.211,75.2,203.5835386669,149.934388,6,P-GPS,
17100,2023-07-19 16:49:01,52.2063789614702,0.0867337740141887,153.543312,153.543312,53.649150666904,207.1924626669,83.66142,0,4.8908138048,9.3265751016,25,5,15.723,207.1924626669,153.543312,0,4.8908138048,0,0,-12.750558,277.4, -2.2, 1.4,0,0,1024,1024,1675,1024,0,0,99,0,277.3,-1,0,79,3.93,3.936,3.934,3.933,0,0,12.211,75.2,207.1924626669,153.543312,6,P-GPS,
17300,2023-07-19 16:49:01,52.2063790347374,0.0867337644269045,157.48032,157.48032,53.649150666904,211.1294706669,83.66142,0,4.9129922832,9.3534123728,24,5,15.723,211.1294706669,157.48032,0,4.9129922832,0,0,-12.750558,277.3, -1.9, 1.7,0,0,1024,1024,1672,1024,0,0,98,0,277.3,-3.4,0,79,3.93,3.936,3.934,3.933,0,0,12.211,75.2,211.1294706669,157.48032,6,P-GPS,
17500,2023-07-19 16:49:01,52.2063791056615,0.0867337783583039,161.089244,161.089244,53.649150666904,214.7383946669,83.66142,0,4.9370408404,9.3794622424,24,5,15.723,214.7383946669,161.089244,0,4.9370408404,0,0,-12.974252,277.3, -2.5, 1.5,0,0,1024,1024,1675,1024,0,0,99,0,277.3,-6.3,0,79,3.93,3.936,3.934,3.933,0,0,12.211,75.2,214.7383946669,161.089244,6,P-GPS,
17700,2023-07-19 16:49:01,52.2063791707923,0.0867337551856119,164.698168,164.698168,53.649150666904,218.3473186669,83.66142,0,4.955216694,9.4037732668,24,5,15.723,218.3473186669,164.698168,0,4.955216694,0,0,-12.974252,277.2, -2.2, 1.2,0,0,1024,1024,1675,1024,0,0,99,0,277.3,-9.2,0,79,3.93,3.936,3.934,3.933,0,0,12.211,75.2,218.3473186669,164.698168,6,P-GPS,
17900,2023-07-19 16:49:02,52.2063792302914,0.086733701397916,168.307092,168.307092,53.649150666904,221.9562426669,83.66142,0,4.968340054,9.4286092256,24,5,15.758,221.9562426669,168.307092,0,4.968340054,0,0,-12.974252,277.3, -1.8, 1.2,0,0,1024,1024,1670,1024,0,0,98,0,277.3,-12.1,0,79,3.922,3.933,3.934,3.931,0,0,11.764,75.2,221.9562426669,168.307092,6,P-GPS,
18100,2023-07-19 16:49:02,52.2063792655195,0.086733649572586,171.916016,171.916016,53.649150666904,225.5651666669,83.66142,0,4.9739830988,9.4458992524,24,5,15.758,225.5651666669,171.916016,0,4.9739830988,0,0,-12.974252,277.4, -1.8, 1.3,0,0,1024,1024,1671,1024,0,0,98,0,277.3,-15,0,79,3.922,3.933,3.934,3.931,0,0,11.764,75.2,225.5651666669,171.916016,6,P-GPS,
18300,2023-07-19 16:49:02,52.2063792717315,0.0867336171053046,175.196856,175.196856,53.649150666904,228.8460066669,83.66142,0,4.9725067208,9.4535108012,24,5,15.758,228.8460066669,175.196856,0,4.9739830988,0,0,-12.974252,277.4, -1.9, 1.8,0,0,1024,1024,1679,1024,0,0,99,0,277.3,-18,0,79,3.922,3.933,3.934,3.931,0,0,11.764,75.2,228.8460066669,175.196856,6,P-GPS,
18500,2023-07-19 16:49:02,52.2063792748756,0.0867335878733931,178.80578,178.80578,53.649150666904,232.4549306669,83.66142,0,4.9703741748,9.460138098,24,5,15.758,232.4549306669,178.80578,0,4.9739830988,0,0,-12.974252,277.4, -1.6, 1.6,0,0,1024,1024,1680,1024,0,0,99,0,277.3,-20.9,0,79,3.922,3.933,3.934,3.931,0,0,11.764,75.2,232.4549306669,178.80578,6,P-GPS,
18700,2023-07-19 16:49:02,52.2063792796527,0.086733574854153,182.08662,182.08662,53.649150666904,235.7357706669,83.66142,0,4.9705054084,9.4635501716,26,5,15.758,235.7357706669,182.08662,0,4.9739830988,0,0,-13.197946,277.5, -1.4, 1.8,0,0,1024,1024,1684,1024,0,0,100,0,277.3,-23.8,0,79,3.922,3.933,3.934,3.931,0,0,11.764,75.2,235.7357706669,182.08662,6,P-GPS,
18900,2023-07-19 16:49:02,52.2063793071952,0.0867335837957612,186.023628,186.023628,53.649150666904,239.6727786669,83.66142,0,4.9802823116,9.4737863924,26,5,15.71,239.6727786669,186.023628,0,4.9802823116,0,0,-13.197946,277.4, -1.5, 1.3,0,0,1024,1024,1684,1024,0,0,100,0,277.3,-26.7,0,79,3.921,3.921,3.919,3.921,0,0,12.099,75.38,239.6727786669,186.023628,6,P-GPS,
19100,2023-07-19 16:49:03,52.2063793293695,0.0867336065630491,189.632552,189.632552,53.649150666904,243.2817026669,83.66142,0,4.989829556,9.4833336368,26,5,15.71,243.2817026669,189.632552,0,4.989829556,0,0,-13.42164,277.2, -1.4, 1.4,0,0,1024,1024,1684,1024,0,0,100,0,277.3,-29.6,0,79,3.921,3.921,3.919,3.921,0,0,12.099,75.38,243.2817026669,189.632552,6,P-GPS,
19300,2023-07-19 16:49:03,52.2063793317532,0.0867336677388862,193.241476,193.241476,53.649150666904,246.8906266669,83.66142,0,4.9971458292,9.497047548,26,5,15.71,246.8906266669,193.241476,0,4.9971458292,0,0,-13.42164,277.4, -2.2, 2,0,0,1024,1024,1583,1024,0,0,85,0,277.3,-32.5,0,79,3.921,3.921,3.919,3.921,0,0,12.099,75.38,246.8906266669,193.241476,6,P-GPS,
19500,2023-07-19 16:49:03,52.2063793519957,0.0867337181461754,197.178484,197.178484,53.649150666904,250.8276346669,83.66142,0,5.00902247,9.5105318004,26,5,15.71,250.8276346669,197.178484,0,5.00902247,0,0,-13.197946,277.4, -2.1, 1.9,0,0,1024,1024,1517,1024,0,0,75,0,277.3,-35.4,0,79,3.921,3.921,3.919,3.921,0,0,12.099,75.38,250.8276346669,197.178484,6,P-GPS,
19700,2023-07-19 16:49:03,52.2063793783399,0.0867337494112237,200.787408,200.787408,53.649150666904,254.4365586669,83.66142,0,5.020833494,9.5224084412,26,5,15.71,254.4365586669,200.787408,0,5.020833494,0,0,-11.632088,277.3, -3.4, 1.9,0,0,1024,1024,1505,1024,0,0,73,0,277.3,-37.8,0,79,3.921,3.921,3.919,3.921,0,0,12.099,75.38,254.4365586669,200.787408,6,P-GPS,
19900,2023-07-19 16:49:03,52.2063793951278,0.0867337365247885,203.41208,203.41208,53.649150666904,257.0612306669,83.66142,0,5.0248033104,9.5291669716,26,5,15.676,257.0612306669,203.41208,0,5.0248033104,0,0,-9.395148,277.2, -2.5, 2.3,0,0,1024,1024,1510,1024,0,0,74,0,277.3,-39.4,0,79,3.92,3.927,3.924,3.923,0,0,12.227,75.56,257.0612306669,203.41208,6,P-GPS,
20100,2023-07-19 16:49:04,52.2063794054005,0.0867337026761623,205.708668,205.708668,53.649150666904,259.3578186669,83.66142,0,5.0244752264,9.5376315388,26,5,15.676,259.3578186669,205.708668,0,5.0248033104,0,0,-7.82929,277.4, -1.5, 1.7,0,0,1024,1024,1518,1024,0,0,75,0,277.3,-40.8,0,79,3.92,3.927,3.924,3.923,0,0,12.227,75.56,259.3578186669,205.708668,6,P-GPS,
20300,2023-07-19 16:49:04,52.2063793972181,0.0867337160518785,207.677172,207.677172,53.649150666904,261.3263226669,83.66142,0,5.0232613156,9.5418638224,26,5,15.676,261.3263226669,207.677172,0,5.0248033104,0,0,-7.158208,277.3, -1.6, 1.3,0,0,1024,1024,1513,1024,0,0,74,0,277.3,-42,0,79,3.92,3.927,3.924,3.923,0,0,12.227,75.56,261.3263226669,207.677172,6,P-GPS,
20500,2023-07-19 16:49:04,52.2063793645461,0.0867337710418073,209.645676,209.645676,53.649150666904,263.2948266669,83.66142,0,5.0187337564,9.5589898072,26,5,15.676,263.2948266669,209.645676,0,5.0248033104,0,0,-7.158208,277.2, -1.7, 0.1,0,0,1024,1024,1508,1024,0,0,73,0,277.3,-43.1,0,79,3.92,3.927,3.924,3.923,0,0,12.227,75.56,263.2948266669,209.645676,6,P-GPS,
20700,2023-07-19 16:49:04,52.2063792594809,0.0867338223752353,211.286096,211.286096,53.649150666904,264.9352466669,83.66142,0,4.990813808,9.5989832468,26,5,15.676,264.9352466669,211.286096,0,5.0248033104,0,0,-7.158208,277.4, -1.7, -1,0,0,1024,1024,1523,1024,0,0,76,0,277.3,-44.2,0,79,3.92,3.927,3.924,3.923,0,0,12.227,75.56,264.9352466669,211.286096,6,P-GPS,
20900,2023-07-19 16:49:04,52.2063789866772,0.0867338615980877,213.582684,213.582684,53.649150666904,267.2318346669,83.66142,0,4.9085303408,9.6989176332,26,5,16.044,267.2318346669,213.582684,0,5.0248033104,0,0,-7.158208,277.3, -1.5, -0.7,0,0,1024,1024,1520,1024,0,0,75,0,277.3,-45.3,0,79,3.959,3.96,3.958,3.96,0,0,8.303,75.74,267.2318346669,213.582684,6,P-GPS,
21100,2023-07-19 16:49:05,52.2063785597383,0.0867338979979642,215.551188,215.551188,53.649150666904,269.2003386669,83.66142,0,4.778215376,9.8548887668,26,5,16.044,269.2003386669,215.551188,0,5.0248033104,0,0,-7.381902,277.4, -1.7, 0,0,0,1024,1024,1521,1024,0,0,75,0,277.3,-46.4,0,79,3.959,3.96,3.958,3.96,0,0,8.303,75.74,269.2003386669,215.551188,6,P-GPS,
21300,2023-07-19 16:49:05,52.2063780657003,0.0867339302310897,217.847776,217.847776,53.649150666904,271.4969266669,83.66142,0.223694,4.6282481796,10.03526935,26,5,16.044,271.4969266669,217.847776,0.223694,5.0248033104,-0.223694,0,-7.381902,277.8, -1.7, 1,0,0,1024,1024,1523,1024,0,0,76,0,277.3,-47.5,0,79,3.959,3.96,3.958,3.96,0,0,8.303,75.74,271.4969266669,217.847776,6,P-GPS,
21500,2023-07-19 16:49:05,52.2063775368701,0.0867339302625435,220.144364,220.144364,53.649150666904,273.7935146669,83.66142,0.223694,4.4659778332,10.2282155504,26,5,16.044,273.7935146669,220.144364,0.223694,5.0248033104,-0.223694,0,-7.381902,278.3, -1.5, 2.9,0,0,1024,1024,1507,1024,0,0,73,0,277.3,-48.6,0,79,3.959,3.96,3.958,3.96,0,0,8.303,75.74,273.7935146669,220.144364,6,P-GPS,
21700,2023-07-19 16:49:05,52.2063770965272,0.0867339376480637,222.112868,222.112868,53.649150666904,275.7620186669,83.66142,0,4.3337271728,10.3889110936,26,5,16.044,275.7620186669,222.112868,0.223694,5.0248033104,0,0,-7.381902,278.3, -1.5, 3.4,0,0,1024,1024,1374,1024,0,0,53,0,277.3,-49.6,0,79,3.959,3.96,3.958,3.96,0,0,8.303,75.74,275.7620186669,222.112868,6,P-GPS,
21900,2023-07-19 16:49:05,52.2063767857595,0.0867339710991491,224.409456,224.409456,53.649150666904,278.0586066669,83.66142,0,4.2452101096,10.5025265828,26,5,15.828,278.0586066669,224.409456,0.223694,5.0248033104,0,0,-7.158208,278.2, -1.7, 3.4,0,0,1024,1024,1024,1024,0,0,0,0,277.3,-50.7,0,79,3.957,3.962,3.961,3.958,0,0,9.079,75.74,278.0586066669,224.409456,6,P-GPS,
22100,2023-07-19 16:49:06,52.2063765856993,0.0867340291514521,226.049876,226.049876,53.649150666904,279.6990266669,83.66142,0,4.1937009216,10.5766735668,25,5,15.828,279.6990266669,226.049876,0.223694,5.0248033104,0,0,-5.368656,278.2, -2.1, 3.1,0,0,1024,1024,1024,1024,0,0,0,0,277.3,-51.7,0,79,3.957,3.962,3.961,3.958,0,0,9.079,75.74,279.6990266669,226.049876,6,P-GPS,
22300,2023-07-19 16:49:06,52.2063764234994,0.0867340894841534,227.034128,227.034128,53.649150666904,280.6832786669,83.66142,0,4.1542324164,10.6373691068,25,5,15.828,280.6832786669,227.034128,0.223694,5.0248033104,0,0,-2.908022,278.1, -2.3, 3.4,0,0,1024,1024,1024,1024,0,0,0,0,277.3,-52.2,0,79,3.957,3.962,3.961,3.958,0,0,9.079,75.74,280.6832786669,227.034128,6,P-GPS,
22500,2023-07-19 16:49:06,52.206376283659,0.0867341522527745,227.690296,227.690296,53.649150666904,281.3394466669,83.66142,0,4.1220801844,10.690289056,25,5,15.828,281.3394466669,227.690296,0.223694,5.0248033104,0,0,-0.894776,278.2, -1.8, 3.4,0,0,1024,1024,1024,1024,0,0,0,0,277.3,-52.3,0,79,3.957,3.962,3.961,3.958,0,0,9.079,75.74,281.3394466669,227.690296,6,P-GPS,
22700,2023-07-19 16:49:06,52.2063762182241,0.0867342232666523,227.690296,227.690296,53.649150666904,281.3394466669,83.66142,0,4.1128938324,10.7189307892,25,5,15.828,281.3394466669,227.690296,0.223694,5.0248033104,0,0,0,278.1, -1.2, 1.6,0,0,1024,1024,1024,1024,0,0,0,0,277.3,-52.3,0,79,3.957,3.962,3.961,3.958,0,0,9.079,75.74,281.3394466669,227.690296,6,P-GPS,
22900,2023-07-19 16:49:06,52.2063761690261,0.0867343227951209,227.690296,227.690296,53.649150666904,281.3394466669,83.66142,0.223694,4.1124673232,10.747539714,25,5,15.956,281.3394466669,227.690296,0.223694,5.0248033104,0.223694,0,0,278, -1, -0.3,0,0,1024,1024,1024,1024,0,0,0,0,277.3,-52.3,0,79,4.032,4.03,4.025,4.014,0,0,7.98,76.1,281.3394466669,227.690296,6,P-GPS,
23100,2023-07-19 16:49:07,52.2063760381783,0.0867344636346228,227.690296,227.690296,53.649150666904,281.3394466669,83.66142,0,4.0948492124,10.8047247552,25,5,15.956,281.3394466669,227.690296,0.223694,5.0248033104,0,0,0,278.1, -1.3, -1.7,0,0,1024,1024,1024,1024,0,0,0,0,277.3,-52.3,0,79,4.032,4.03,4.025,4.014,0,0,7.98,76.1,281.3394466669,227.690296,6,P-GPS,
23300,2023-07-19 16:49:07,52.2063757740647,0.086734532248403,227.690296,227.690296,53.649150666904,281.3394466669,83.66142,0,4.0302822812,10.9022969368,25,5,15.956,281.3394466669,227.690296,0.223694,5.0248033104,0,0,0,278, -1.3, -0.9,0,0,1024,1024,1024,1024,0,0,0,0,277.3,-52.3,0,79,4.032,4.03,4.025,4.014,0,0,7.98,76.1,281.3394466669,227.690296,6,P-GPS,
23500,2023-07-19 16:49:07,52.2063753686522,0.0867345768821778,227.690296,227.690296,53.649150666904,281.3394466669,83.66142,0,3.9248360836,11.0505580964,26,5,15.956,281.3394466669,227.690296,0.223694,5.0248033104,0,0,0,278, -1.5, 0.7,0,0,1024,1024,1024,1024,0,0,0,0,277.3,-52.3,0,79,4.032,4.03,4.025,4.014,0,0,7.98,76.1,281.3394466669,227.690296,6,P-GPS,
23700,2023-07-19 16:49:07,52.2063748900244,0.0867346187812219,227.690296,227.690296,53.649150666904,281.3394466669,83.66142,0,3.8023623264,11.2254268684,26,5,15.956,281.3394466669,227.690296,0.223694,5.0248033104,0,0,0,278.1, -1.4, 2.2,0,0,1024,1024,1024,1024,0,0,0,0,277.3,-52.3,0,79,4.032,4.03,4.025,4.014,0,0,7.98,76.1,281.3394466669,227.690296,6,P-GPS,
23900,2023-07-19 16:49:07,52.2063744351339,0.0867346630122136,227.690296,227.690296,53.649150666904,281.3394466669,83.66142,0,3.6905841076,11.3916998396,26,5,15.939,281.3394466669,227.690296,0.223694,5.0248033104,0,0,0,278.1, -1.4, 2.7,0,0,1024,1024,1024,1024,0,0,0,0,277.3,-52.3,0,79,3.984,3.988,3.989,3.987,0,0,5.916,76.1,281.3394466669,227.690296,6,P-GPS,
24100,2023-07-19 16:49:08,52.2063740359233,0.0867347085598952,227.690296,227.690296,53.649150666904,281.3394466669,83.66142,0,3.5970473592,11.5376972196,26,5,15.939,281.3394466669,227.690296,0.223694,5.0248033104,0,0,0,278.2, -1.3, 3,0,0,1024,1024,1024,1024,0,0,0,0,277.3,-52.3,0,79,3.984,3.988,3.989,3.987,0,0,5.916,76.1,281.3394466669,227.690296,6,P-GPS,
24300,2023-07-19 16:49:08,52.2063736981345,0.0867347446801826,227.690296,227.690296,53.649150666904,281.3394466669,83.66142,0,3.5203085116,11.6612208456,26,5,15.939,281.3394466669,227.690296,0.223694,5.0248033104,0,0,0,278.2, -1.5, 3.2,0,0,1024,1024,1024,1024,0,0,0,0,277.3,-52.3,0,79,3.984,3.988,3.989,3.987,0,0,5.916,76.1,281.3394466669,227.690296,6,P-GPS,
24500,2023-07-19 16:49:08,52.2063734335191,0.086734815528928,227.690296,227.690296,53.649150666904,281.3394466669,83.66142,0,3.4693570664,11.7590554944,26,5,15.939,281.3394466669,227.690296,0.223694,5.0248033104,0,0,0,278.2, -1.9, 3.4,0,0,1024,1024,891,1024,0,0,-20,0,277.3,-52.3,0,79,3.984,3.988,3.989,3.987,0,0,5.916,76.1,281.3394466669,227.690296,6,P-GPS,
24700,2023-07-19 16:49:08,52.2063732481592,0.0867348879276454,227.690296,227.690296,53.649150666904,281.3394466669,83.66142,0,3.438812446,11.828576494,26,5,15.939,281.3394466669,227.690296,0.223694,5.0248033104,0,0,0,278.2, -2.1, 3.4,0,0,1024,1024,364,1024,0,0,-100,0,277.3,-52.3,0,79,3.984,3.988,3.989,3.987,0,0,5.916,76.1,281.3394466669,227.690296,6,P-GPS,
24900,2023-07-19 16:49:08,52.2063731368198,0.0867349477081583,227.690296,227.690296,53.649150666904,281.3394466669,83.66142,0,3.423884624,11.8713586476,26,5,15.944,281.3394466669,227.690296,0.223694,5.0248033104,0,0,0.894776,278.1, -2.6, 3.8,0,0,1024,1024,364,1024,0,0,-100,0,277.3,-52.3,0,79,3.985,3.989,3.988,3.986,0,0,7.273,76.1,281.3394466669,227.690296,6,P-GPS,
25100,2023-07-19 16:49:09,52.2063730537173,0.0867350159654625,227.034128,227.034128,53.649150666904,280.6832786669,83.66142,0,3.4172245188,11.9052825332,26,5,15.944,281.3394466669,227.690296,0.223694,5.0248033104,0,0,3.131716,278.1, -2.7, 4.2,0,0,1024,1024,364,1024,0,0,-100,0,277.3,-52.3,0,79,3.985,3.989,3.988,3.986,0,0,7.273,76.1,280.6832786669,227.034128,6,P-GPS,
25300,2023-07-19 16:49:09,52.2063730306852,0.0867350893549737,225.721792,225.721792,53.649150666904,279.3709426669,83.66142,0.223694,3.4250985348,11.923720854,26,5,15.944,281.3394466669,227.690296,0.223694,5.0248033104,0.223694,0,5.59235,277.9, -3.8, 2.5,0,0,1024,1024,364,1024,0,0,-100,0,277.3,-52.3,0,79,3.985,3.989,3.988,3.986,0,0,7.273,76.1,279.3709426669,225.721792,6,P-GPS,
25500,2023-07-19 16:49:09,52.2063730374841,0.0867350948017184,223.09712,223.09712,53.649150666904,276.7462706669,83.66142,0.223694,3.4275591648,11.9264767596,26,5,15.944,281.3394466669,227.690296,0.223694,5.0248033104,0.223694,0,8.052984,278.1, -3.1, 1.2,0,0,1024,1024,364,1024,0,0,-100,0,277.3,-52.3,0,79,3.985,3.989,3.988,3.986,0,0,7.273,76.1,276.7462706669,223.09712,6,P-GPS,
25700,2023-07-19 16:49:09,52.2063730462775,0.0867350606394282,219.488196,219.488196,53.649150666904,273.1373466669,83.66142,0.223694,3.4234581148,11.9347772848,26,5,15.944,281.3394466669,227.690296,0.223694,5.0248033104,0.223694,0,10.289924,278.4, -2.1, -1,0,0,1024,1024,364,1024,0,0,-100,0,277.3,-52.3,0,79,3.985,3.989,3.988,3.986,0,0,7.273,76.1,273.1373466669,219.488196,6,P-GPS,
25900,2023-07-19 16:49:09,52.2063730100648,0.0867350334319163,214.89502,214.89502,53.649150666904,268.5441706669,83.66142,0.447388,3.410597222,11.949311406,26,5,16.127,281.3394466669,227.690296,0.447388,5.0248033104,0.447388,0,12.30317,278.9, -0.8, -4.4,0,0,1024,1024,364,1024,0,0,-100,0,277.3,-52.3,0,79,4.045,4.052,4.048,4.045,0,0,5.782,76.28,268.5441706669,214.89502,6,P-GPS,
26100,2023-07-19 16:49:10,52.2063728120333,0.0867349986073495,209.97376,209.97376,53.649150666904,263.6229106669,83.66142,0.223694,3.3608268792,12.021982012,26,5,16.127,281.3394466669,227.690296,0.447388,5.0248033104,0.223694,0,13.197946,279.5, 0.8, -7,0,0,1024,1024,364,1024,0,0,-100,0,277.3,-52.3,0,79,4.045,4.052,4.048,4.045,0,0,5.782,76.28,263.6229106669,209.97376,6,P-GPS,
26300,2023-07-19 16:49:10,52.2063722557784,0.0867349813016595,205.0525,205.0525,53.649150666904,258.7016506669,83.66142,0,3.24068579924,12.2249675828,26,5,16.127,281.3394466669,227.690296,0.447388,5.0248033104,0,0,13.42164,279.4, 1, -6.9,0,0,1024,1024,364,1024,0,0,-100,0,277.3,-52.3,0,79,4.045,4.052,4.048,4.045,0,0,5.782,76.28,258.7016506669,205.0525,6,P-GPS,
26500,2023-07-19 16:49:10,52.2063712839759,0.0867350134360551,200.787408,200.787408,53.649150666904,254.4365586669,83.66142,0.223694,3.06418316892,12.5795935784,26,5,16.127,281.3394466669,227.690296,0.447388,5.0248033104,-0.223694,0,13.42164,279.2, 1.6, -4.6,0,0,1024,1024,364,1024,0,0,-100,0,277.3,-53.3,0,79,4.045,4.052,4.048,4.045,0,0,5.782,76.28,254.4365586669,200.787408,6,P-GPS,
26700,2023-07-19 16:49:10,52.2063700082347,0.086735136111878,196.194232,196.194232,53.649150666904,249.8433826669,83.66142,0.447388,2.89966544712,13.0458665592,26,5,16.127,281.3394466669,227.690296,0.447388,5.0248033104,-0.447388,0,13.42164,279.2, 1.3, -1.5,0,0,1024,1024,364,1024,0,0,-100,0,277.3,-55.8,0,79,4.045,4.052,4.048,4.045,0,0,5.782,76.28,249.8433826669,196.194232,6,P-GPS,
26900,2023-07-19 16:49:10,52.2063685601084,0.0867353279571644,192.257224,192.257224,53.649150666904,245.9063746669,83.66142,0.671082,2.80824812136,13.575951878,26,5,16.115,281.3394466669,227.690296,0.671082,5.0248033104,-0.671082,0,13.197946,278.9, 0.1, 2.7,0,0,1024,1024,364,1024,0,0,-100,0,277.3,-58.7,0,79,4.016,4.021,4.017,4.014,0,0,3.362,76.28,245.9063746669,192.257224,6,P-GPS,
27100,2023-07-19 16:49:11,52.2063671722331,0.0867355701241158,188.320216,188.320216,53.649150666904,241.9693666669,83.66142,0.447388,2.82613854188,14.0852038628,26,5,16.115,281.3394466669,227.690296,0.671082,5.0248033104,-0.447388,0,13.42164,279.9, -0.7, 4.9,0,0,1024,1024,364,1024,0,0,-100,0,277.3,-61.6,0,79,4.016,4.021,4.017,4.014,0,0,3.362,76.28,241.9693666669,188.320216,6,P-GPS,
27300,2023-07-19 16:49:11,52.2063659819436,0.0867357534139765,185.039376,185.039376,53.649150666904,238.6885266669,83.66142,0.223694,2.90781177284,14.5214243492,25,5,16.115,281.3394466669,227.690296,0.671082,5.0248033104,-0.223694,0,13.42164,280.8, -0.4, 5.2,0,0,1024,1024,364,1024,0,0,-100,0,277.3,-64.5,0,79,4.016,4.021,4.017,4.014,0,0,3.362,76.28,238.6885266669,185.039376,6,P-GPS,
27500,2023-07-19 16:49:11,52.2063650698957,0.086735871795486,181.430452,181.430452,53.649150666904,235.0796026669,83.66142,0,3.0071851356,14.8552170108,25,5,16.115,281.3394466669,227.690296,0.671082,5.0248033104,0,0,13.197946,281.1, -0.1, 5.6,0,0,1024,1024,367,1024,0,0,-100,0,277.3,-67.4,0,79,4.016,4.021,4.017,4.014,0,0,3.362,76.28,235.0796026669,181.430452,6,P-GPS,
27700,2023-07-19 16:49:11,52.206364441791,0.0867360091409981,177.821528,177.821528,53.649150666904,231.4706786669,83.66142,0,3.10650600492,15.086450614,25,5,16.115,281.3394466669,227.690296,0.671082,5.0248033104,0,0,13.42164,281.2, -0.4, 5.2,0,0,1024,1024,1097,1024,0,0,11,0,277.3,-70.3,0,79,4.016,4.021,4.017,4.014,0,0,3.362,76.28,231.4706786669,177.821528,6,P-GPS,
27900,2023-07-19 16:49:11,52.2063640738888,0.0867361823560413,174.540688,174.540688,53.649150666904,228.1898386669,83.66142,0.223694,3.1903216244,15.2261487812,25,5,16.063,281.3394466669,227.690296,0.671082,5.0248033104,0.223694,0,12.750558,281.1, 0.7, 3.6,0,0,1024,1024,1024,1024,0,0,0,0,277.3,-73.3,0,79,4.01,4.017,4.014,4.012,0,0,5.28,76.28,228.1898386669,174.540688,6,P-GPS,
28100,2023-07-19 16:49:12,52.2063639443343,0.086736375491806,172.900268,172.900268,53.649150666904,226.5494186669,83.66142,0.223694,3.2480808126,15.2901579696,25,5,16.063,281.3394466669,227.690296,0.671082,5.0248033104,0.223694,0,10.737312,281, -2.2, 1.8,0,0,1024,1024,1024,1024,0,0,0,0,277.4,-76.2,0,79,4.01,4.017,4.014,4.012,0,0,5.28,76.28,226.5494186669,172.900268,6,P-GPS,
28300,2023-07-19 16:49:12,52.2063639580491,0.0867362859857321,174.212604,174.212604,53.649150666904,227.8617546669,83.66142,0.4921268,3.22766742612,15.3107944532,25,5,16.063,281.3394466669,227.690296,0.671082,5.0248033104,0.447388,-0.223694,8.500372,281.4, 0.5, 4.7,0,0,1024,1024,1024,1024,0,0,0,0,277.3,-79.1,0,79,4.01,4.017,4.014,4.012,0,0,5.28,76.28,227.8617546669,174.212604,6,P-GPS,
28500,2023-07-19 16:49:12,52.2063642171088,0.0867363346604427,174.212604,174.212604,53.649150666904,227.8617546669,83.66142,0.4921268,3.20313658544,15.4059388132,26,5,16.063,281.3394466669,227.690296,0.671082,5.0248033104,0.447388,0.223694,6.039738,283.5, 6.4, 1.4,0,0,1024,1024,918,1024,0,0,-16,0,277.3,-82,0,79,4.01,4.017,4.014,4.012,0,0,5.28,76.28,227.8617546669,174.212604,6,P-GPS,
28700,2023-07-19 16:49:12,52.2063644087713,0.086737194340932,173.88452,173.88452,53.649150666904,227.5336706669,83.66142,0.6263432,3.360892496,15.6104663788,26,5,16.063,281.3394466669,227.690296,0.671082,5.0248033104,0.447388,0.447388,3.35541,281.9, -7.9, 4.7,0,0,1024,1024,364,1024,0,0,-100,0,277.3,-84.9,0,79,4.01,4.017,4.014,4.012,0,0,5.28,76.28,227.5336706669,173.88452,6,P-GPS,
28900,2023-07-19 16:49:12,52.2063648882806,0.0867374057836652,171.916016,171.916016,53.649150666904,225.5651666669,83.66142,0.447388,3.3553478764,15.7916999804,26,5,15.83,281.3394466669,227.690296,0.671082,5.0248033104,0.447388,0,2.013246,281.7, -6.9, 3.6,0,0,1024,1024,364,1024,0,0,-100,0,277.3,-87.9,0,79,3.9,3.896,3.9,3.9,0,0,7.394,76.1,225.5651666669,171.916016,6,P-GPS,
29100,2023-07-19 16:49:13,52.2063654602218,0.0867370396425491,170.931764,170.931764,53.649150666904,224.5809146669,83.66142,0.4921268,3.2262632266,16.0158469692,26,5,15.83,281.3394466669,227.690296,0.671082,5.0248033104,0.447388,-0.223694,3.802798,281.6, -2.9, 7.1,0,0,1024,1024,1024,1024,0,0,0,0,277.3,-89.9,0,79,3.9,3.896,3.9,3.9,0,0,7.394,76.1,224.5809146669,170.931764,6,P-GPS,
29300,2023-07-19 16:49:13,52.206366176304,0.086736554506575,169.291344,169.291344,53.649150666904,222.9404946669,83.66142,0.4921268,3.07412083328,16.298720994,26,5,15.83,281.3394466669,227.690296,0.671082,5.0248033104,0.447388,-0.223694,5.144962,282, -1.1, 6.5,0,0,1024,1024,1024,1024,0,0,0,0,277.3,-90,0,79,3.9,3.896,3.9,3.9,0,0,7.394,76.1,222.9404946669,169.291344,6,P-GPS,
29500,2023-07-19 16:49:13,52.2063671372989,0.0867361529188065,168.307092,168.307092,53.649150666904,221.9562426669,83.66142,0.671082,2.95667988464,16.6606632628,26,5,15.83,281.3394466669,227.690296,0.671082,5.0248033104,0.671082,0,3.579104,283.5, 5.6, 5.4,0,0,1024,1024,1024,1024,0,0,0,0,277.3,-89.9,0,79,3.9,3.896,3.9,3.9,0,0,7.394,76.1,221.9562426669,168.307092,6,P-GPS,
29700,2023-07-19 16:49:13,52.2063681956028,0.0867363564351894,167.650924,167.650924,53.649150666904,221.3000746669,83.66142,0.7158208,3.01844169764,17.0494756112,26,5,15.83,281.3394466669,227.690296,0.7158208,5.0248033104,0.671082,0.223694,1.565858,285.1, -1.7, 0.9,0,0,1024,1024,1024,1024,0,0,0,0,277.3,-90,0,79,3.9,3.896,3.9,3.9,0,0,7.394,76.1,221.3000746669,167.650924,6,P-GPS,
29900,2023-07-19 16:49:13,52.2063691679361,0.0867366083606733,167.650924,167.650924,53.649150666904,221.3000746669,83.66142,0.671082,3.13131243616,17.4086619744,26,5,16.02,281.3394466669,227.690296,0.7158208,5.0248033104,0.671082,0,0.223694,284.8, -3, -1.8,0,0,1024,1024,1024,1024,0,0,0,0,277.3,-89.9,0,78,3.94,3.947,3.945,3.931,0,0,10.493,76.28,221.3000746669,167.650924,6,P-GPS,
30100,2023-07-19 16:49:14,52.2063699153579,0.0867365802095482,167.32284,167.32284,53.649150666904,220.9719906669,83.66142,0.447388,3.19515102088,17.681431012,26,5,16.02,281.3394466669,227.690296,0.7158208,5.0248033104,0.447388,0,0,284.9, -1.5, -0.6,0,0,1024,1024,1024,1024,0,0,0,0,277.3,-90,0,78,3.94,3.947,3.945,3.931,0,0,10.493,76.28,220.9719906669,167.32284,6,P-GPS,
30300,2023-07-19 16:49:14,52.2063705342624,0.0867364679903568,167.32284,167.32284,53.649150666904,220.9719906669,83.66142,0.223694,3.24581375216,17.908629182,26,5,16.02,281.3394466669,227.690296,0.7158208,5.0248033104,0.223694,0,0,285.1, -0.9, 1,0,0,1024,1024,1024,1024,0,0,0,0,277.3,-90,0,78,3.94,3.947,3.945,3.931,0,0,10.493,76.28,220.9719906669,167.32284,6,P-GPS,
30500,2023-07-19 16:49:14,52.2063711021447,0.0867363676571959,167.32284,167.32284,53.649150666904,220.9719906669,83.66142,0,3.3059056176,18.1170281388,26,5,16.02,281.3394466669,227.690296,0.7158208,5.0248033104,0,0,0,285.3, -0.7, 1.4,0,0,1024,1024,987,1024,0,0,-6,0,277.3,-90,0,78,3.94,3.947,3.945,3.931,0,0,10.493,76.28,220.9719906669,167.32284,6,P-GPS,
30700,2023-07-19 16:49:14,52.2063716456987,0.0867363434342974,167.32284,167.32284,53.649150666904,220.9719906669,83.66142,0,3.3887140192,18.3154205336,26,5,16.02,281.3394466669,227.690296,0.7158208,5.0248033104,0,0,0,285.3, -1.3, 0.4,0,0,1024,1024,364,1024,0,0,-100,0,277.3,-90,0,78,3.94,3.947,3.945,3.931,0,0,10.493,76.28,220.9719906669,167.32284,6,P-GPS,
30900,2023-07-19 16:49:14,52.2063721451458,0.0867363419620862,167.32284,167.32284,53.649150666904,220.9719906669,83.66142,0,3.4770670404,18.4976383872,26,5,15.85,281.3394466669,227.690296,0.7158208,5.0248033104,0,0,0.671082,285.6, -2.1, 0.3,0,0,1024,1024,364,1024,0,0,-100,0,277.3,-90,0,78,3.981,3.983,3.983,3.983,0,0,10.124,76.46,220.9719906669,167.32284,6,P-GPS,
31100,2023-07-19 16:49:15,52.2063726345956,0.0867363526790849,166.666672,166.666672,53.649150666904,220.3158226669,83.66142,0,3.57283476,18.6762473168,26,5,15.85,281.3394466669,227.690296,0.7158208,5.0248033104,0,0,2.908022,285.4, -1.3, -0.6,0,0,1024,1024,364,1024,0,0,-100,0,277.3,-90,0,78,3.981,3.983,3.983,3.983,0,0,10.124,76.46,220.3158226669,166.666672,6,P-GPS,
31300,2023-07-19 16:49:15,52.2063731127998,0.0867363499260062,165.026252,165.026252,53.649150666904,218.6754026669,83.66142,0,3.6699804324,18.850722388,26,5,15.85,281.3394466669,227.690296,0.7158208,5.0248033104,0,0,5.144962,285.2, -2.1, -3.7,0,0,1024,1024,364,1024,0,0,-100,0,277.3,-90,0,78,3.981,3.983,3.983,3.983,0,0,10.124,76.46,218.6754026669,165.026252,6,P-GPS,
31500,2023-07-19 16:49:15,52.2063735470865,0.0867362780445286,162.073496,162.073496,53.649150666904,215.7226466669,83.66142,0,3.750656288,19.0099743616,25,5,15.85,281.3394466669,227.690296,0.7158208,5.0248033104,0,0,7.605596,285.4, -1.2, -5.3,0,0,1024,1024,364,1024,0,0,-100,0,277.3,-90,0,78,3.981,3.983,3.983,3.983,0,0,10.124,76.46,215.7226466669,162.073496,6,P-GPS,
31700,2023-07-19 16:49:15,52.2063738544131,0.0867361605017865,156.824152,156.824152,53.649150666904,210.4733026669,83.66142,0,3.7991471032,19.1251318456,25,5,15.85,281.3394466669,227.690296,0.7158208,5.0248033104,0,0,10.06623,285.5, -0.3, -7.7,0,0,1024,1024,364,1024,0,0,-100,0,277.3,-89.9,0,78,3.981,3.983,3.983,3.983,0,0,10.124,76.46,210.4733026669,156.824152,6,P-GPS,
31900,2023-07-19 16:49:15,52.2063739390201,0.0867360524563357,151.574808,151.574808,53.649150666904,205.2239586669,83.66142,0,3.7999016964,19.1643378836,25,5,16.109,281.3394466669,227.690296,0.7158208,5.0248033104,0,0,12.30317,285.4, 0.3, -9.5,0,0,1024,1024,364,1024,0,0,-100,0,277.3,-90,0,78,4.044,4.049,4.043,4.042,0,0,5.716,76.46,205.2239586669,151.574808,6,P-GPS,
32100,2023-07-19 16:49:16,52.2063736870869,0.0867359332430487,145.99738,145.99738,53.649150666904,199.6465306669,83.66142,0.223694,3.72129277,19.2600399864,25,5,16.109,281.3394466669,227.690296,0.7158208,5.0248033104,-0.223694,0,13.197946,285.4, 1.3, -8.7,0,0,1024,1024,364,1024,0,0,-100,0,277.3,-90,0,78,4.044,4.049,4.043,4.042,0,0,5.716,76.46,199.6465306669,145.99738,6,P-GPS,
32300,2023-07-19 16:49:16,52.2063729580306,0.0867358022870207,140.748036,140.748036,53.649150666904,194.3971866669,83.66142,0.671082,3.5374344964,19.5276581052,25,5,16.109,281.3394466669,227.690296,0.7158208,5.0248033104,-0.671082,0,13.197946,285.4, 0, -5.8,0,0,1024,1024,364,1024,0,0,-100,0,277.3,-90,0,78,4.044,4.049,4.043,4.042,0,0,5.716,76.46,194.3971866669,140.748036,6,P-GPS,
32500,2023-07-19 16:49:16,52.206371861168,0.0867356170811011,135.498692,135.498692,53.649150666904,189.1478426669,83.66142,0.894776,3.2848426248,19.929954706,25,5,16.109,281.3394466669,227.690296,0.894776,5.0248033104,-0.894776,0,13.42164,285.4, -0.3, -2,0,0,1024,1024,853,1024,0,0,-26,0,277.3,-89.9,0,78,4.044,4.049,4.043,4.042,0,0,5.716,76.46,189.1478426669,135.498692,6,P-GPS,
