time(millisecond),datetime(utc),latitude,longitude,height_above_takeoff(feet),height_above_ground_at_drone_location(feet),ground_elevation_at_drone_location(feet),altitude_above_seaLevel(feet),height_sonar(feet),speed(mph),distance(feet),mileage(feet),satellites,gpslevel,voltage(v),max_altitude(feet),max_ascent(feet),max_speed(mph),max_distance(feet), xSpeed(mph), ySpeed(mph), zSpeed(mph), compass_heading(degrees), pitch(degrees), roll(degrees),isPhoto,isVideo,rc_elevator,rc_aileron,rc_throttle,rc_rudder,rc_elevator(percent),rc_aileron(percent),rc_throttle(percent),rc_rudder(percent),gimbal_heading(degrees),gimbal_pitch(degrees),gimbal_roll(degrees),battery_percent,voltageCell1,voltageCell2,voltageCell3,voltageCell4,voltageCell5,voltageCell6,current(A),battery_temperature(f),altitude(feet),ascent(feet),flycStateRaw,flycState,message
100,2023-07-27 14:53:33,52.2063459213481,0.0864885894724309,0,0,52.506024317988,52.506024317988,2.624672,0,0,0,23,5,0,52.506024317988,0,0,0,0,0,0,289.7, 7.9, 4.9,0,0,1024,1024,1024,1024,0,0,0,0,287.6,0,-0.1,63,3.916,3.921,3.919,3.917,0,0,0,73.22,52.506024317988,0,41,Motors_Started,"Aircraft not in flight. Vision systems and obstacle avoidance disabled (Code: 180059)"
300,2023-07-27 14:53:33,52.2063468925923,0.0864876659314915,0,0,52.506024317988,52.506024317988,2.624672,0,0.41013124672,0.41013124672,23,5,0,52.506024317988,0,0,0.41013124672,0,0,0,289.8, 7.3, 2.8,0,0,1024,1024,1024,1024,0,0,0,0,287.9,0,0,63,3.916,3.921,3.919,3.917,0,0,0,73.22,52.506024317988,0,41,Motors_Started,"Setting new Return-To-Home altitude to 26m (85 ft). Data Recorder File Index is 75. Setting new Maximum Flight Altitude to 120m (394 ft)"
500,2023-07-27 14:53:33,52.2063478073163,0.086486754531738,0,0,52.506024317988,52.506024317988,1.968504,0,0.80112207288,0.80116144296,23,5,0,52.506024317988,0,0,0.80112207288,0,0,0,288.5, 7.8, 2.1,0,0,1024,1024,1024,1024,0,0,0,0,288,0,0,63,3.916,3.921,3.919,3.917,0,0,0,73.22,52.506024317988,0,41,Motors_Started,
700,2023-07-27 14:53:34,52.2063486337968,0.0864859540767014,0,0,52.506024317988,52.506024317988,1.968504,0,1.1517716904,1.15181762216,23,5,0,52.506024317988,0,0,1.1517716904,0,0,0,288.5, 7.4, -0.9,0,0,1024,1024,1024,1024,0,0,0,0,288,0,0,63,3.916,3.921,3.919,3.917,0,0,0,73.22,52.506024317988,0,41,Motors_Started,
900,2023-07-27 14:53:34,52.2063494183679,0.0864852064781115,0,0,52.506024317988,52.506024317988,0,0,1.48324479812,1.48329729156,23,5,0,52.506024317988,0,0,1.48324479812,0,0,0,287.5, 7.1, -2.1,0,0,1024,1024,1024,1024,0,0,0,0,287.9,0,0,63,3.916,3.921,3.919,3.917,0,0,0,73.22,52.506024317988,0,41,Motors_Started,
1100,2023-07-27 14:53:34,52.2063502295521,0.0864845616741967,0,0,52.506024317988,52.506024317988,0,0,1.8115486144,1.81250333884,23,5,15.879,52.506024317988,0,0,1.8115486144,0,0,0,287.6, 6.8, -2.6,0,0,1024,1024,1024,1024,0,0,0,0,287.9,0,0,63,3.916,3.921,3.919,3.917,0,0,1.383,73.22,52.506024317988,0,41,Motors_Started,
1300,2023-07-27 14:53:34,52.2063511446188,0.0864840007087703,0,0,52.506024317988,52.506024317988,0.328084,0,2.16434062044,2.16914705104,23,5,15.879,52.506024317988,0,0,2.16434062044,0,0,0,286.9, 7.1, -0.5,0,0,1024,1024,1024,1024,0,0,0,0,287.9,0,0,63,3.916,3.921,3.919,3.917,0,0,1.383,73.22,52.506024317988,0,41,Motors_Started,
1500,2023-07-27 14:53:34,52.206352057955,0.0864834697013881,0,0,52.506024317988,52.506024317988,0,0,2.514599818,2.52289706236,23,5,15.879,52.506024317988,0,0,2.514599818,0,0,0,287.1, 7, 0.6,0,0,1024,1024,1024,1024,0,0,0,0,287.8,0,0,63,3.916,3.921,3.919,3.917,0,0,1.383,73.22,52.506024317988,0,41,Motors_Started,
1700,2023-07-27 14:53:35,52.2063528681197,0.0864829194302705,0,0,52.506024317988,52.506024317988,0,0,2.83390100932,2.84306767628,23,5,15.879,52.506024317988,0,0,2.83390100932,0,0,0,289.1, 5.2, 0,0,0,1024,1024,1024,1024,0,0,0,0,287.8,0,0,63,3.916,3.921,3.919,3.917,0,0,1.383,73.22,52.506024317988,0,11,AutoTakeoff,
1900,2023-07-27 14:53:35,52.2063535816154,0.0864823328544208,0,0,52.506024317988,52.506024317988,0.328084,0,3.12539051996,3.13455718692,23,5,15.879,52.506024317988,0,0,3.12539051996,0,0,0,288.4, 4.3, -0.2,0,0,1024,1024,1024,1024,0,0,0,0,287.9,0,0,63,3.916,3.921,3.919,3.917,0,0,1.383,73.22,52.506024317988,0,11,AutoTakeoff,
2100,2023-07-27 14:53:35,52.2063543179162,0.0864817428081631,0,0,52.506024317988,52.506024317988,1.64042,0,3.4246720256,3.4338583776,23,5,15.688,52.506024317988,0,0,3.4246720256,0,0,-0.223694,287.6, 3.5, 1.9,0,0,1024,1024,1024,1024,0,0,0,0,287.9,0,0,63,3.928,3.931,3.927,3.922,0,0,3.787,73.22,52.506024317988,0,11,AutoTakeoff,
2300,2023-07-27 14:53:35,52.206355028028,0.0864811913348095,0,0,52.506024317988,52.506024317988,1.64042,0,3.7115486752,3.7207678356,23,5,15.688,52.506024317988,0,0,3.7115486752,0,0,0,288.4, -0.6, 0.9,0,0,1024,1024,1024,1024,0,0,0,0,287.9,0,0,63,3.928,3.931,3.927,3.922,0,0,3.787,73.22,52.506024317988,0,11,AutoTakeoff,
2500,2023-07-27 14:53:35,52.2063559127249,0.0864808280708067,0,0,52.506024317988,52.506024317988,5.577428,0.223694,4.0373360872,4.0536090536,23,5,15.688,52.506024317988,0,0.223694,4.0373360872,0,0.223694,0,288.4, -1.8, -1.4,0,0,1024,1024,1024,1024,0,0,0,0,287.9,0,0,63,3.928,3.931,3.927,3.922,0,0,3.787,73.22,52.506024317988,0,11,AutoTakeoff,
2700,2023-07-27 14:53:36,52.2063568316638,0.0864804231024943,0.328084,0.328084,52.506024317988,52.834108317988,6.233596,0,4.3793964656,4.4008859676,23,5,15.688,52.834108317988,0.328084,0.223694,4.3793964656,0,0,-0.447388,288.7, -2.1, -3,0,0,1024,1024,1024,1024,0,0,0,0,287.9,0,0,63,3.928,3.931,3.927,3.922,0,0,3.787,73.22,52.834108317988,0.328084,6,P-GPS,
2900,2023-07-27 14:53:36,52.2063576999723,0.0864799332891703,0.328084,0.328084,52.506024317988,52.834108317988,6.233596,0,4.7131235104,4.7360893904,23,5,15.688,52.834108317988,0.328084,0.223694,4.7131235104,0,0,-0.223694,288.3, -1.6, -3.5,0,0,1024,1024,1024,1024,0,0,0,0,287.9,0,0,63,3.928,3.931,3.927,3.922,0,0,3.787,73.22,52.834108317988,0.328084,6,P-GPS,
3100,2023-07-27 14:53:36,52.2063584624964,0.0864793871559814,0.328084,0.328084,52.506024317988,52.834108317988,6.233596,0,5.0169621028,5.0399279828,24,5,15.795,52.834108317988,0.328084,0.223694,5.0169621028,0,0,0,288, -1.3, -3.3,0,0,1024,1024,1024,1024,0,0,0,0,287.9,0,0,62,3.879,3.884,3.887,3.886,0,0,3.62,73.22,52.834108317988,0.328084,6,P-GPS,
3300,2023-07-27 14:53:36,52.2063591692157,0.0864787549301115,0.656168,0.656168,52.506024317988,53.162192317988,6.56168,0,5.3101379652,5.3339568636,24,5,15.795,53.162192317988,0.656168,0.223694,5.3101379652,0,0,0,288, -0.4, -2.2,0,0,1024,1024,1024,1024,0,0,0,0,287.9,0,0,62,3.879,3.884,3.887,3.886,0,0,3.62,73.22,53.162192317988,0.656168,6,P-GPS,"Home Point updated (Code: 3000001)"
3500,2023-07-27 14:53:36,52.2063597662613,0.0864782091708738,0.328084,0.328084,52.506024317988,52.834108317988,6.56168,0,5.5589896792,5.583661596,23,5,15.795,53.162192317988,0.656168,0.223694,5.5589896792,0,0,0,288.2, -1.1, -1.1,0,0,1024,1024,1024,1024,0,0,0,0,287.9,0,0,62,3.879,3.884,3.887,3.886,0,0,3.62,73.22,52.834108317988,0.328084,6,P-GPS,
3700,2023-07-27 14:53:37,52.2063603294846,0.0864776968890167,0.328084,0.328084,52.506024317988,52.834108317988,6.56168,0,5.7935697392,5.818897824,23,5,15.795,53.162192317988,0.656168,0.223694,5.7935697392,0,0,0,288.4, -1.9, -0.5,0,0,1024,1024,1024,1024,0,0,0,0,287.9,0,0,62,3.879,3.884,3.887,3.886,0,0,3.62,73.22,52.834108317988,0.328084,6,P-GPS,
3900,2023-07-27 14:53:37,52.2063609080085,0.0864771642425394,0.328084,0.328084,52.506024317988,52.834108317988,6.56168,0,6.0351707968,6.0612534748,23,5,15.795,53.162192317988,0.656168,0.223694,6.0351707968,0,0,0,288.2, -1.9, -0.7,0,0,1024,1024,1024,1024,0,0,0,0,287.9,0,0,62,3.879,3.884,3.887,3.886,0,0,3.62,73.22,52.834108317988,0.328084,6,P-GPS,
4100,2023-07-27 14:53:37,52.2063614751128,0.0864766034588464,0.328084,0.328084,52.506024317988,52.834108317988,6.56168,0,6.275754794,6.3031826164,23,5,15.504,53.162192317988,0.656168,0.223694,6.275754794,0,0,0,288, -1.3, -0.6,0,0,1024,1024,1024,1024,0,0,0,0,287.9,0,0,62,3.873,3.877,3.877,3.876,0,0,7.014,73.22,52.834108317988,0.328084,6,P-GPS,
4300,2023-07-27 14:53:37,52.2063620239866,0.0864760130910604,0.656168,0.656168,52.506024317988,53.162192317988,6.56168,0,6.51328761,6.5430448288,23,5,15.504,53.162192317988,0.656168,0.223694,6.51328761,0,0,0,288.1, -1.4, 0.1,0,0,1024,1024,1024,1024,0,0,0,0,287.9,0,0,62,3.873,3.877,3.877,3.876,0,0,7.014,73.22,53.162192317988,0.656168,6,P-GPS,
4500,2023-07-27 14:53:37,52.2063625742054,0.0864754072374959,0.656168,0.656168,52.506024317988,53.162192317988,6.56168,0,6.752952972,6.7852364376,23,5,15.504,53.162192317988,0.656168,0.223694,6.752952972,0,0,0,288.2, -1.2, 1.2,0,0,1024,1024,1024,1024,0,0,0,0,287.9,0,0,62,3.873,3.877,3.877,3.876,0,0,7.014,73.22,53.162192317988,0.656168,6,P-GPS,
4700,2023-07-27 14:53:38,52.2063631710882,0.086474871927926,0.656168,0.656168,52.506024317988,53.162192317988,6.56168,0,7.0011157096,7.0337272592,23,5,15.504,53.162192317988,0.656168,0.223694,7.0011157096,0,0,0,288, -1.7, 0.6,0,0,1024,1024,1041,1024,0,0,3,0,287.9,0,0,62,3.873,3.877,3.877,3.876,0,0,7.014,73.22,53.162192317988,0.656168,6,P-GPS,
4900,2023-07-27 14:53:38,52.2063637853104,0.086474358440338,0.656168,0.656168,52.506024317988,53.162192317988,6.56168,0,7.2528873712,7.2854989208,23,5,15.504,53.162192317988,0.656168,0.223694,7.2528873712,0,0,0,288, -1.3, 0.5,0,0,1024,1024,1024,1024,0,0,0,0,287.9,0,0,62,3.873,3.877,3.877,3.876,0,0,7.014,73.22,53.162192317988,0.656168,6,P-GPS,
5100,2023-07-27 14:53:38,52.2063643934759,0.0864738589427232,0.656168,0.656168,52.506024317988,53.162192317988,6.56168,0,7.5012797676,7.5339241256,23,5,15.516,53.162192317988,0.656168,0.223694,7.5012797676,0,0,0,288, -1.5, 1.7,0,0,1024,1024,1115,1024,0,0,14,0,287.9,0,0,62,3.87,3.875,3.875,3.874,0,0,7.263,73.22,53.162192317988,0.656168,6,P-GPS,
5300,2023-07-27 14:53:38,52.2063650549961,0.0864733648656552,0.656168,0.656168,52.506024317988,53.162192317988,6.56168,0,7.7666012984,7.7993440816,23,5,15.516,53.162192317988,0.656168,0.223694,7.7666012984,0,0,0,288.3, -2, 1.6,0,0,1024,1024,1024,1024,0,0,0,0,287.9,0,0,62,3.87,3.875,3.875,3.874,0,0,7.263,73.22,53.162192317988,0.656168,6,P-GPS,
5500,2023-07-27 14:53:38,52.2063658175116,0.0864728367135836,0.656168,0.656168,52.506024317988,53.162192317988,6.56168,0.223694,8.0684385784,8.1015750624,23,5,15.516,53.162192317988,0.656168,0.223694,8.0684385784,0.223694,0,0,288.2, -1.2, 0.1,0,0,1024,1024,1024,1024,0,0,0,0,287.9,0,0,62,3.87,3.875,3.875,3.874,0,0,7.263,73.22,53.162192317988,0.656168,6,P-GPS,
5700,2023-07-27 14:53:39,52.2063666294412,0.0864723019387292,0.656168,0.656168,52.506024317988,53.162192317988,6.56168,0.223694,8.3871721844,8.4210304532,23,5,15.516,53.162192317988,0.656168,0.223694,8.3871721844,0.223694,0,0,287.9, -0.5, -1.5,0,0,1024,1024,1268,1024,0,0,37,0,287.9,0,0,62,3.87,3.875,3.875,3.874,0,0,7.263,73.22,53.162192317988,0.656168,6,P-GPS,
5900,2023-07-27 14:53:39,52.2063674019715,0.0864717846731843,0.656168,0.656168,52.506024317988,53.162192317988,6.56168,0,8.6913388608,8.7256892556,23,5,15.516,53.162192317988,0.656168,0.223694,8.6913388608,0,0,0,288, 0, -1.3,0,0,1024,1024,1351,1024,0,0,50,0,287.9,0,0,62,3.87,3.875,3.875,3.874,0,0,7.263,73.22,53.162192317988,0.656168,6,P-GPS,
6100,2023-07-27 14:53:39,52.2063681013061,0.0864713440746502,0.656168,0.656168,52.506024317988,53.162192317988,6.889764,0,8.9640094732,8.9992128864,23,5,15.502,53.162192317988,0.656168,0.223694,8.9640094732,0,0,-0.894776,288.2, -0.4, -0.4,0,0,1024,1024,1024,1024,0,0,0,0,287.9,0,0,62,3.87,3.875,3.872,3.867,0,0,7.464,73.22,53.162192317988,0.656168,6,P-GPS,
6300,2023-07-27 14:53:39,52.2063687906345,0.0864709863395352,0.984252,0.984252,52.506024317988,53.490276317988,7.217848,0,9.2255252296,9.263123656,23,5,15.502,53.490276317988,0.984252,0.223694,9.2255252296,0,0,-0.447388,288.1, -1.8, -1.6,0,0,1024,1024,1408,1024,0,0,58,0,287.9,0,0,62,3.87,3.875,3.872,3.867,0,0,7.464,73.22,53.490276317988,0.984252,6,P-GPS,
6500,2023-07-27 14:53:39,52.2063694506469,0.0864706089492591,0.984252,0.984252,52.506024317988,53.490276317988,7.217848,0,9.4793638204,9.5182745828,23,5,15.502,53.490276317988,0.984252,0.223694,9.4793638204,0,0,-0.223694,287.9, -0.8, -2.6,0,0,1024,1024,1245,1024,0,0,33,0,287.9,0,0,62,3.87,3.875,3.872,3.867,0,0,7.464,73.22,53.490276317988,0.984252,6,P-GPS,
6700,2023-07-27 14:53:40,52.2063699395609,0.0864701934858456,1.64042,1.64042,52.506024317988,54.146444317988,7.545932,0,9.6803152704,9.7193900748,23,5,15.502,54.146444317988,1.64042,0.223694,9.6803152704,0,0,-2.013246,288.2, -1.6, -0.9,0,0,1024,1024,1261,1024,0,0,36,0,287.9,0,0,62,3.87,3.875,3.872,3.867,0,0,7.464,73.22,54.146444317988,1.64042,6,P-GPS,
6900,2023-07-27 14:53:40,52.2063703101314,0.0864697376916073,2.296588,2.296588,52.506024317988,54.802612317988,8.2021,0,9.8460633072,9.8887142272,23,5,15.502,54.802612317988,2.296588,0.223694,9.8460633072,0,0,-1.789552,288, -3.4, -0.2,0,0,1024,1024,1344,1024,0,0,48,0,287.9,0,0,62,3.87,3.875,3.872,3.867,0,0,7.464,73.22,54.802612317988,2.296588,6,P-GPS,
7100,2023-07-27 14:53:40,52.2063706847884,0.0864692274542504,2.624672,2.624672,52.506024317988,55.130696317988,8.530184,0,10.018537066,10.066765414,23,5,15.453,55.130696317988,2.624672,0.223694,10.018537066,0,0,-1.565858,288.3, -1.8, 0.2,0,0,1024,1024,1289,1024,0,0,40,0,287.9,0,0,62,3.871,3.868,3.858,3.854,0,0,7.54,73.22,55.130696317988,2.624672,6,P-GPS,
7300,2023-07-27 14:53:40,52.2063711340632,0.0864687208620451,3.28084,3.28084,52.506024317988,55.786864317988,9.186352,0,10.2153546576,10.2660108272,23,5,15.453,55.786864317988,3.28084,0.223694,10.2153546576,0,0,-2.23694,288.2, -1.5, -0.2,0,0,1024,1024,1295,1024,0,0,41,0,287.9,0,0,62,3.871,3.868,3.858,3.854,0,0,7.54,73.22,55.786864317988,3.28084,6,P-GPS,
7500,2023-07-27 14:53:40,52.20637164203,0.086468274004195,3.937008,3.937008,52.506024317988,56.443032317988,9.84252,0,10.42568931,10.47654233,23,5,15.453,56.443032317988,3.937008,0.223694,10.42568931,0,0,-2.013246,288.1, -2.7, -1.4,0,0,1024,1024,1307,1024,0,0,43,0,287.9,0,0,62,3.871,3.868,3.858,3.854,0,0,7.54,73.22,56.443032317988,3.937008,6,P-GPS,
7700,2023-07-27 14:53:41,52.2063721383458,0.0864677565394424,4.593176,4.593176,52.506024317988,57.099200317988,10.498688,0,10.639107952,10.69143735,23,5,15.453,57.099200317988,4.593176,0.223694,10.639107952,0,0,-2.013246,288.2, -1.5, -0.5,0,0,1024,1024,1308,1024,0,0,43,0,287.9,0,0,62,3.871,3.868,3.858,3.854,0,0,7.54,73.22,57.099200317988,4.593176,6,P-GPS,
7900,2023-07-27 14:53:41,52.206372631526,0.0864671792983963,5.249344,5.249344,52.506024317988,57.755368317988,11.154856,0,10.857447854,10.9128612416,23,5,15.453,57.755368317988,5.249344,0.223694,10.857447854,0,0,-2.460634,288.2, -1.7, -0.5,0,0,1024,1024,1289,1024,0,0,40,0,287.9,0,0,62,3.871,3.868,3.858,3.854,0,0,7.54,73.22,57.755368317988,5.249344,6,P-GPS,
8100,2023-07-27 14:53:41,52.206373132091,0.0864666637348542,5.905512,5.905512,52.506024317988,58.411536317988,11.811024,0,11.0722444488,11.1288389388,23,5,15.487,58.411536317988,5.905512,0.223694,11.0722444488,0,0,-2.460634,288, -1.7, -1.6,0,0,1024,1024,1295,1024,0,0,41,0,287.9,0,0,62,3.843,3.848,3.853,3.862,0,0,8.265,73.22,58.411536317988,5.905512,6,P-GPS,
8300,2023-07-27 14:53:41,52.2063735961266,0.0864661198488681,6.889764,6.889764,52.506024317988,59.395788317988,12.467192,0,11.2779203084,11.3373035124,24,5,15.487,59.395788317988,6.889764,0.223694,11.2779203084,0,0,-2.23694,288.1, -2.2, 0,0,0,1024,1024,1302,1024,0,0,42,0,287.9,0,0,62,3.843,3.848,3.853,3.862,0,0,8.265,73.22,59.395788317988,6.889764,6,P-GPS,
8500,2023-07-27 14:53:41,52.206374039139,0.0864655569927158,7.545932,7.545932,52.506024317988,60.051956317988,13.12336,0,11.4787733332,11.5421263536,24,5,15.487,60.051956317988,7.545932,0.223694,11.4787733332,0,0,-2.013246,288.2, -2.2, -0.2,0,0,1024,1024,1320,1024,0,0,45,0,287.9,0,0,62,3.843,3.848,3.853,3.862,0,0,8.265,73.22,60.051956317988,7.545932,6,P-GPS,
8700,2023-07-27 14:53:42,52.2063745276589,0.0864650007488617,8.2021,8.2021,52.506024317988,60.708124317988,13.779528,0,11.693898012,11.7594820036,23,5,15.487,60.708124317988,8.2021,0.223694,11.693898012,0,0,-2.23694,288.1, -2.5, -0.2,0,0,1024,1024,1334,1024,0,0,47,0,287.9,0,0,62,3.843,3.848,3.853,3.862,0,0,8.265,73.22,60.708124317988,8.2021,6,P-GPS,
8900,2023-07-27 14:53:42,52.2063750529994,0.0864644922100126,8.858268,8.858268,52.506024317988,61.364292317988,14.107612,0,11.9162733472,11.9823166564,24,5,15.487,61.364292317988,8.858268,0.223694,11.9162733472,0,0,-2.460634,288.2, -2.3, -1.2,0,0,1024,1024,1339,1024,0,0,48,0,287.9,0,0,62,3.843,3.848,3.853,3.862,0,0,8.265,73.22,61.364292317988,8.858268,6,P-GPS,
9100,2023-07-27 14:53:42,52.206375606842,0.0864640375970411,9.514436,9.514436,52.506024317988,62.020460317988,15.091864,0,12.1424544568,12.2085305744,24,5,15.444,62.020460317988,9.514436,0.223694,12.1424544568,0,0,-2.684328,288.1, -2, -1.7,0,0,1024,1024,1340,1024,0,0,48,0,287.9,0,0,62,3.846,3.851,3.851,3.848,0,0,8.235,73.58,62.020460317988,9.514436,6,P-GPS,
9300,2023-07-27 14:53:42,52.2063761630662,0.0864635644053292,10.498688,10.498688,52.506024317988,63.004712317988,16.076116,0,12.3712930468,12.4374019728,24,5,15.444,63.004712317988,10.498688,0.223694,12.3712930468,0,0,-2.908022,287.9, -1.9, -3.3,0,0,1024,1024,1309,1024,0,0,43,0,287.9,0,0,62,3.846,3.851,3.851,3.848,0,0,8.235,73.58,63.004712317988,10.498688,6,P-GPS,
9500,2023-07-27 14:53:42,52.2063766445355,0.0864629983618535,11.154856,11.154856,52.506024317988,63.660880317988,17.060368,0,12.5852694316,12.6539046044,24,5,15.444,63.660880317988,11.154856,0.223694,12.5852694316,0,0,-2.684328,288.1, -2, -2.7,0,0,1024,1024,1298,1024,0,0,42,0,287.9,0,0,62,3.846,3.851,3.851,3.848,0,0,8.235,73.58,63.660880317988,11.154856,6,P-GPS,
9700,2023-07-27 14:53:43,52.2063769956678,0.0864624238398179,12.139108,12.139108,52.506024317988,64.645132317988,17.716536,0,12.757874424,12.835302248,24,5,15.444,64.645132317988,12.139108,0.223694,12.757874424,0,0,-2.460634,288, -1.7, -1.4,0,0,1024,1024,1320,1024,0,0,45,0,287.9,0,0,62,3.846,3.851,3.851,3.848,0,0,8.235,73.58,64.645132317988,12.139108,6,P-GPS,
9900,2023-07-27 14:53:43,52.2063773032886,0.0864618933531717,12.795276,12.795276,52.506024317988,65.301300317988,18.372704,0,12.9121395208,12.9986224632,24,5,15.444,65.301300317988,12.795276,0.223694,12.9121395208,0,0,-2.23694,288, -2, -0.7,0,0,1024,1024,1311,1024,0,0,43,0,287.9,0,0,62,3.846,3.851,3.851,3.848,0,0,8.235,73.58,65.301300317988,12.795276,6,P-GPS,
10100,2023-07-27 14:53:43,52.2063776385635,0.0864614649517414,13.451444,13.451444,52.506024317988,65.957468317988,19.028872,0,13.0648954312,13.1539702372,23,5,15.455,65.957468317988,13.451444,0.223694,13.0648954312,0,0,-2.460634,288.2, -2.1, -0.8,0,0,1024,1024,1047,1024,0,0,3,0,287.9,0,0,62,3.84,3.842,3.841,3.845,0,0,7.74,73.58,65.957468317988,13.451444,6,P-GPS,
10300,2023-07-27 14:53:43,52.2063779594202,0.0864611295348801,13.779528,13.779528,52.506024317988,66.285552317988,20.013124,0,13.203412496,13.2930122364,23,5,15.455,66.285552317988,13.779528,0.223694,13.203412496,0,0,-2.23694,287.9, -4.4, -0.8,0,0,1024,1024,1098,1024,0,0,11,0,287.9,0,0,62,3.84,3.842,3.841,3.845,0,0,7.74,73.58,66.285552317988,13.779528,6,P-GPS,
10500,2023-07-27 14:53:43,52.2063782993641,0.0864607777829862,14.435696,14.435696,52.506024317988,66.941720317988,20.341208,0,13.3498035768,13.4398626348,24,5,15.455,66.941720317988,14.435696,0.223694,13.3498035768,0,0,-0.671082,288, -3.8, -1.4,0,0,1024,1024,1141,1024,0,0,18,0,287.9,0,0,62,3.84,3.842,3.841,3.845,0,0,7.74,73.58,66.941720317988,14.435696,6,P-GPS,
10700,2023-07-27 14:53:44,52.2063786574355,0.0864603512268484,14.435696,14.435696,52.506024317988,66.941720317988,20.341208,0,13.509842952,13.6016080468,23,5,15.455,66.941720317988,14.435696,0.223694,13.509842952,0,0,-0.223694,287.8, -1.7, -0.2,0,0,1024,1024,1024,1024,0,0,0,0,287.9,0,0,62,3.84,3.842,3.841,3.845,0,0,7.74,73.58,66.941720317988,14.435696,6,P-GPS,
10900,2023-07-27 14:53:44,52.2063790693928,0.086459988473097,14.435696,14.435696,52.506024317988,66.941720317988,20.341208,0,13.680610674,13.7724085772,24,5,15.455,66.941720317988,14.435696,0.223694,13.680610674,0,0,-0.223694,287.9, -2.2, -1.8,0,0,1024,1024,1024,1024,0,0,0,0,287.9,0,0,62,3.84,3.842,3.841,3.845,0,0,7.74,73.58,66.941720317988,14.435696,6,P-GPS,
11100,2023-07-27 14:53:44,52.2063795079162,0.0864596688181091,14.435696,14.435696,52.506024317988,66.941720317988,20.341208,0,13.855479446,13.9476382416,24,5,15.425,66.941720317988,14.435696,0.223694,13.855479446,0,0,0,288.1, -2.5, -1.3,0,0,1024,1024,1024,1024,0,0,0,0,287.9,0,0,62,3.857,3.867,3.864,3.862,0,0,7.961,73.76,66.941720317988,14.435696,6,P-GPS,
11300,2023-07-27 14:53:44,52.2063799679767,0.0864593624436354,14.435696,14.435696,52.506024317988,66.941720317988,20.669292,0,14.0358928376,14.12893746,23,5,15.425,66.941720317988,14.435696,0.223694,14.0358928376,0,0,0,288, -2.2, -1.4,0,0,1024,1024,1024,1024,0,0,0,0,287.9,0,0,62,3.857,3.867,3.864,3.862,0,0,7.961,73.76,66.941720317988,14.435696,6,P-GPS,
11500,2023-07-27 14:53:44,52.2063804018568,0.086459100817505,14.435696,14.435696,52.506024317988,66.941720317988,20.669292,0,14.203248486,14.2976710612,23,5,15.425,66.941720317988,14.435696,0.223694,14.203248486,0,0,0,288, -1.9, -1.1,0,0,1024,1024,1024,1024,0,0,0,0,287.9,0,0,62,3.857,3.867,3.864,3.862,0,0,7.961,73.76,66.941720317988,14.435696,6,P-GPS,
11700,2023-07-27 14:53:45,52.2063808371162,0.0864589168194751,14.435696,14.435696,52.506024317988,66.941720317988,20.669292,0,14.3630582024,14.4617458696,23,5,15.425,66.941720317988,14.435696,0.223694,14.3630582024,0,0,0,287.9, -1.9, -1.7,0,0,1024,1024,1024,1024,0,0,0,0,287.9,0,0,62,3.857,3.867,3.864,3.862,0,0,7.961,73.76,66.941720317988,14.435696,6,P-GPS,
11900,2023-07-27 14:53:45,52.2063812573834,0.0864588021387398,14.107612,14.107612,52.506024317988,66.613636317988,20.669292,0,14.510991278,14.6171920688,23,5,15.425,66.941720317988,14.435696,0.223694,14.510991278,0,0,0,288, -3.6, -0.5,0,0,1024,1024,1024,1024,0,0,0,0,287.9,0,0,62,3.857,3.867,3.864,3.862,0,0,7.961,73.76,66.613636317988,14.107612,6,P-GPS,
12100,2023-07-27 14:53:45,52.2063817573144,0.086458652998565,14.107612,14.107612,52.506024317988,66.613636317988,20.669292,0,14.6884519136,14.8026251456,23,5,15.536,66.941720317988,14.435696,0.223694,14.6884519136,0,0,0,287.9, -2.7, -1.7,0,0,1024,1024,1024,1024,0,0,0,0,287.9,0,0,62,3.851,3.856,3.857,3.856,0,0,6.959,73.76,66.613636317988,14.107612,6,P-GPS,
12300,2023-07-27 14:53:45,52.2063822839314,0.0864584672111606,14.107612,14.107612,52.506024317988,66.613636317988,20.669292,0,14.8784781664,14.99918027,23,5,15.536,66.941720317988,14.435696,0.223694,14.8784781664,0,0,0,287.8, -2.1, -2.9,0,0,1024,1024,1024,1024,0,0,0,0,287.9,0,0,62,3.851,3.856,3.857,3.856,0,0,6.959,73.76,66.613636317988,14.107612,6,P-GPS,
12500,2023-07-27 14:53:45,52.2063827430924,0.0864582666614161,14.107612,14.107612,52.506024317988,66.613636317988,20.669292,0,15.0481960196,15.1726054724,23,5,15.536,66.941720317988,14.435696,0.223694,15.0481960196,0,0,0,288, -2.1, -2.2,0,0,1024,1024,1378,1024,0,0,54,0,287.9,0,0,62,3.851,3.856,3.857,3.856,0,0,6.959,73.76,66.613636317988,14.107612,6,P-GPS,
12700,2023-07-27 14:53:46,52.2063831484018,0.0864580560045014,14.107612,14.107612,52.506024317988,66.613636317988,20.669292,0,15.201444056,15.3278220128,23,5,15.536,66.941720317988,14.435696,0.223694,15.201444056,0,0,0,288, -2.2, -2.1,0,0,1024,1024,1293,1024,0,0,41,0,287.9,0,0,62,3.851,3.856,3.857,3.856,0,0,6.959,73.76,66.613636317988,14.107612,6,P-GPS,
12900,2023-07-27 14:53:46,52.2063835107225,0.086457815319645,14.107612,14.107612,52.506024317988,66.613636317988,20.669292,0,15.3437340868,15.4705385528,23,5,15.536,66.941720317988,14.435696,0.223694,15.3437340868,0,0,-1.11847,288.3, -2.1, -0.1,0,0,1024,1024,1262,1024,0,0,36,0,287.9,0,0,62,3.851,3.856,3.857,3.856,0,0,6.959,73.76,66.613636317988,14.107612,6,P-GPS,
13100,2023-07-27 14:53:46,52.2063839687098,0.0864575755364656,14.76378,14.76378,52.506024317988,67.269804317988,21.32546,0,15.5171592892,15.6460306844,23,5,15.536,67.269804317988,14.76378,0.223694,15.5171592892,0,0,-1.789552,288.3, -3.3, -2.1,0,0,1024,1024,1238,1024,0,0,32,0,287.9,0,0,62,3.851,3.856,3.857,3.856,0,0,6.959,73.76,67.269804317988,14.76378,6,P-GPS,
13300,2023-07-27 14:53:46,52.2063844598683,0.0864572717971255,15.419948,15.419948,52.506024317988,67.925972317988,21.981628,0,15.70784171,15.8376645488,23,5,15.413,67.925972317988,15.419948,0.223694,15.70784171,0,0,-1.789552,288.1, -1.8, -3.6,0,0,1024,1024,1241,1024,0,0,33,0,287.9,0,0,62,3.825,3.828,3.83,3.833,0,0,7.335,73.94,67.925972317988,15.419948,6,P-GPS,
13500,2023-07-27 14:53:46,52.2063848631131,0.0864569174590262,15.748032,15.748032,52.506024317988,68.254056317988,22.637796,0,15.874836466,16.00475773,23,5,15.413,68.254056317988,15.748032,0.223694,15.874836466,0,0,-1.342164,287.8, -1, -2.6,0,0,1024,1024,1256,1024,0,0,35,0,287.9,0,0,62,3.825,3.828,3.83,3.833,0,0,7.335,73.94,68.254056317988,15.748032,6,P-GPS,
13700,2023-07-27 14:53:47,52.2063851542855,0.0864566070305009,16.076116,16.076116,52.506024317988,68.582140317988,23.293964,0,16.0008863388,16.1316606212,23,5,15.413,68.582140317988,16.076116,0.223694,16.0008863388,0,0,-1.342164,288.1, -2.1, -1.7,0,0,1024,1024,1243,1024,0,0,33,0,287.9,0,0,62,3.825,3.828,3.83,3.833,0,0,7.335,73.94,68.582140317988,16.076116,6,P-GPS,
13900,2023-07-27 14:53:47,52.2063854263365,0.0864563488083759,16.732284,16.732284,52.506024317988,69.238308317988,23.293964,0,16.11548608,16.2464900212,23,5,15.413,69.238308317988,16.732284,0.223694,16.11548608,0,0,-1.342164,288.3, -2.7, -1,0,0,1024,1024,1252,1024,0,0,35,0,287.9,0,0,62,3.825,3.828,3.83,3.833,0,0,7.335,73.94,69.238308317988,16.732284,6,P-GPS,
14100,2023-07-27 14:53:47,52.2063857890512,0.086456123612793,17.060368,17.060368,52.506024317988,69.566392317988,23.622048,0,16.2563653496,16.3880910756,23,5,15.413,69.566392317988,17.060368,0.223694,16.2563653496,0,0,-1.342164,288.1, -2.9, -2.2,0,0,1024,1024,1258,1024,0,0,35,0,287.9,0,0,62,3.825,3.828,3.83,3.833,0,0,7.335,73.94,69.566392317988,17.060368,6,P-GPS,
14300,2023-07-27 14:53:47,52.206386179043,0.0864559136618424,17.388452,17.388452,52.506024317988,69.894476317988,24.278216,0,16.4046593176,16.53789423,23,5,15.388,69.894476317988,17.388452,0.223694,16.4046593176,0,0,-1.342164,288.2, -2.9, -1.9,0,0,1024,1024,1260,1024,0,0,36,0,287.9,0,0,62,3.848,3.857,3.857,3.853,0,0,7.547,73.94,69.894476317988,17.388452,6,P-GPS,
14500,2023-07-27 14:53:47,52.2063865488768,0.0864556902416545,18.04462,18.04462,52.506024317988,70.550644317988,24.934384,0,16.54773675,16.6817918724,23,5,15.388,70.550644317988,18.04462,0.223694,16.54773675,0,0,-1.342164,288.2, -3.1, -1.9,0,0,1024,1024,1233,1024,0,0,32,0,287.9,0,0,62,3.848,3.857,3.857,3.853,0,0,7.547,73.94,70.550644317988,18.04462,6,P-GPS,
14700,2023-07-27 14:53:48,52.2063869061686,0.0864554648922971,18.372704,18.372704,52.506024317988,70.878728317988,25.262468,0,16.6869099828,16.8215556564,23,5,15.388,70.878728317988,18.372704,0.223694,16.6869099828,0,0,-1.342164,288.2, -3.7, -2.3,0,0,1024,1024,1241,1024,0,0,33,0,287.9,0,0,62,3.848,3.857,3.857,3.853,0,0,7.547,73.94,70.878728317988,18.372704,6,P-GPS,
14900,2023-07-27 14:53:48,52.2063872536513,0.0864552248924357,18.700788,18.700788,52.506024317988,71.206812317988,25.262468,0,16.8243443704,16.9592197028,23,5,15.388,71.206812317988,18.700788,0.223694,16.8243443704,0,0,-1.11847,288.2, -3.6, -2.4,0,0,1024,1024,1068,1024,0,0,7,0,287.9,0,0,62,3.848,3.857,3.857,3.853,0,0,7.547,73.94,71.206812317988,18.700788,6,P-GPS,
15100,2023-07-27 14:53:48,52.2063876153551,0.0864549754074912,19.028872,19.028872,52.506024317988,71.534896317988,25.918636,0,16.967356186,17.1024939856,23,5,15.388,71.534896317988,19.028872,0.223694,16.967356186,0,0,-1.11847,288.2, -4, -2.1,0,0,1024,1024,1024,1024,0,0,0,0,287.9,0,0,62,3.848,3.857,3.857,3.853,0,0,7.547,73.94,71.534896317988,19.028872,6,P-GPS,
15300,2023-07-27 14:53:48,52.2063880120548,0.0864546939654355,19.356956,19.356956,52.506024317988,71.862980317988,25.918636,0,17.125000548,17.2603023896,23,5,15.376,71.862980317988,19.356956,0.223694,17.125000548,0,0,-0.223694,288.1, -4.3, -2.1,0,0,1024,1024,1024,1024,0,0,0,0,287.9,0,0,62,3.834,3.837,3.837,3.84,0,0,7.62,74.12,71.862980317988,19.356956,6,P-GPS,
15500,2023-07-27 14:53:48,52.2063884240892,0.08645434362547,19.356956,19.356956,52.506024317988,71.862980317988,25.918636,0,17.294455934,17.4298233924,23,5,15.376,71.862980317988,19.356956,0.223694,17.294455934,0,0,0,288.1, -3.4, -1.7,0,0,1024,1024,1205,1024,0,0,27,0,287.9,0,0,62,3.834,3.837,3.837,3.84,0,0,7.62,74.12,71.862980317988,19.356956,6,P-GPS,
15700,2023-07-27 14:53:49,52.2063888054969,0.0864539587282085,19.356956,19.356956,52.506024317988,71.862980317988,25.918636,0,17.45734964,17.5934388832,23,5,15.376,71.862980317988,19.356956,0.223694,17.45734964,0,0,0,288.1, -2.9, -1.6,0,0,1024,1024,1241,1024,0,0,33,0,287.9,0,0,62,3.834,3.837,3.837,3.84,0,0,7.62,74.12,71.862980317988,19.356956,6,P-GPS,
15900,2023-07-27 14:53:49,52.2063891899973,0.0864535812610452,19.68504,19.68504,52.506024317988,72.191064317988,26.24672,0,17.6205058132,17.7571527992,23,5,15.376,72.191064317988,19.68504,0.223694,17.6205058132,0,0,-0.447388,288.2, -2.2, -1.5,0,0,1024,1024,1281,1024,0,0,39,0,287.9,0,0,62,3.834,3.837,3.837,3.84,0,0,7.62,74.12,72.191064317988,19.68504,6,P-GPS,
16100,2023-07-27 14:53:49,52.2063895860887,0.0864532722793969,20.013124,20.013124,52.506024317988,72.519148317988,26.574804,0,17.780676422,17.917323408,23,5,15.376,72.519148317988,20.013124,0.223694,17.780676422,0,0,-1.342164,288.3, -2.9, -2,0,0,1024,1024,1259,1024,0,0,36,0,287.9,0,0,62,3.834,3.837,3.837,3.84,0,0,7.62,74.12,72.519148317988,20.013124,6,P-GPS,
16300,2023-07-27 14:53:49,52.2063899540892,0.0864529912077977,20.341208,20.341208,52.506024317988,72.847232317988,26.902888,0,17.9288719648,18.0655845676,23,5,15.345,72.847232317988,20.341208,0.223694,17.9288719648,0,0,-1.565858,288.3, -3.4, -2.4,0,0,1024,1024,1264,1024,0,0,36,0,287.9,0,0,62,3.808,3.821,3.832,3.838,0,0,7.769,73.94,72.847232317988,20.341208,6,P-GPS,
16500,2023-07-27 14:53:49,52.2063903277781,0.0864527002107616,20.997376,20.997376,52.506024317988,73.503400317988,27.559056,0,18.0799546468,18.2166344412,23,5,15.345,73.503400317988,20.997376,0.223694,18.0799546468,0,0,-1.342164,288.1, -3.4, -2.4,0,0,1024,1024,1206,1024,0,0,28,0,287.9,0,0,62,3.808,3.821,3.832,3.838,0,0,7.769,73.94,73.503400317988,20.997376,6,P-GPS,
16700,2023-07-27 14:53:50,52.2063906898246,0.0864524036289198,21.32546,21.2926516,52.538832717988,73.831484317988,28.215224,0,18.2277236804,18.3644362832,23,5,15.345,73.831484317988,21.32546,0.223694,18.2277236804,0,0,-1.11847,288, -2.5, -1.6,0,0,1024,1024,1159,1024,0,0,20,0,287.9,0,0,62,3.808,3.821,3.832,3.838,0,0,7.769,73.94,73.831484317988,21.32546,6,P-GPS,
16900,2023-07-27 14:53:50,52.2063910188113,0.0864521853531837,21.653544,21.6207356,52.538832717988,74.159568317988,28.543308,0,18.356955968,18.4940294632,23,5,15.345,74.159568317988,21.653544,0.223694,18.356955968,0,0,-0.894776,288.1, -3.3, -1.7,0,0,1024,1024,1029,1024,0,0,1,0,287.9,0,0,62,3.808,3.821,3.832,3.838,0,0,7.769,73.94,74.159568317988,21.653544,6,P-GPS,
17100,2023-07-27 14:53:50,52.2063913635355,0.0864519712922635,21.981628,21.9488196,52.538832717988,74.487652317988,28.871392,0,18.4909126652,18.62860952,23,5,15.345,74.487652317988,21.981628,0.223694,18.4909126652,0,0,-0.447388,288.1, -3.2, -2.5,0,0,1024,1024,1024,1024,0,0,0,0,287.9,0,0,62,3.808,3.821,3.832,3.838,0,0,7.769,73.94,74.487652317988,21.981628,6,P-GPS,
17300,2023-07-27 14:53:50,52.2063917302767,0.0864517445309778,21.981628,21.9488196,52.538832717988,74.487652317988,28.871392,0,18.6333339296,18.7716869524,23,5,15.389,74.487652317988,21.981628,0.223694,18.6333339296,0,0,0,288, -3.2, -2.7,0,0,1024,1024,1024,1024,0,0,0,0,287.9,0,0,62,3.849,3.856,3.855,3.854,0,0,7.952,74.12,74.487652317988,21.981628,6,P-GPS,
17500,2023-07-27 14:53:50,52.2063920867032,0.0864515356214991,21.981628,21.9488196,52.538832717988,74.487652317988,26.902888,0,18.7706370836,18.9098759332,23,5,15.389,74.487652317988,21.981628,0.223694,18.7706370836,0,0,0,288, -3.1, -3,0,0,1024,1024,1025,1024,0,0,0,0,287.9,0,0,62,3.849,3.856,3.855,3.854,0,0,7.952,74.12,74.487652317988,21.981628,6,P-GPS,
17700,2023-07-27 14:53:51,52.2063923916769,0.0864513268657948,21.981628,21.9488196,52.538832717988,74.487652317988,26.902888,0,18.8911095284,19.03051242,23,5,15.389,74.487652317988,21.981628,0.223694,18.8911095284,0,0,0,288, -3, -2.3,0,0,1024,1024,1191,1024,0,0,25,0,287.9,0,0,62,3.849,3.856,3.855,3.854,0,0,7.952,74.12,74.487652317988,21.981628,6,P-GPS,
17900,2023-07-27 14:53:51,52.2063926971132,0.086451116320716,21.981628,21.9488196,52.538832717988,74.487652317988,26.902888,0,19.0118772488,19.1515097992,23,5,15.389,74.487652317988,21.981628,0.223694,19.0118772488,0,0,0,288, -2.9, -1.6,0,0,1024,1024,1163,1024,0,0,21,0,287.9,0,0,62,3.849,3.856,3.855,3.854,0,0,7.952,74.12,74.487652317988,21.981628,6,P-GPS,
18100,2023-07-27 14:53:51,52.206393050173,0.0864509281567985,21.981628,21.9488196,52.538832717988,74.487652317988,27.230972,0,19.1460636048,19.2870084912,24,5,15.389,74.487652317988,21.981628,0.223694,19.1460636048,0,0,-0.447388,288, -2.4, -1.7,0,0,1024,1024,1026,1024,0,0,0,0,287.9,0,0,62,3.849,3.856,3.855,3.854,0,0,7.952,74.12,74.487652317988,21.981628,6,P-GPS,
18300,2023-07-27 14:53:51,52.20639344384,0.0864508061298419,21.981628,21.9488196,52.538832717988,74.487652317988,27.230972,0,19.287074108,19.4332027216,24,5,15.36,74.487652317988,21.981628,0.223694,19.287074108,0,0,-0.447388,288.2, -3.1, -3.3,0,0,1024,1024,1100,1024,0,0,12,0,287.9,0,0,62,3.829,3.828,3.821,3.819,0,0,7.174,74.3,74.487652317988,21.981628,6,P-GPS,
18500,2023-07-27 14:53:51,52.206393821838,0.0864506554169746,22.309712,22.2440952,52.571641117988,74.815736317988,27.559056,0,19.42585364,19.5751646684,24,5,15.36,74.815736317988,22.309712,0.223694,19.42585364,0,0,0,287.8, -2.1, -3.5,0,0,1024,1024,1236,1024,0,0,32,0,287.9,0,0,62,3.829,3.828,3.821,3.819,0,0,7.174,74.3,74.815736317988,22.309712,6,P-GPS,
18700,2023-07-27 14:53:52,52.2063941226825,0.086450463045231,22.309712,22.2440952,52.571641117988,74.815736317988,27.559056,0,19.5433733288,19.693078058,24,5,15.36,74.815736317988,22.309712,0.223694,19.5433733288,0,0,-0.223694,287.8, -1.4, -2.6,0,0,1024,1024,1024,1024,0,0,0,0,287.9,0,0,62,3.829,3.828,3.821,3.819,0,0,7.174,74.3,74.815736317988,22.309712,6,P-GPS,
18900,2023-07-27 14:53:52,52.2063943349193,0.0864503214749493,22.309712,22.2440952,52.571641117988,74.815736317988,27.559056,0,19.6268707068,19.7767066696,23,5,15.36,74.815736317988,22.309712,0.223694,19.6268707068,0,0,-0.671082,288.1, -2.3, -1.6,0,0,1024,1024,1024,1024,0,0,0,0,287.9,0,0,62,3.829,3.828,3.821,3.819,0,0,7.174,74.3,74.815736317988,22.309712,6,P-GPS,
19100,2023-07-27 14:53:52,52.2063945461794,0.0864502477051875,22.309712,22.2440952,52.571641117988,74.815736317988,27.559056,0,19.7034455124,19.8555452548,22,5,15.36,74.815736317988,22.309712,0.223694,19.7034455124,0,0,-0.223694,288.1, -2.9, -2.3,0,0,1024,1024,1024,1024,0,0,0,0,287.9,0,0,62,3.829,3.828,3.821,3.819,0,0,7.174,74.3,74.815736317988,22.309712,6,P-GPS,
19300,2023-07-27 14:53:52,52.2063947592558,0.0864501547345982,22.309712,22.2440952,52.571641117988,74.815736317988,27.88714,0,19.782480948,19.93602426,23,5,15.266,74.815736317988,22.309712,0.223694,19.782480948,0,0,0,287.9, -2.5, -1.8,0,0,1024,1024,1247,1024,0,0,34,0,287.9,0,0,62,3.853,3.849,3.843,3.84,0,0,7.83,74.3,74.815736317988,22.309712,6,P-GPS,
19500,2023-07-27 14:53:52,52.2063949898943,0.0864500773930771,22.309712,22.2440952,52.571641117988,74.815736317988,27.88714,0,19.8657814756,20.0219166512,23,5,15.266,74.815736317988,22.309712,0.223694,19.8657814756,0,0,0,288, -2.7, -1.9,0,0,1024,1024,1188,1024,0,0,25,0,287.9,0,0,62,3.853,3.849,3.843,3.84,0,0,7.83,74.3,74.815736317988,22.309712,6,P-GPS,
19700,2023-07-27 14:53:53,52.2063952081194,0.0864500813492724,22.309712,22.2440952,52.571641117988,74.815736317988,27.88714,0,19.9372053624,20.101542638,23,5,15.266,74.815736317988,22.309712,0.223694,19.9372053624,0,0,-0.671082,288, -2.1, -0.6,0,0,1024,1024,1024,1024,0,0,0,0,287.9,0,0,62,3.853,3.849,3.843,3.84,0,0,7.83,74.3,74.815736317988,22.309712,6,P-GPS,
19900,2023-07-27 14:53:53,52.2063954516854,0.0864502047112701,22.637796,22.5721792,52.571641117988,75.143820317988,28.215224,0,20.0055452596,20.1945872604,23,5,15.266,75.143820317988,22.637796,0.223694,20.0055452596,0,0,-0.894776,288.1, -4.8, -2.1,0,0,1024,1024,1024,1024,0,0,0,0,287.9,0,0,62,3.853,3.849,3.843,3.84,0,0,7.83,74.3,75.143820317988,22.637796,6,P-GPS,
20100,2023-07-27 14:53:53,52.2063956933753,0.0864502751469238,22.96588,22.8674548,52.604449517988,75.471904317988,28.543308,0,20.0785111412,20.2841541924,23,5,15.266,75.471904317988,22.96588,0.223694,20.0785111412,0,0,-0.223694,288, -4.4, -1.9,0,0,1024,1024,1024,1024,0,0,0,0,287.9,0,0,62,3.853,3.849,3.843,3.84,0,0,7.83,74.3,75.471904317988,22.96588,6,P-GPS,
20300,2023-07-27 14:53:53,52.2063959325979,0.0864502306152626,22.637796,22.5393708,52.604449517988,75.143820317988,28.543308,0,20.1617132436,20.3720150876,23,5,15.357,75.471904317988,22.96588,0.223694,20.1617132436,0,0,0,288.1, -3.5, -1.6,0,0,1024,1024,1024,1024,0,0,0,0,287.9,0,0,62,3.845,3.845,3.846,3.844,0,0,7.521,74.3,75.143820317988,22.637796,6,P-GPS,
20500,2023-07-27 14:53:53,52.2063961901794,0.0864501377984476,22.637796,22.5393708,52.604449517988,75.143820317988,28.543308,0,20.2556108844,20.4682421248,22,5,15.357,75.471904317988,22.96588,0.223694,20.2556108844,0,0,0,288.1, -3.1, -2.3,0,0,1024,937,1024,1024,0,-13,0,0,287.9,0,0,62,3.845,3.845,3.846,3.844,0,0,7.521,74.3,75.143820317988,22.637796,6,P-GPS,
20700,2023-07-27 14:53:54,52.206396459806,0.08645008524256,22.637796,22.5393708,52.604449517988,75.143820317988,28.543308,0,20.3496725672,20.5673234928,22,5,15.357,75.471904317988,22.96588,0.223694,20.3496725672,0,0,0,287.9, -0.1, -1.2,0,0,1024,1024,1024,1024,0,0,0,0,287.9,0,0,62,3.845,3.845,3.846,3.844,0,0,7.521,74.3,75.143820317988,22.637796,6,P-GPS,
20900,2023-07-27 14:53:54,52.206396711759,0.0864503006874496,22.637796,22.5393708,52.604449517988,75.143820317988,28.543308,0.223694,20.4127631204,20.671096462,22,5,15.357,75.471904317988,22.96588,0.223694,20.4127631204,0,0.223694,0,288, -1.7, -1.1,0,0,1024,1024,1024,1024,0,0,0,0,287.9,0,0,62,3.845,3.845,3.846,3.844,0,0,7.521,74.3,75.143820317988,22.637796,6,P-GPS,
21100,2023-07-27 14:53:54,52.2063969664963,0.0864506447715939,22.637796,22.5393708,52.604449517988,75.143820317988,28.543308,0.223694,20.4651581352,20.7917657572,22,5,15.357,75.471904317988,22.96588,0.223694,20.4651581352,0,0.223694,0,288.1, -5.4, -2.4,0,0,1024,1024,1024,1024,0,0,0,0,287.9,0,0,62,3.845,3.845,3.846,3.844,0,0,7.521,74.3,75.143820317988,22.637796,6,P-GPS,
21300,2023-07-27 14:53:54,52.2063972463689,0.0864508358642143,22.637796,22.5393708,52.604449517988,75.143820317988,28.543308,0,20.54051903,20.9024612988,22,5,15.357,75.471904317988,22.96588,0.223694,20.54051903,0,0,0,288.1, -4.5, -2.7,0,0,1024,1024,1024,1024,0,0,0,0,287.9,0,0,62,3.832,3.843,3.84,3.836,0,0,7.005,74.3,75.143820317988,22.637796,6,P-GPS,
21500,2023-07-27 14:53:54,52.2063975144448,0.0864508900067739,22.637796,22.5393708,52.604449517988,75.143820317988,28.543308,0,20.6247710012,21.0010177324,22,5,15.357,75.471904317988,22.96588,0.223694,20.6247710012,0,0,0,288, -4.6, -3,0,0,1024,1024,882,1024,0,0,-22,0,287.9,0,0,62,3.832,3.843,3.84,3.836,0,0,7.005,74.3,75.143820317988,22.637796,6,P-GPS,
21700,2023-07-27 14:53:55,52.2063977791112,0.0864507983572462,22.637796,22.5393708,52.604449517988,75.143820317988,28.871392,0,20.721293314,21.0997053996,22,5,15.357,75.471904317988,22.96588,0.223694,20.721293314,0,0,0,288.1, -3.8, -2.4,0,0,1024,1024,1024,1024,0,0,0,0,287.9,0,0,62,3.832,3.843,3.84,3.836,0,0,7.005,74.3,75.143820317988,22.637796,6,P-GPS,
21900,2023-07-27 14:53:55,52.206398059198,0.0864506216774787,22.637796,22.5393708,52.604449517988,75.143820317988,28.871392,0,20.830709328,21.2092854556,22,5,15.357,75.471904317988,22.96588,0.223694,20.830709328,0,0,0.447388,288, -3.8, -3.1,0,0,1024,1024,1360,1024,0,0,51,0,287.9,0,0,62,3.832,3.843,3.84,3.836,0,0,7.005,74.3,75.143820317988,22.637796,6,P-GPS,
22100,2023-07-27 14:53:55,52.2063983186556,0.0864503650490154,22.309712,22.2112868,52.604449517988,74.815736317988,28.543308,0,20.9405518512,21.3199809972,21,5,15.357,75.471904317988,22.96588,0.223694,20.9405518512,0,0,0.223694,287.8, -0.1, -2.2,0,0,1024,1024,1024,1024,0,0,0,0,287.9,0,0,62,3.832,3.843,3.84,3.836,0,0,7.005,74.3,74.815736317988,22.309712,6,P-GPS,
22300,2023-07-27 14:53:55,52.2063985060484,0.0864502653053638,22.637796,22.5065624,52.637257917988,75.143820317988,28.215224,0,21.0120741632,21.39189701,22,5,15.334,75.471904317988,22.96588,0.223694,21.0120741632,0,0,-0.671082,288, -2.9, -2.7,0,0,1024,1024,1024,1024,0,0,0,0,287.9,0,0,62,3.777,3.78,3.799,3.804,0,0,7.513,74.48,75.143820317988,22.637796,6,P-GPS,
22500,2023-07-27 14:53:55,52.2063986685628,0.0864502527378035,22.637796,22.5065624,52.637257917988,75.143820317988,28.543308,0,21.0673563172,21.4512474056,23,5,15.334,75.471904317988,22.96588,0.223694,21.0673563172,0,0,0,287.9, -3.5, -3.5,0,0,1024,1024,1335,1024,0,0,47,0,287.9,0,0,62,3.777,3.78,3.799,3.804,0,0,7.513,74.48,75.143820317988,22.637796,6,P-GPS,
22700,2023-07-27 14:53:56,52.2063987381433,0.0864501759414825,22.637796,22.5065624,52.637257917988,75.143820317988,28.543308,0,21.0975400452,21.4818904512,23,5,15.334,75.471904317988,22.96588,0.223694,21.0975400452,0,0,0,287.9, -2.7, -2.2,0,0,1024,1024,1024,1024,0,0,0,0,287.9,0,0,62,3.777,3.78,3.799,3.804,0,0,7.513,74.48,75.143820317988,22.637796,6,P-GPS,
22900,2023-07-27 14:53:56,52.206398722106,0.0864500835580316,22.637796,22.5065624,52.637257917988,75.143820317988,28.543308,0,21.1006240348,21.5033471448,23,5,15.334,75.471904317988,22.96588,0.223694,21.1006240348,0,0,-0.671082,288, -2.3, 0,0,0,1024,1024,1024,1024,0,0,0,0,287.9,0,0,62,3.777,3.78,3.799,3.804,0,0,7.513,74.48,75.143820317988,22.637796,6,P-GPS,
23100,2023-07-27 14:53:56,52.2063987504968,0.0864500093129673,22.96588,22.8346464,52.637257917988,75.471904317988,28.871392,0,21.1168641928,21.5229337596,23,5,15.334,75.471904317988,22.96588,0.223694,21.1168641928,0,0,-0.223694,288.1, -4.1, -1,0,0,1024,1024,474,1024,0,0,-83,0,287.9,0,0,62,3.777,3.78,3.799,3.804,0,0,7.513,74.48,75.471904317988,22.96588,6,P-GPS,
23300,2023-07-27 14:53:56,52.2063988378708,0.0864499197743424,22.96588,22.8346464,52.637257917988,75.471904317988,28.871392,0,21.1541345352,21.5605649944,23,5,15.349,75.471904317988,22.96588,0.223694,21.1541345352,0,0,0,288.1, -3.2, -0.7,0,0,1024,1024,1024,1024,0,0,0,0,287.9,0,0,62,3.868,3.857,3.838,3.827,0,0,7.762,74.48,75.471904317988,22.96588,6,P-GPS,
23500,2023-07-27 14:53:56,52.2063989941399,0.0864498629826696,22.637796,22.5065624,52.637257917988,75.143820317988,28.871392,0,21.2113523848,21.6189967548,23,5,15.349,75.471904317988,22.96588,0.223694,21.2113523848,0,0,1.11847,288, -3.7, -1.6,0,0,1024,1024,1024,734,0,0,0,-44,287.9,0,0,62,3.868,3.857,3.838,3.827,0,0,7.762,74.48,75.143820317988,22.637796,6,P-GPS,
23700,2023-07-27 14:53:57,52.2063991815155,0.0864498075889458,22.309712,22.1784784,52.637257917988,74.815736317988,28.871392,0,21.2788392636,21.6884521376,23,5,15.349,75.471904317988,22.96588,0.223694,21.2788392636,0,0,0.223694,287.8, -1.7, -0.9,0,0,1024,1024,1024,1024,0,0,0,0,287.7,0,0,62,3.868,3.857,3.838,3.827,0,0,7.762,74.48,74.815736317988,22.309712,6,P-GPS,
23900,2023-07-27 14:53:57,52.2063994010256,0.0864498995879607,22.309712,22.1784784,52.637257917988,74.815736317988,28.543308,0,21.3436358536,21.771162114,23,5,15.349,75.471904317988,22.96588,0.223694,21.3436358536,0,0,0,287.7, -4.4, -1.9,0,0,1024,1024,1074,698,0,0,8,-49,286.8,0,0,62,3.868,3.857,3.838,3.827,0,0,7.762,74.48,74.815736317988,22.309712,6,P-GPS,
24100,2023-07-27 14:53:57,52.2063996253846,0.086449920221686,22.309712,22.1784784,52.637257917988,74.815736317988,28.871392,0,21.4166345436,21.8531503056,22,5,15.349,75.471904317988,22.96588,0.223694,21.4166345436,0,0,0,286.8, -4, -2.5,0,0,1024,1024,1024,689,0,0,0,-51,286.4,0,0,62,3.868,3.857,3.838,3.827,0,0,7.762,74.48,74.815736317988,22.309712,6,P-GPS,
24300,2023-07-27 14:53:57,52.2063998101302,0.0864498323186612,22.309712,22.1784784,52.637257917988,74.815736317988,28.871392,0,21.4862539684,21.9233602816,22,5,15.15,75.471904317988,22.96588,0.223694,21.4862539684,0,0,0,286.3, -3.1, -1.6,0,0,1024,1024,1024,683,0,0,0,-52,283.8,0,0,61,3.825,3.828,3.83,3.831,0,0,7.668,74.66,74.815736317988,22.309712,6,P-GPS,
24500,2023-07-27 14:53:57,52.2063999812029,0.0864497646369669,22.309712,22.1784784,52.637257917988,74.815736317988,28.871392,0,21.5494757552,21.9875663204,22,5,15.15,75.471904317988,22.96588,0.223694,21.5494757552,0,0,0,283.1, -3.1, -1.5,0,0,1024,1024,1024,722,0,0,0,-46,281.9,0,0,61,3.825,3.828,3.83,3.831,0,0,7.668,74.66,74.815736317988,22.309712,6,P-GPS,
24700,2023-07-27 14:53:58,52.2064001600459,0.0864497657343567,22.309712,22.1784784,52.637257917988,74.815736317988,28.871392,0,21.609088618,22.052822228,22,5,15.15,75.471904317988,22.96588,0.223694,21.609088618,0,0,0,281.5, -3.6, -1.4,0,0,1024,1024,1024,1024,0,0,0,0,279.7,0,0,61,3.825,3.828,3.83,3.831,0,0,7.668,74.66,74.815736317988,22.309712,6,P-GPS,
24900,2023-07-27 14:53:58,52.2064003386661,0.0864497499864627,22.309712,22.1784784,52.637257917988,74.815736317988,28.871392,0,21.6702106672,22.1180781356,22,5,15.15,75.471904317988,22.96588,0.223694,21.6702106672,0,0,0,279.2, -3.5, -1.6,0,0,1024,1024,904,1602,0,0,-18,88,278.3,0,0,61,3.825,3.828,3.83,3.831,0,0,7.668,74.66,74.815736317988,22.309712,6,P-GPS,
25100,2023-07-27 14:53:58,52.2064005035964,0.0864497071533094,22.309712,22.1784784,52.637257917988,74.815736317988,28.871392,0,21.7292001704,22.1790033344,22,5,15.15,75.471904317988,22.96588,0.223694,21.7292001704,0,0,0,278.4, -3.3, -1.5,0,0,1024,1024,999,1684,0,0,-4,100,278.6,0,0,61,3.825,3.828,3.83,3.831,0,0,7.668,74.66,74.815736317988,22.309712,6,P-GPS,
25300,2023-07-27 14:53:58,52.2064006575267,0.08644967569946,22.309712,22.1784784,52.637257917988,74.815736317988,28.871392,0,21.783465264,22.2356306328,22,5,15.315,75.471904317988,22.96588,0.223694,21.783465264,0,0,0,279.7, -3.3, -1.7,0,0,1024,1024,1024,1684,0,0,0,100,287.3,0,0,61,3.825,3.831,3.829,3.83,0,0,7.565,74.66,74.815736317988,22.309712,6,P-GPS,
25500,2023-07-27 14:53:58,52.2064007873926,0.0864496742386034,22.309712,22.1784784,52.637257917988,74.815736317988,28.871392,0,21.8270676276,22.2830059624,22,5,15.315,75.471904317988,22.96588,0.223694,21.8270676276,0,0,0,291.6, -3.5, -1,0,0,1024,1024,1024,1677,0,0,0,99,299.3,0,0,61,3.825,3.831,3.829,3.83,0,0,7.565,74.66,74.815736317988,22.309712,6,P-GPS,
25700,2023-07-27 14:53:59,52.2064009836607,0.086449674112788,22.309712,22.1784784,52.637257917988,74.815736317988,28.871392,0,21.8927500444,22.3545938912,22,5,15.315,75.471904317988,22.96588,0.223694,21.8927500444,0,0,0,303.8, -4.1, -1.5,0,0,1024,1024,1024,1676,0,0,0,99,311.2,0,0,61,3.825,3.831,3.829,3.83,0,0,7.565,74.66,74.815736317988,22.309712,6,P-GPS,
25900,2023-07-27 14:53:59,52.2064013270056,0.0864497094319661,22.309712,22.1784784,52.637257917988,74.815736317988,28.871392,0.223694,22.0046266884,22.4801188296,23,5,15.315,75.471904317988,22.96588,0.223694,22.0046266884,0.223694,0,0,315.7, -2.9, -2.6,0,0,1024,1024,1024,1024,0,0,0,0,323,0,0,61,3.825,3.831,3.829,3.83,0,0,7.565,74.66,74.815736317988,22.309712,6,P-GPS,
26100,2023-07-27 14:53:59,52.2064017579729,0.0864498332133485,22.637796,22.473754,52.670066317988,75.143820317988,28.871392,0.223694,22.1383209184,22.6397973124,23,5,15.315,75.471904317988,22.96588,0.223694,22.1383209184,0.223694,0,0,327.2, -1.6, -3.8,0,0,1024,1024,1024,364,0,0,0,-100,329.5,0,0,61,3.825,3.831,3.829,3.83,0,0,7.565,74.66,75.143820317988,22.637796,6,P-GPS,
26300,2023-07-27 14:53:59,52.2064022202695,0.0864500516149,22.637796,22.473754,52.670066317988,75.143820317988,28.871392,0.3131716,22.2747054372,22.8153878692,23,5,15.315,75.471904317988,22.96588,0.3131716,22.2747054372,0.223694,0.223694,0,330.5, -0.9, -5.8,0,0,1024,1024,1024,364,0,0,0,-100,326.2,0,0,61,3.822,3.827,3.827,3.827,0,0,7.57,74.66,75.143820317988,22.637796,6,P-GPS,
26500,2023-07-27 14:53:59,52.2064026243453,0.0864503087466248,22.637796,22.473754,52.670066317988,75.143820317988,28.543308,0,22.3886818188,22.9736227824,23,5,15.315,75.471904317988,22.96588,0.3131716,22.3886818188,0,0,0,323.3, -0.9, -7.8,0,0,1024,1024,1024,841,0,0,0,-28,314.8,0,0,61,3.822,3.827,3.827,3.827,0,0,7.57,74.66,75.143820317988,22.637796,6,P-GPS,
26700,2023-07-27 14:54:00,52.2064028769836,0.0864504591309742,22.96588,22.801838,52.670066317988,75.471904317988,28.543308,0,22.4610899576,23.0717198984,23,5,15.315,75.471904317988,22.96588,0.3131716,22.4610899576,0,0,0,310, -1.9, -7.8,0,0,1024,1024,1024,1024,0,0,0,0,304.4,0,0,61,3.822,3.827,3.827,3.827,0,0,7.57,74.66,75.471904317988,22.96588,6,P-GPS,
26900,2023-07-27 14:54:00,52.2064028734969,0.0864504340308023,22.96588,22.801838,52.670066317988,75.471904317988,28.543308,0.223694,22.4620414012,23.0774941768,23,5,15.315,75.471904317988,22.96588,0.3131716,22.4620414012,-0.223694,0,0,301.6, -3.3, -5.2,0,0,1024,1024,1263,1024,0,0,36,0,303,0,0,61,3.822,3.827,3.827,3.827,0,0,7.57,74.66,75.471904317988,22.96588,6,P-GPS,
27100,2023-07-27 14:54:00,52.2064026903019,0.0864502581967938,22.96588,22.801838,52.670066317988,75.471904317988,28.543308,0.223694,22.4152566228,23.155020426,23,5,15.315,75.471904317988,22.96588,0.3131716,22.4620414012,-0.223694,0,0,303.1, -4.3, -2.2,0,0,1024,1024,1024,1024,0,0,0,0,303,0,0,61,3.822,3.827,3.827,3.827,0,0,7.57,74.66,75.471904317988,22.96588,6,P-GPS,
27300,2023-07-27 14:54:00,52.2064025063874,0.0864499816196002,22.96588,22.801838,52.670066317988,75.471904317988,28.871392,0.223694,22.3770348368,23.2462933948,23,5,15.292,75.471904317988,22.96588,0.3131716,22.4620414012,-0.223694,0,-0.671082,303.1, -4.2, -0.1,0,0,1024,1024,744,1024,0,0,-42,0,303,0,0,61,3.82,3.827,3.825,3.821,0,0,7.835,74.84,75.471904317988,22.96588,6,P-GPS,
27500,2023-07-27 14:54:00,52.2064024469501,0.0864496987306675,23.293964,23.129922,52.670066317988,75.799988317988,28.871392,0,22.3815295876,23.313156914,24,5,15.292,75.799988317988,23.293964,0.3131716,22.4620414012,0,0,-0.223694,303.1, -5.5, -1.5,0,0,1024,1024,1024,1024,0,0,0,0,303,0,0,61,3.82,3.827,3.825,3.821,0,0,7.835,74.84,75.799988317988,23.293964,6,P-GPS,
27700,2023-07-27 14:54:01,52.2064024598604,0.0864493155109446,23.293964,23.129922,52.670066317988,75.799988317988,29.199476,0,22.419292056,23.39895088,24,5,15.292,75.799988317988,23.293964,0.3131716,22.4620414012,0,0,0.671082,303.1, -5.2, -1.9,0,0,1024,1024,1024,1024,0,0,0,0,303,0,0,61,3.82,3.827,3.825,3.821,0,0,7.835,74.84,75.799988317988,23.293964,6,P-GPS,
27900,2023-07-27 14:54:01,52.2064025172417,0.0864488680554713,22.637796,22.473754,52.670066317988,75.143820317988,29.199476,0.223694,22.4778878584,23.5011818544,24,5,15.292,75.799988317988,23.293964,0.3131716,22.4778878584,0,-0.223694,0.671082,303, -2.2, 0,0,0,1024,1024,1024,1024,0,0,0,0,303,0,0,61,3.82,3.827,3.825,3.821,0,0,7.835,74.84,75.143820317988,22.637796,6,P-GPS,
28100,2023-07-27 14:54:01,52.2064026652523,0.086448487282159,22.637796,22.473754,52.670066317988,75.143820317988,28.871392,0,22.5612211944,23.6020020676,23,5,15.292,75.799988317988,23.293964,0.3131716,22.5612211944,0,0,0,302.9, -2.5, -1.1,0,0,1251,1024,1024,1024,34,0,0,0,303,0,0,61,3.82,3.827,3.825,3.821,0,0,7.835,74.84,75.143820317988,22.637796,6,P-GPS,
28300,2023-07-27 14:54:01,52.2064028609549,0.0864481500200051,22.637796,22.473754,52.670066317988,75.143820317988,28.543308,0,22.6567264468,23.7058406536,24,5,15.37,75.799988317988,23.293964,0.3131716,22.6567264468,0,0,0,303, -2, -2.6,0,0,1068,1024,1024,1024,7,0,0,0,303,0,0,61,3.809,3.809,3.811,3.818,0,0,7.033,75.02,75.143820317988,22.637796,6,P-GPS,
28500,2023-07-27 14:54:01,52.206403024326,0.0864478508938963,22.637796,22.473754,52.670066317988,75.143820317988,28.543308,0,22.7381240872,23.795440394,24,5,15.37,75.799988317988,23.293964,0.3131716,22.7381240872,0,0,0,302.9, -2.9, 0.1,0,0,1256,1024,1024,1024,35,0,0,0,303,0,0,61,3.809,3.809,3.811,3.818,0,0,7.033,75.02,75.143820317988,22.637796,6,P-GPS,
28700,2023-07-27 14:54:02,52.2064032143317,0.0864476911362998,22.637796,22.473754,52.670066317988,75.143820317988,28.543308,0,22.815945612,23.8733931524,24,5,15.37,75.799988317988,23.293964,0.3131716,22.815945612,0,0,0,303.1, 0.2, -0.9,0,0,1393,1024,1024,1024,56,0,0,0,303,0,0,61,3.809,3.809,3.811,3.818,0,0,7.033,75.02,75.143820317988,22.637796,6,P-GPS,
28900,2023-07-27 14:54:02,52.2064034044401,0.0864476823571809,22.637796,22.473754,52.670066317988,75.143820317988,28.871392,0,22.8802828844,23.9427829184,24,5,15.37,75.799988317988,23.293964,0.3131716,22.8802828844,0,0,0,302.9, -4.2, -0.8,0,0,1337,1024,1024,1024,47,0,0,0,303,0,0,61,3.809,3.809,3.811,3.818,0,0,7.033,75.02,75.143820317988,22.637796,6,P-GPS,
29100,2023-07-27 14:54:02,52.2064036746835,0.0864475562831624,22.637796,22.473754,52.670066317988,75.143820317988,28.871392,0.223694,22.9819233076,24.0453419768,24,5,15.37,75.799988317988,23.293964,0.3131716,22.9819233076,0.223694,0,0,303.1, -10.9, -1,0,0,940,1024,1024,1024,-13,0,0,0,303,0,0,61,3.809,3.809,3.811,3.818,0,0,7.033,75.02,75.143820317988,22.637796,6,P-GPS,
29300,2023-07-27 14:54:02,52.2064041872936,0.0864468453562661,22.637796,22.473754,52.670066317988,75.143820317988,28.871392,0.6263432,23.2169626852,24.2907816172,24,5,15.286,75.799988317988,23.293964,0.6263432,23.2169626852,0.447388,-0.447388,0,302.8, -0.8, -1.9,0,0,463,1024,1024,1024,-85,0,0,0,303,0,0,61,3.817,3.82,3.817,3.814,0,0,8.758,74.84,75.143820317988,22.637796,6,P-GPS,
29500,2023-07-27 14:54:02,52.2064046729435,0.086446038411252,22.637796,22.4409456,52.702874717988,75.143820317988,28.543308,0.3131716,23.451936446,24.5436687644,24,5,15.286,75.799988317988,23.293964,0.6263432,23.451936446,0.223694,-0.223694,0,302.7, 6.7, -1.2,0,0,459,1024,1024,1024,-86,0,0,0,303,0,0,61,3.817,3.82,3.817,3.814,0,0,8.758,74.84,75.143820317988,22.637796,6,P-GPS,
29700,2023-07-27 14:54:03,52.2064048369829,0.086446019573891,22.637796,22.4409456,52.702874717988,75.143820317988,28.543308,0.447388,23.508366894,24.603675328,24,5,15.286,75.799988317988,23.293964,0.6263432,23.508366894,0,0.447388,0,302.8, 18, -1.1,0,0,1024,1024,1024,1024,0,0,0,0,303,0,0,61,3.817,3.82,3.817,3.814,0,0,8.758,74.84,75.143820317988,22.637796,6,P-GPS,
29900,2023-07-27 14:54:03,52.2064044722035,0.0864475439951918,22.96588,22.801838,52.670066317988,75.471904317988,28.543308,1.9908766,23.2500991692,24.9695874132,24,5,15.286,75.799988317988,23.293964,1.9908766,23.508366894,-0.894776,1.789552,0,303.6, 16.5, -1.5,0,0,1024,1024,1024,1024,0,0,0,0,303,0,0,61,3.817,3.82,3.817,3.814,0,0,8.758,74.84,75.471904317988,22.96588,6,P-GPS,
30100,2023-07-27 14:54:03,52.206403686583,0.0864503291846372,22.96588,22.801838,52.670066317988,75.471904317988,28.543308,2.1922012,22.745571594,25.6551189312,24,5,15.286,75.799988317988,23.293964,2.1922012,23.508366894,-0.894776,2.013246,0,304.1, -21.8, -2.7,0,0,1024,646,1024,1024,0,-57,0,0,303,0,0,61,3.817,3.82,3.817,3.814,0,0,8.758,74.84,75.471904317988,22.96588,6,P-GPS,
30300,2023-07-27 14:54:03,52.2064033467334,0.0864519867395984,22.96588,22.801838,52.670066317988,75.471904317988,28.543308,0.7158208,22.4932421896,26.0458997836,24,5,15.278,75.799988317988,23.293964,2.1922012,23.508366894,-0.223694,0.671082,0,302.6, -9.6, -3.4,0,0,1024,549,1024,1024,0,-72,0,0,303,0,0,61,3.811,3.814,3.796,3.807,0,0,8.218,75.02,75.471904317988,22.96588,6,P-GPS,
30500,2023-07-27 14:54:03,52.2064032648165,0.0864527048379724,22.96588,22.801838,52.670066317988,75.471904317988,28.871392,0.3131716,22.4074154152,26.2092199988,24,5,15.278,75.799988317988,23.293964,2.1922012,23.508366894,-0.223694,0.223694,0,303.7, -4.2, -11.5,0,0,1024,1024,1024,1024,0,0,0,0,303,0,0,61,3.811,3.814,3.796,3.807,0,0,8.218,75.02,75.471904317988,22.96588,6,P-GPS,
30700,2023-07-27 14:54:04,52.2064028192083,0.086452695387838,23.293964,23.129922,52.670066317988,75.799988317988,28.871392,0.9171454,22.2564639668,26.3718184292,24,5,15.278,75.799988317988,23.293964,2.1922012,23.508366894,-0.894776,-0.223694,0,304.1, -3.8, -16.7,0,0,1024,1362,1024,1024,0,51,0,0,303,0,0,61,3.811,3.814,3.796,3.807,0,0,8.218,75.02,75.799988317988,23.293964,6,P-GPS,
30900,2023-07-27 14:54:04,52.206401814369,0.0864518346148027,23.293964,23.129922,52.670066317988,75.799988317988,26.902888,1.4092722,21.9861227508,26.7858604372,24,5,15.278,75.799988317988,23.293964,2.1922012,23.508366894,-1.342164,-0.447388,0,301.2, -3.5, 9.6,0,0,1024,1526,1024,1024,0,76,0,0,303,0,0,61,3.811,3.814,3.796,3.807,0,0,8.218,75.02,75.799988317988,23.293964,6,P-GPS,
31100,2023-07-27 14:54:04,52.2064012357936,0.0864512694730041,23.293964,23.1627304,52.637257917988,75.799988317988,27.230972,0.447388,21.838419334,27.0318906288,24,5,15.278,75.799988317988,23.293964,2.1922012,23.508366894,-0.447388,0,0,303.9, -1.2, 15.1,0,0,1024,1024,1024,1024,0,0,0,0,303,0,0,61,3.811,3.814,3.796,3.807,0,0,8.218,75.02,75.799988317988,23.293964,6,P-GPS,
31300,2023-07-27 14:54:04,52.2064014851852,0.0864516335478172,23.293964,23.1627304,52.637257917988,75.799988317988,27.559056,0.9395148,21.8917001756,27.1539706852,24,5,15.254,75.799988317988,23.293964,2.1922012,23.508366894,0.671082,0.671082,0,304.6, -1.6, 17.9,0,0,1024,1024,1024,1024,0,0,0,0,303,0,0,61,3.808,3.814,3.813,3.816,0,0,8.678,75.02,75.799988317988,23.293964,6,P-GPS,
31500,2023-07-27 14:54:04,52.206402633983,0.0864530287846633,23.293964,23.129922,52.670066317988,75.799988317988,27.559056,1.7448132,22.1666017592,27.6764772636,24,5,15.254,75.799988317988,23.293964,2.1922012,23.508366894,1.342164,1.11847,0,306.1, -2.5, -11.6,0,0,1418,1024,1024,1024,60,0,0,0,303,0,0,61,3.808,3.814,3.813,3.816,0,0,8.678,75.02,75.799988317988,23.293964,6,P-GPS,
31700,2023-07-27 14:54:05,52.2064035423247,0.0864540536838853,23.293964,23.129922,52.670066317988,75.799988317988,27.559056,0.8052984,22.3962277508,28.079397224,24,5,15.254,75.799988317988,23.293964,2.1922012,23.508366894,0.671082,0.447388,0,303.8, -3.7, -8.1,0,0,1377,1024,1024,1024,53,0,0,0,303,0,0,61,3.808,3.814,3.813,3.816,0,0,8.678,75.02,75.799988317988,23.293964,6,P-GPS,
31900,2023-07-27 14:54:05,52.2064041977966,0.0864544375256954,23.293964,23.129922,52.670066317988,75.799988317988,26.24672,0.447388,22.591700198,28.3334654736,24,5,15.254,75.799988317988,23.293964,2.1922012,23.508366894,0.447388,0,0,304.6, -11.2, -4.6,0,0,1343,1024,1024,1024,48,0,0,0,303,0,0,61,3.808,3.814,3.813,3.816,0,0,8.678,75.02,75.799988317988,23.293964,6,P-GPS,
32100,2023-07-27 14:54:05,52.2064049312704,0.0864539424490939,23.293964,23.0971136,52.702874717988,75.799988317988,26.574804,1.006623,22.8809718608,28.6230652204,24,5,15.254,75.799988317988,23.293964,2.1922012,23.508366894,0.894776,-0.447388,0,304.6, -11.4, -3.4,0,0,1311,1024,1024,1024,43,0,0,0,303,0,0,61,3.808,3.814,3.813,3.816,0,0,8.678,75.02,75.799988317988,23.293964,6,P-GPS,
32300,2023-07-27 14:54:05,52.2064058490785,0.0864525879764368,23.293964,23.0971136,52.702874717988,75.799988317988,26.902888,1.5882274,23.2992461524,29.0745744212,24,5,15.194,75.799988317988,23.293964,2.1922012,23.508366894,1.11847,-1.11847,0,304.5, -9.2, -3.1,0,0,1295,1024,1024,1024,41,0,0,0,303,0,0,61,3.81,3.817,3.816,3.816,0,0,8.519,75.2,75.799988317988,23.293964,6,P-GPS,
32500,2023-07-27 14:54:05,52.2064069822074,0.0864504499604296,23.293964,23.0643052,52.735683117988,75.799988317988,27.230972,1.9237684,23.8542986636,29.7065626304,24,5,15.194,75.799988317988,23.293964,2.1922012,23.8542986636,1.11847,-1.565858,0,304.3, -8, -2.5,0,0,1334,1024,1024,1024,47,0,0,0,303,0,0,61,3.81,3.817,3.816,3.816,0,0,8.519,75.2,75.799988317988,23.293964,6,P-GPS,
32700,2023-07-27 14:54:06,52.206408232172,0.0864478155397695,23.293964,23.0643052,52.735683117988,75.799988317988,27.230972,2.23694,24.4938328048,30.4515101608,24,5,15.194,75.799988317988,23.293964,2.23694,24.4938328048,1.342164,-1.789552,0,304.3, -8.9, -1.8,0,0,1351,1024,1024,1024,50,0,0,0,303,0,0,61,3.81,3.817,3.816,3.816,0,0,8.519,75.2,75.799988317988,23.293964,6,P-GPS,
