time(millisecond),datetime(utc),latitude,longitude,height_above_takeoff(feet),height_above_ground_at_drone_location(feet),ground_elevation_at_drone_location(feet),altitude_above_seaLevel(feet),height_sonar(feet),speed(mph),distance(feet),mileage(feet),satellites,gpslevel,voltage(v),max_altitude(feet),max_ascent(feet),max_speed(mph),max_distance(feet), xSpeed(mph), ySpeed(mph), zSpeed(mph), compass_heading(degrees), pitch(degrees), roll(degrees),isPhoto,isVideo,rc_elevator,rc_aileron,rc_throttle,rc_rudder,rc_elevator(percent),rc_aileron(percent),rc_throttle(percent),rc_rudder(percent),gimbal_heading(degrees),gimbal_pitch(degrees),gimbal_roll(degrees),battery_percent,voltageCell1,voltageCell2,voltageCell3,voltageCell4,voltageCell5,voltageCell6,current(A),battery_temperature(f),altitude(feet),ascent(feet),flycStateRaw,flycState,message
0,2023-07-07 15:56:49,0,0,0,,,53.7813009336,0.328084,0,0,0,9,2,0,53.7813009336,0,0,0,0,0,0,274.9, 5, 0,0,0,1024,1024,1024,1024,0,0,0,0,275.1,0,0,100,4.316,4.32,4.315,4.316,0,0,0,80.6,53.7813009336,0,41,Motors_Started,"Setting new Return-To-Home altitude to 26m (85 ft). Data Recorder File Index is 53. Setting new Maximum Flight Altitude to 30m (98 ft) Aircraft not in flight. Vision systems and obstacle avoidance disabled (Code: 180059). No GPS signal. Aircraft unable to hover. Fly with caution (Code: 30008). GPS signal weak. Hovering unstable. Fly with caution (Code: 30002)"
200,2023-07-07 15:56:50,0,0,0,,,53.7813009336,0.328084,0,0,0,9,2,0,53.7813009336,0,0,0,0,0,0,274.9, 5, 0,0,0,1024,1024,1024,1024,0,0,0,0,275.1,0,0,100,4.316,4.32,4.315,4.316,0,0,0,80.6,53.7813009336,0,41,Motors_Started,
400,2023-07-07 15:56:50,0,0,0,,,53.7813009336,0,0,0,0,9,2,0,53.7813009336,0,0,0,0,0,0,274.9, 5, 0,0,0,1024,1024,1024,1024,0,0,0,0,275.1,0,0,100,4.316,4.32,4.315,4.316,0,0,0,80.6,53.7813009336,0,41,Motors_Started,
600,2023-07-07 15:56:50,0,0,0,,,53.7813009336,0,0,0,0,9,2,0,53.7813009336,0,0,0,0,0,0,274.9, 5, 0,0,0,1024,1024,1024,1024,0,0,0,0,275.1,0,0,100,4.316,4.32,4.315,4.316,0,0,0,80.6,53.7813009336,0,41,Motors_Started,
800,2023-07-07 15:56:50,0,0,0,,,53.7813009336,0,0,0,0,9,2,0,53.7813009336,0,0,0,0,0,0,274.9, 5, 0,0,0,1024,1024,1024,1024,0,0,0,0,275.1,0,0,100,4.316,4.32,4.315,4.316,0,0,0,80.6,53.7813009336,0,41,Motors_Started,
1000,2023-07-07 15:56:50,0,0,0,,,53.7813009336,0,0,0,0,9,2,17.293,53.7813009336,0,0,0,0,0,0,274.9, 5, 0,0,0,1024,1024,1024,1024,0,0,0,0,275.1,0,0,100,4.316,4.32,4.315,4.316,0,0,2.466,80.6,53.7813009336,0,41,Motors_Started,"GPS signal weak. Hovering unstable. Fly with caution (Code: 30002)"
1200,2023-07-07 15:56:51,0,0,0,,,53.7813009336,0,0,0,0,9,2,17.293,53.7813009336,0,0,0,0,0,0,274.6, 5, 0,0,0,1024,1024,1043,1024,0,0,3,0,275.1,0,0,100,4.316,4.32,4.315,4.316,0,0,2.466,80.6,53.7813009336,0,41,Motors_Started,
1400,2023-07-07 15:56:51,0,0,0,,,53.7813009336,0,0,0,0,9,2,17.293,53.7813009336,0,0,0,0,0,0,274.4, 5, 0,0,0,1024,1024,1334,1024,0,0,47,0,275.1,0,0,100,4.316,4.32,4.315,4.316,0,0,2.466,80.6,53.7813009336,0,41,Motors_Started,
1600,2023-07-07 15:56:51,0,0,0,,,53.7813009336,0,0,0,0,9,2,17.293,53.7813009336,0,0,0,0,0,0,274.4, 5, 0,0,0,1024,1024,1232,1024,0,0,32,0,275,0,0,100,4.316,4.32,4.315,4.316,0,0,2.466,80.6,53.7813009336,0,11,AutoTakeoff,
1800,2023-07-07 15:56:51,0,0,0,,,53.7813009336,0,0,0,0,9,2,17.293,53.7813009336,0,0,0,0,0,0,274.6, 5, 0,0,0,1024,1024,1392,1024,0,0,56,0,275,0,0,100,4.316,4.32,4.315,4.316,0,0,2.466,80.6,53.7813009336,0,11,AutoTakeoff,
2000,2023-07-07 15:56:51,0,0,0,,,53.7813009336,0,0,0,0,9,2,17.334,53.7813009336,0,0,0,0,0,0,274.9, 1.9, 0,0,0,1024,1024,1605,1024,0,0,88,0,275,0,0,100,4.339,4.342,4.334,4.33,0,0,3.768,80.6,53.7813009336,0,11,AutoTakeoff,
2200,2023-07-07 15:56:52,0,0,0,,,53.7813009336,0.328084,0,0,0,9,2,17.334,53.7813009336,0,0,0,0,0,-0.894776,275.2, -1.4, -0.3,0,0,1024,1024,1631,1024,0,0,92,0,275,0,0,100,4.339,4.342,4.334,4.33,0,0,3.768,80.6,53.7813009336,0,11,AutoTakeoff,
2400,2023-07-07 15:56:52,0,0,0.328084,,,54.1093849336,0.656168,0,0,0,9,2,17.334,54.1093849336,0.328084,0,0,0,0,-2.013246,275.3, 0.2, 0.4,0,0,1024,1024,1634,1024,0,0,92,0,275,0,0,100,4.339,4.342,4.334,4.33,0,0,3.768,80.6,54.1093849336,0.328084,11,AutoTakeoff,
2600,2023-07-07 15:56:52,0,0,1.312336,,,55.0936369336,1.312336,0,0,0,9,2,17.334,55.0936369336,1.312336,0,0,0,0,-3.579104,275.2, 0.5, 0.1,0,0,1024,1024,1635,1024,0,0,93,0,275,0,0,100,4.339,4.342,4.334,4.33,0,0,3.768,80.6,55.0936369336,1.312336,11,AutoTakeoff,
2800,2023-07-07 15:56:52,0,0,2.624672,,,56.4059729336,2.952756,0,0,0,9,2,17.334,56.4059729336,2.624672,0,0,0,0,-5.368656,274.6, 1.1, -0.4,0,0,1024,1024,1625,1024,0,0,91,0,275,0,0,100,4.339,4.342,4.334,4.33,0,0,3.768,80.6,56.4059729336,2.624672,11,AutoTakeoff,
3000,2023-07-07 15:56:52,0,0,4.92126,,,58.7025609336,4.92126,0,0,0,9,2,17.049,58.7025609336,4.92126,0,0,0,0,-7.381902,275.1, 1.8, -1.4,0,0,1024,1024,1584,1024,0,0,85,0,275,0,0,100,4.239,4.241,4.233,4.232,0,0,6.612,80.42,58.7025609336,4.92126,6,P-GPS,
3200,2023-07-07 15:56:53,0,0,8.2021,,,61.9834009336,7.545932,0,0,0,9,2,17.049,61.9834009336,8.2021,0,0,0,0,-9.395148,274.8, 2.2, -1.5,0,0,1024,1024,1024,1024,0,0,0,0,275,0,0,100,4.239,4.241,4.233,4.232,0,0,6.612,80.42,61.9834009336,8.2021,6,P-GPS,
3400,2023-07-07 15:56:53,0,0,11.811024,,,65.5923249336,10.170604,0,0,0,10,2,17.049,65.5923249336,11.811024,0,0,0,0,-8.94776,274.8, 3.6, -2.1,0,0,1024,1024,1024,1024,0,0,0,0,275,0,0,100,4.239,4.241,4.233,4.232,0,0,6.612,80.42,65.5923249336,11.811024,6,P-GPS,
3600,2023-07-07 15:56:53,0,0,14.76378,,,68.5450809336,12.795276,0,0,0,10,2,17.049,68.5450809336,14.76378,0,0,0,0,-7.158208,274.5, 5, -1,0,0,1024,1024,1355,1024,0,0,50,0,275,0,0,100,4.239,4.241,4.233,4.232,0,0,6.612,80.42,68.5450809336,14.76378,6,P-GPS,
3800,2023-07-07 15:56:53,0,0,14.76378,,,68.5450809336,14.435696,0,0,0,10,2,17.049,68.5450809336,14.76378,0,0,0,0,-5.144962,274.8, 5, -1.6,0,0,1024,1024,1684,1024,0,0,100,0,275,0,0,100,4.239,4.241,4.233,4.232,0,0,6.612,80.42,68.5450809336,14.76378,6,P-GPS,
4000,2023-07-07 15:56:53,0,0,16.4042,,,70.1855009336,15.748032,0,0,0,10,2,17.034,70.1855009336,16.4042,0,0,0,0,-4.47388,274.8, 4.8, -1.4,0,0,1024,1024,1684,1024,0,0,100,0,275,0,0,100,4.282,4.288,4.288,4.294,0,0,11.431,80.42,70.1855009336,16.4042,6,P-GPS,
4200,2023-07-07 15:56:54,52.2063664633667,0.0867505774004101,18.372704,18.372704,53.7813009336,72.1540049336,17.388452,0,0,0,11,2,17.034,72.1540049336,18.372704,0,0,0,0,-6.263432,275, 4.8, -2.7,0,0,1024,1024,1684,1024,0,0,100,0,275,0,0,100,4.282,4.288,4.288,4.294,0,0,11.431,80.42,72.1540049336,18.372704,6,P-GPS,"No GPS. Fly with caution GPS signal weak. Hovering unstable. Fly with caution (Code: 30002)"
4400,2023-07-07 15:56:54,52.2063665063996,0.0867508714507436,21.32546,21.32546,53.7813009336,75.1067609336,19.68504,0,0.067594490352,0.067594490352,11,2,17.034,75.1067609336,21.32546,0,0.067594490352,0,0,-8.276678,274.5, 5.6, -1.7,0,0,1024,1024,1684,1024,0,0,100,0,275,0,0,100,4.282,4.288,4.288,4.294,0,0,11.431,80.42,75.1067609336,21.32546,6,P-GPS,
4600,2023-07-07 15:56:54,52.206366504769,0.0867514175560155,24.934384,24.934384,53.7813009336,78.7156849336,22.309712,0.223694,0.188454074272,0.189697840716,11,2,17.034,78.7156849336,24.934384,0.223694,0.188454074272,0,0.223694,-10.289924,274.7, 4, -1.7,0,0,1024,1024,1684,1024,0,0,100,0,275,0,0,100,4.282,4.288,4.288,4.294,0,0,11.431,80.42,78.7156849336,24.934384,6,P-GPS,
4800,2023-07-07 15:56:54,52.2063665004227,0.0867519469325243,28.871392,28.871392,53.7813009336,82.6526929336,25.918636,0,0.30650755574,0.308069891748,11,2,17.034,82.6526929336,28.871392,0.223694,0.30650755574,0,0,-12.526864,274.4, 3.5, -2.1,0,0,1024,1024,1684,1024,0,0,100,0,275,0,0,100,4.282,4.288,4.288,4.294,0,0,11.431,80.42,82.6526929336,28.871392,6,P-GPS,
5000,2023-07-07 15:56:55,52.2063664913526,0.0867522771081745,33.136484,33.136484,53.7813009336,86.9177849336,29.855644,0,0.38017061584,0.38196851616,11,2,16.81,86.9177849336,33.136484,0.223694,0.38017061584,0,0,-13.197946,274.3, 4.8, -2.6,0,0,1024,1024,1500,1024,0,0,72,0,275,0,0,100,4.183,4.183,4.172,4.171,0,0,9.98,80.42,86.9177849336,33.136484,6,P-GPS,
5200,2023-07-07 15:56:55,52.2063664809464,0.0867524341855288,37.073492,37.073492,53.7813009336,90.8547929336,33.792652,0,0.41520342536,0.41729332044,11,3,16.81,90.8547929336,37.073492,0.223694,0.41520342536,0,0,-12.750558,274.6, 5.3, -2.9,0,0,1024,1024,1024,1024,0,0,0,0,275,0,0,100,4.183,4.183,4.172,4.171,0,0,9.98,80.42,90.8547929336,37.073492,6,P-GPS,
5400,2023-07-07 15:56:55,52.2063666226662,0.0867522596289964,40.354332,40.354332,53.7813009336,94.1356329336,37.401576,0,0.38058728252,0.48207350624,11,3,16.81,94.1356329336,40.354332,0.223694,0.41520342536,0,0,-10.513618,274.6, 7.5, -4.2,0,0,1024,1024,1024,1024,0,0,0,0,275,0,0,100,4.183,4.183,4.172,4.171,0,0,9.98,80.42,94.1356329336,40.354332,6,P-GPS,
5600,2023-07-07 15:56:55,52.2063670032608,0.0867518289145431,42.979004,42.979004,53.7813009336,96.7603049336,40.354332,0.3131716,0.34220145452,0.65105973212,11,3,16.81,96.7603049336,42.979004,0.3131716,0.41520342536,0.223694,-0.223694,-8.052984,275, 9.1, -5.9,0,0,1024,1024,1024,1024,0,0,0,0,275,0,0,100,4.183,4.183,4.172,4.171,0,0,9.98,80.42,96.7603049336,42.979004,6,P-GPS,
5800,2023-07-07 15:56:55,52.2063675807845,0.0867512024656006,44.619424,44.619424,53.7813009336,98.4007249336,39.37008,0.3131716,0.43097770408,0.90407483208,11,3,16.81,98.4007249336,44.619424,0.3131716,0.43097770408,0.223694,-0.223694,-5.59235,275.2, 10.5, -7.2,0,0,1024,1024,1024,1024,0,0,0,0,275,0,0,100,4.183,4.183,4.172,4.171,0,0,9.98,80.42,98.4007249336,44.619424,6,P-GPS,
6000,2023-07-07 15:56:55,52.2063686744221,0.086750827950368,45.275592,45.275592,53.7813009336,99.0568929336,40.682416,0.3131716,0.808645039,1.31178153804,11,3,17.08,99.0568929336,45.275592,0.3131716,0.808645039,0.223694,-0.223694,-3.131716,275.9, 12.5, -8.2,0,0,1024,1024,1024,1024,0,0,0,0,275,0,0,100,4.281,4.286,4.284,4.287,0,0,10.692,80.78,99.0568929336,45.275592,6,P-GPS,"Setting new Maximum Flight Altitude to 120m (394 ft)"
6200,2023-07-07 15:56:56,52.2063699551268,0.0867506550191707,45.275592,45.275592,53.7813009336,99.0568929336,40.682416,0.223694,1.27408468644,1.7806431016,11,3,17.08,99.0568929336,45.275592,0.3131716,1.27408468644,0,-0.223694,-0.894776,277.3, 13.9, -8.1,0,0,1024,1024,1024,1024,0,0,0,0,275,0,0,100,4.281,4.286,4.284,4.287,0,0,10.692,80.78,99.0568929336,45.275592,6,P-GPS,
6400,2023-07-07 15:56:56,52.2063711200372,0.0867509015486031,45.275592,45.275592,53.7813009336,99.0568929336,40.354332,0,1.70052826964,2.2092192308,11,3,17.08,99.0568929336,45.275592,0.3131716,1.70052826964,0,0,-0.223694,277.8, 12.4, -6.7,0,0,1024,1024,1024,1024,0,0,0,0,275,0,0,100,4.281,4.286,4.284,4.287,0,0,10.692,80.78,99.0568929336,45.275592,6,P-GPS,
6600,2023-07-07 15:56:56,52.2063719474268,0.0867515875949856,45.275592,45.275592,53.7813009336,99.0568929336,39.698164,0.3131716,2.01356305656,2.54782816552,11,3,17.08,99.0568929336,45.275592,0.3131716,2.01356305656,-0.223694,0.223694,0,276.7, 10.2, -5.2,0,0,1024,1024,1024,1024,0,0,0,0,275,0,0,100,4.281,4.286,4.284,4.287,0,0,10.692,80.78,99.0568929336,45.275592,6,P-GPS,
6800,2023-07-07 15:56:56,52.2063723008668,0.0867524636827067,45.275592,45.275592,53.7813009336,99.0568929336,40.026248,0.4921268,2.17116476764,2.78234260872,11,3,17.08,99.0568929336,45.275592,0.4921268,2.17116476764,-0.223694,0.447388,0,275.9, 7.8, -4.2,0,0,1024,1024,1024,1024,0,0,0,0,275,0,0,100,4.281,4.286,4.284,4.287,0,0,10.692,80.78,99.0568929336,45.275592,6,P-GPS,
7000,2023-07-07 15:56:56,52.2063724074938,0.0867532583566702,45.275592,45.275592,53.7813009336,99.0568929336,40.354332,0.4921268,2.25002631872,2.96423237832,11,3,17.096,99.0568929336,45.275592,0.4921268,2.25002631872,-0.223694,0.447388,0,275.4, 5.2, -3.1,0,0,1024,1024,1313,1024,0,0,44,0,275,0,0,100,4.263,4.268,4.261,4.265,0,0,5.424,80.78,99.0568929336,45.275592,6,P-GPS,
7200,2023-07-07 15:56:57,52.2063722341954,0.086753817652363,45.275592,45.275592,53.7813009336,99.0568929336,40.354332,0.4921268,2.2266404912,3.10435705472,11,3,17.096,99.0568929336,45.275592,0.4921268,2.25002631872,-0.223694,0.447388,0,274.7, 4.1, -3.8,0,0,1024,1024,1684,1024,0,0,100,0,275,0,0,100,4.263,4.268,4.261,4.265,0,0,5.424,80.78,99.0568929336,45.275592,6,P-GPS,
7400,2023-07-07 15:56:57,52.2063718285326,0.0867540338024894,45.603676,45.603676,53.7813009336,99.3849769336,44.947508,0.223694,2.10450794136,3.2600558786,11,3,17.096,99.3849769336,45.603676,0.4921268,2.25002631872,0,0.223694,-1.11847,274.7, 2.3, -3.7,0,0,1024,1024,1684,1024,0,0,100,0,275,0,0,100,4.263,4.268,4.261,4.265,0,0,5.424,80.78,99.3849769336,45.603676,6,P-GPS,
7600,2023-07-07 15:56:57,52.2063713629336,0.0867539421729952,46.259844,46.259844,53.7813009336,100.0411449336,45.93176,0,1.93946200432,3.4311680888,11,3,17.096,100.0411449336,46.259844,0.4921268,2.25002631872,0,0,-3.35541,274.4, 3.8, -5,0,0,1024,1024,1675,1024,0,0,99,0,275,0,0,100,4.263,4.268,4.261,4.265,0,0,5.424,80.78,100.0411449336,46.259844,6,P-GPS,
7800,2023-07-07 15:56:57,52.2063708185378,0.0867537005696976,47.57218,47.57218,53.7813009336,101.3534809336,47.900264,0.223694,1.73564966184,3.6370079904,11,3,17.096,101.3534809336,47.57218,0.4921268,2.25002631872,-0.223694,0,-5.816044,274.5, 4.1, -5.2,0,0,1024,1024,1675,1024,0,0,99,0,275,0,0,100,4.263,4.268,4.261,4.265,0,0,5.424,80.78,101.3534809336,47.57218,6,P-GPS,
8000,2023-07-07 15:56:57,52.2063701893939,0.0867534784000868,50.196852,50.196852,53.7813009336,103.9781529336,49.540684,0.447388,1.5062500482,3.8718505176,11,3,16.874,103.9781529336,50.196852,0.4921268,2.25002631872,-0.447388,0,-8.052984,274.7, 3.5, -3.9,0,0,1024,1024,1667,1024,0,0,97,0,275,0,0,100,4.201,4.201,4.195,4.197,0,0,8.753,80.6,103.9781529336,50.196852,6,P-GPS,
8200,2023-07-07 15:56:58,52.2063694588179,0.0867530877124315,53.149608,53.149608,53.7813009336,106.9309089336,49.2126,0.447388,1.22858927816,4.1523623376,11,4,16.874,106.9309089336,53.149608,0.4921268,2.25002631872,-0.447388,0,-10.513618,274.4, 3.5, -0.3,0,0,1024,1024,1662,1024,0,0,97,0,275,0,0,100,4.201,4.201,4.195,4.197,0,0,8.753,80.6,106.9309089336,53.149608,6,P-GPS,
8400,2023-07-07 15:56:58,52.2063687843483,0.0867524365528694,56.758532,56.758532,53.7813009336,110.5398329336,52.821524,0,0.94333336352,4.4382875436,19,4,16.874,110.5398329336,56.758532,0.4921268,2.25002631872,0,0,-12.079476,273.7, 6.1, -0.8,0,0,1024,1024,1644,1024,0,0,94,0,275,0,0,100,4.201,4.201,4.195,4.197,0,0,8.753,80.6,110.5398329336,56.758532,6,P-GPS,
8600,2023-07-07 15:56:58,52.2063683696901,0.0867518872370093,60.69554,60.69554,53.7813009336,114.4768409336,56.430448,0,0.75466537848,4.6331366312,19,4,16.874,114.4768409336,60.69554,0.4921268,2.25002631872,0,0,-12.079476,278, 5.9, -3.2,0,0,1024,1024,1632,1024,0,0,92,0,275,0,0,100,4.201,4.201,4.195,4.197,0,0,8.753,80.6,114.4768409336,60.69554,6,P-GPS,
8800,2023-07-07 15:56:58,52.2063690726461,0.0867513799686399,64.304464,64.304464,53.7813009336,118.0857649336,59.711288,0.223694,0.96875987352,4.9135828344,18,4,16.874,118.0857649336,64.304464,0.4921268,2.25002631872,0.223694,0,-11.855782,281.3, 5.3, -5.3,0,0,1024,1024,1622,1024,0,0,91,0,275,-0.8,0,100,4.201,4.201,4.195,4.197,0,0,8.753,80.6,118.0857649336,64.304464,6,P-GPS,
9000,2023-07-07 15:56:58,52.2063704105853,0.0867508016524201,67.585304,67.585304,53.7813009336,121.3666049336,63.320212,0.223694,1.44101382564,5.4185369188,19,4,16.728,121.3666049336,67.585304,0.4921268,2.25002631872,0.223694,0,-11.408394,284.4, 7.5, -6.8,0,0,1024,1024,1663,1024,0,0,97,0,275,-3.2,0,100,4.195,4.212,4.207,4.203,0,0,14.732,80.78,121.3666049336,67.585304,6,P-GPS,
9200,2023-07-07 15:56:59,52.2063718027516,0.0867503654258943,70.53806,70.53806,53.7813009336,124.3193609336,66.272968,0,1.94864835632,5.9357613448,19,4,16.728,124.3193609336,70.53806,0.4921268,2.25002631872,0,0,-10.961006,287.6, 7.3, -6.8,0,0,1024,1024,1684,1024,0,0,100,0,275,-6,0,100,4.195,4.212,4.207,4.203,0,0,14.732,80.78,124.3193609336,70.53806,6,P-GPS,
9400,2023-07-07 15:56:59,52.2063729297762,0.086750144013033,73.8189,73.8189,53.7813009336,127.6002009336,69.225724,0,2.3612533564,6.3499345864,19,4,16.728,127.6002009336,73.8189,0.4921268,2.3612533564,0,0,-12.30317,289.8, 5.4, -5.5,0,0,1024,1024,1684,1024,0,0,100,0,275,-9,0,100,4.195,4.212,4.207,4.203,0,0,14.732,80.78,127.6002009336,73.8189,6,P-GPS,
9600,2023-07-07 15:56:59,52.2063737516782,0.0867499935231896,77.755908,77.755908,53.7813009336,131.5372089336,73.162732,0,2.66233932404,6.6516734412,19,4,16.728,131.5372089336,77.755908,0.4921268,2.66233932404,0,0,-13.197946,289.8, 5.2, -3.8,0,0,1024,1024,1684,1024,0,0,100,0,275,-11.9,0,100,4.195,4.212,4.207,4.203,0,0,14.732,80.78,131.5372089336,77.755908,6,P-GPS,
9800,2023-07-07 15:56:59,52.2063745299762,0.0867499259738178,81.364832,81.364832,53.7813009336,135.1461329336,77.427824,0,2.94669956936,6.9360566524,19,4,16.728,135.1461329336,81.364832,0.4921268,2.94669956936,0,0,-13.42164,290.7, 6, -3.4,0,0,1024,1024,1684,1024,0,0,100,0,275,-14.8,0,100,4.195,4.212,4.207,4.203,0,0,14.732,80.78,135.1461329336,81.364832,6,P-GPS,
10000,2023-07-07 15:56:59,52.2063753712078,0.0867500864178284,85.30184,85.30184,53.7813009336,139.0831409336,81.364832,0,3.25187346364,7.2450461636,19,4,16.681,139.0831409336,85.30184,0.4921268,3.25187346364,0,0,-13.42164,290, 5, -5.3,0,0,1024,1024,1684,1024,0,0,100,0,275,-17.7,0,100,4.19,4.196,4.196,4.196,0,0,11.994,80.78,139.0831409336,85.30184,6,P-GPS,"Home Point updated (Code: 3000001)"
10200,2023-07-07 15:57:00,52.2063762505118,0.0867503483692684,89.238848,89.238848,53.7813009336,143.0201489336,83.66142,0,3.57119434,7.5711616596,19,4,16.681,143.0201489336,89.238848,0.4921268,3.57119434,0,0,-13.42164,289.4, 5.7, -6.1,0,0,1024,1024,1684,1024,0,0,100,0,275,-20.6,0,100,4.19,4.196,4.196,4.196,0,0,11.994,80.78,143.0201489336,89.238848,6,P-GPS,
10400,2023-07-07 15:57:00,52.2063770278428,0.0867506552528904,92.847772,92.847772,53.7813009336,146.6290729336,83.66142,0,3.854494874,7.8629595692,19,4,16.681,146.6290729336,92.847772,0.4921268,3.854494874,0,0,-13.42164,288.4, 7.3, -5.8,0,0,1024,1024,1684,1024,0,0,100,0,275,-23.5,0,100,4.19,4.196,4.196,4.196,0,0,11.994,80.78,146.6290729336,92.847772,6,P-GPS,
10600,2023-07-07 15:57:00,52.2063776860168,0.0867511567223892,96.78478,96.78478,53.7813009336,150.5660809336,83.66142,0,4.096620866,8.1279858244,19,4,16.681,150.5660809336,96.78478,0.4921268,4.096620866,0,0,-13.197946,288.2, 7, -6.2,0,0,1024,1024,1684,1024,0,0,100,0,275,-26.5,0,100,4.19,4.196,4.196,4.196,0,0,11.994,80.78,150.5660809336,96.78478,6,P-GPS,
10800,2023-07-07 15:57:00,52.2063782224036,0.086751919287193,100.06562,100.06562,53.7813009336,153.8469209336,83.66142,0.223694,4.3007547308,8.3875330768,19,4,16.681,153.8469209336,100.06562,0.4921268,4.3007547308,0,0.223694,-13.197946,288.6, 3.5, -7,0,0,1024,1024,1684,1024,0,0,100,0,275,-29.4,0,100,4.19,4.196,4.196,4.196,0,0,11.994,80.78,153.8469209336,100.06562,6,P-GPS,
11000,2023-07-07 15:57:00,52.2063786596734,0.0867525959840217,103.674544,103.674544,53.7813009336,157.4558449336,83.66142,0,4.4726379384,8.6074149736,19,4,16.833,157.4558449336,103.674544,0.4921268,4.4726379384,0,0,-13.197946,288.6, 3.5, -6.8,0,0,1024,1024,1684,1024,0,0,100,0,275,-32.3,0,100,4.203,4.209,4.206,4.206,0,0,11.276,81.14,157.4558449336,103.674544,6,P-GPS,
11200,2023-07-07 15:57:01,52.2063790395043,0.0867530197338454,107.611552,107.611552,53.7813009336,161.3928529336,83.66142,0,4.6207678644,8.7752955564,20,4,16.833,161.3928529336,107.611552,0.4921268,4.6207678644,0,0,-13.197946,288.4, 5.4, -6.1,0,0,1024,1024,1681,1024,0,0,100,0,275,-35.2,0,100,4.203,4.209,4.206,4.206,0,0,11.276,81.14,161.3928529336,107.611552,6,P-GPS,
11400,2023-07-07 15:57:01,52.2063793377012,0.0867534174105945,111.54856,111.54856,53.7813009336,165.3298609336,83.66142,0,4.7399279732,8.9157811252,20,4,16.833,165.3298609336,111.54856,0.4921268,4.7399279732,0,0,-13.42164,288.4, 6, -6.3,0,0,1024,1024,1661,1024,0,0,97,0,275,-38.1,0,100,4.203,4.209,4.206,4.206,0,0,11.276,81.14,165.3298609336,111.54856,6,P-GPS,
11600,2023-07-07 15:57:01,52.2063795885091,0.0867537487928501,115.157484,115.157484,53.7813009336,168.9387849336,83.66142,0,4.8409122284,9.0335304728,20,4,16.833,168.9387849336,115.157484,0.4921268,4.8409122284,0,0,-13.42164,288.5, 3.2, -5.9,0,0,1024,1024,1563,1024,0,0,82,0,275,-41.1,0,100,4.203,4.209,4.206,4.206,0,0,11.276,81.14,168.9387849336,115.157484,6,P-GPS,
11800,2023-07-07 15:57:01,52.2063799141393,0.0867538265752146,118.766408,118.766408,53.7813009336,172.5477089336,83.66142,0,4.9609909724,9.1536092168,20,4,16.833,172.5477089336,118.766408,0.4921268,4.9609909724,0,0,-12.526864,288.6, 4.8, -7.5,0,0,1024,1024,1401,1024,0,0,57,0,275,-44,0,100,4.203,4.209,4.206,4.206,0,0,11.276,81.14,172.5477089336,118.766408,6,P-GPS,
12000,2023-07-07 15:57:01,52.2063803463954,0.0867536689576838,121.719164,121.719164,53.7813009336,175.5004649336,83.66142,0.3131716,5.1121720796,9.3151905868,20,4,16.812,175.5004649336,121.719164,0.4921268,5.1121720796,0.223694,-0.223694,-10.06623,288.2, 6.5, -8.5,0,0,1024,1024,1398,1024,0,0,57,0,275,-46.9,0,100,4.204,4.211,4.216,4.225,0,0,11.524,81.32,175.5004649336,121.719164,6,P-GPS,
12200,2023-07-07 15:57:02,52.2063808841454,0.0867533888408689,124.015752,124.015752,53.7813009336,177.7970529336,83.66142,0.3131716,5.2988190672,9.521161722,20,4,16.812,177.7970529336,124.015752,0.4921268,5.2988190672,0.223694,-0.223694,-7.605596,288.3, 7.2, -10.1,0,0,1024,1024,1422,1024,0,0,60,0,275,-49.8,0,100,4.204,4.211,4.216,4.225,0,0,11.524,81.32,177.7970529336,124.015752,6,P-GPS,
12400,2023-07-07 15:57:02,52.2063815167889,0.0867529551444138,125.656172,125.656172,53.7813009336,179.4374729336,83.66142,0.4921268,5.5179135624,9.7715226224,20,4,16.812,179.4374729336,125.656172,0.4921268,5.5179135624,0.447388,-0.223694,-5.368656,287.9, 8.5, -12.6,0,0,1024,1024,1465,1024,0,0,67,0,275,-52.7,0,100,4.204,4.211,4.216,4.225,0,0,11.524,81.32,179.4374729336,125.656172,6,P-GPS,
12600,2023-07-07 15:57:02,52.2063821458793,0.0867522152567588,126.968508,126.968508,53.7813009336,180.7498089336,83.66142,0.3131716,5.7334647504,10.0544294556,20,4,16.812,180.7498089336,126.968508,0.4921268,5.7334647504,0.223694,-0.223694,-4.921268,287.6, 10, -14.1,0,0,1024,1024,1434,1024,0,0,62,0,275,-55.6,0,100,4.204,4.211,4.216,4.225,0,0,11.524,81.32,180.7498089336,126.968508,6,P-GPS,
12800,2023-07-07 15:57:02,52.2063823239328,0.0867514013773675,128.937012,128.937012,53.7813009336,182.7183129336,83.66142,0.223694,5.7896655396,10.2476709316,20,4,16.812,182.7183129336,128.937012,0.4921268,5.7896655396,-0.223694,0,-5.368656,287.8, 8.8, -11.9,0,0,1024,1024,1304,1024,0,0,42,0,275,-58.6,0,100,4.204,4.211,4.216,4.225,0,0,11.524,81.32,182.7183129336,128.937012,6,P-GPS,
13000,2023-07-07 15:57:02,52.2063820986349,0.0867505459711126,130.905516,130.905516,53.7813009336,184.6868169336,83.66142,0.447388,5.7045277416,10.4558402296,20,4,17.075,184.6868169336,130.905516,0.4921268,5.7896655396,-0.447388,0,-4.47388,288.3, 6.5, -8.5,0,0,1024,1024,1024,1024,0,0,0,0,275,-61.5,0,100,4.224,4.213,4.205,4.208,0,0,6.504,81.68,184.6868169336,130.905516,6,P-GPS,
13200,2023-07-07 15:57:03,52.2063819823574,0.0867494715474803,131.561684,131.561684,53.7813009336,185.3429849336,83.66142,0,5.667487058,10.6997706836,20,4,17.075,185.3429849336,131.561684,0.4921268,5.7896655396,0,0,-2.460634,288.3, 7.5, -9.4,0,0,1024,1024,1024,1024,0,0,0,0,275,-64.4,0,100,4.224,4.213,4.205,4.208,0,0,6.504,81.68,185.3429849336,131.561684,6,P-GPS,
13400,2023-07-07 15:57:03,52.2063820356243,0.0867482178505047,132.217852,132.217852,53.7813009336,185.9991529336,83.66142,0.223694,5.7059713112,10.9807746296,20,5,17.075,185.9991529336,132.217852,0.4921268,5.7896655396,0,-0.223694,-0.671082,288.2, 9, -10,0,0,1024,1024,1024,1024,0,0,0,0,275,-67.3,0,100,4.224,4.213,4.205,4.208,0,0,6.504,81.68,185.9991529336,132.217852,6,P-GPS,
13600,2023-07-07 15:57:03,52.2063820689142,0.0867469695658541,132.217852,132.217852,53.7813009336,185.9991529336,83.66142,0.223694,5.7505251184,11.2601381556,20,5,17.075,185.9991529336,132.217852,0.4921268,5.7896655396,0,-0.223694,0,288.4, 9.4, -9.2,0,0,1024,1024,1024,1024,0,0,0,0,275,-70.2,0,100,4.224,4.213,4.205,4.208,0,0,6.504,81.68,185.9991529336,132.217852,6,P-GPS,
13800,2023-07-07 15:57:03,52.206381959502,0.0867458196215122,132.217852,132.217852,53.7813009336,185.9991529336,83.66142,0.223694,5.75295294,11.5203087676,20,5,17.075,185.9991529336,132.217852,0.4921268,5.7896655396,-0.223694,0,0,288.3, 8.8, -7.7,0,0,1024,1024,1024,1024,0,0,0,0,275,-73.1,0,100,4.224,4.213,4.205,4.208,0,0,6.504,81.68,185.9991529336,132.217852,6,P-GPS,
14000,2023-07-07 15:57:03,52.2063817592773,0.0867447768645353,132.217852,132.217852,53.7813009336,185.9991529336,83.66142,0.447388,5.7294293172,11.7646329224,20,5,17.097,185.9991529336,132.217852,0.4921268,5.7896655396,-0.447388,0,0,288.6, 8.4, -5.1,0,0,1024,1024,1024,1024,0,0,0,0,275,-76,0,100,4.252,4.257,4.252,4.253,0,0,7.198,81.86,185.9991529336,132.217852,6,P-GPS,
14200,2023-07-07 15:57:04,52.206381600177,0.0867438904132007,132.217852,132.217852,53.7813009336,185.9991529336,83.66142,0.223694,5.721456876,11.9711618004,20,5,17.097,185.9991529336,132.217852,0.4921268,5.7896655396,-0.223694,0,0,289, 8.5, -3.4,0,0,1024,1024,1024,1024,0,0,0,0,275,-79,0,100,4.252,4.257,4.252,4.253,0,0,7.198,81.86,185.9991529336,132.217852,6,P-GPS,
14400,2023-07-07 15:57:04,52.2063816079269,0.0867432791736246,132.217852,132.217852,53.7813009336,185.9991529336,83.66142,0.223694,5.7613846988,12.1078744032,20,5,17.097,185.9991529336,132.217852,0.4921268,5.7896655396,-0.223694,0,0,289.4, 7.3, -2.9,0,0,1024,1024,1024,1024,0,0,0,0,275,-81.9,0,100,4.252,4.257,4.252,4.253,0,0,7.198,81.86,185.9991529336,132.217852,6,P-GPS,
14600,2023-07-07 15:57:04,52.2063817460607,0.0867428591486819,132.217852,132.217852,53.7813009336,185.9991529336,83.66142,0,5.8368112104,12.2144360864,20,5,17.097,185.9991529336,132.217852,0.4921268,5.8368112104,0,0,0,289.3, 7.3, -3.8,0,0,1024,1024,1024,1024,0,0,0,0,275,-84.8,0,100,4.252,4.257,4.252,4.253,0,0,7.198,81.86,185.9991529336,132.217852,6,P-GPS,
14800,2023-07-07 15:57:04,52.2063819987866,0.0867426014938625,132.217852,132.217852,53.7813009336,185.9991529336,83.66142,0,5.9419949408,12.323163124,20,5,17.097,185.9991529336,132.217852,0.4921268,5.9419949408,0,0,0,289.3, 6.3, -4.1,0,0,1024,1024,1024,1024,0,0,0,0,275,-87.7,0,100,4.252,4.257,4.252,4.253,0,0,7.198,81.86,185.9991529336,132.217852,6,P-GPS,
15000,2023-07-07 15:57:05,52.2063823696458,0.0867424678743245,132.217852,132.217852,53.7813009336,185.9991529336,83.66142,0,6.080052688,12.4617458056,20,5,17.011,185.9991529336,132.217852,0.4921268,6.080052688,0,0,0,289, 6.9, -4.3,0,0,1024,1024,1024,1024,0,0,0,0,275,-89.9,0,100,4.246,4.253,4.252,4.254,0,0,6.929,81.86,185.9991529336,132.217852,6,P-GPS,
15200,2023-07-07 15:57:05,52.2063829518987,0.0867424048556207,132.217852,132.217852,53.7813009336,185.9991529336,83.66142,0.223694,6.2872049256,12.6746395132,20,5,17.011,185.9991529336,132.217852,0.4921268,6.2872049256,0.223694,0,0,289.2, 6.6, -5.8,0,0,1024,1024,1024,1024,0,0,0,0,275,-89.9,0,100,4.246,4.253,4.252,4.254,0,0,6.929,81.86,185.9991529336,132.217852,6,P-GPS,
15400,2023-07-07 15:57:05,52.2063835659338,0.0867423663259395,132.217852,132.217852,53.7813009336,185.9991529336,83.66142,0.223694,6.5043309168,12.8988193104,20,5,17.011,185.9991529336,132.217852,0.4921268,6.5043309168,0.223694,0,0,289.1, 7.1, -7.3,0,0,1024,1024,1024,1024,0,0,0,0,275,-90,0,100,4.246,4.253,4.252,4.254,0,0,6.929,81.86,185.9991529336,132.217852,6,P-GPS,
15600,2023-07-07 15:57:05,52.2063841690033,0.0867423062368143,132.217852,132.217852,53.7813009336,185.9991529336,83.66142,0.223694,6.7193899788,13.11925895,20,5,17.011,185.9991529336,132.217852,0.4921268,6.7193899788,0.223694,0,0,288.9, 7.4, -8,0,0,1024,1024,1024,1024,0,0,0,0,275,-90,0,100,4.246,4.253,4.252,4.254,0,0,6.929,81.86,185.9991529336,132.217852,6,P-GPS,
15800,2023-07-07 15:57:05,52.2063847271608,0.086742234602371,132.217852,132.217852,53.7813009336,185.9991529336,83.66142,0.223694,6.9196852608,13.3235568568,20,5,17.011,185.9991529336,132.217852,0.4921268,6.9196852608,0.223694,0,0,289, 7.7, -8,0,0,1024,1024,1024,1024,0,0,0,0,275,-89.9,0,100,4.246,4.253,4.252,4.254,0,0,6.929,81.86,185.9991529336,132.217852,6,P-GPS,
16000,2023-07-07 15:57:05,52.2063852247909,0.0867421917228816,132.217852,132.217852,53.7813009336,185.9991529336,83.66142,0,7.0972443216,13.5053482012,20,5,17.003,185.9991529336,132.217852,0.4921268,7.0972443216,0,0,0,289.1, 6.9, -7.5,0,0,1024,1024,1024,1024,0,0,0,0,275,-89.9,0,100,4.247,4.256,4.249,4.251,0,0,6.761,81.86,185.9991529336,132.217852,6,P-GPS,
16200,2023-07-07 15:57:06,52.2063856022531,0.0867421597605066,132.217852,132.217852,53.7813009336,185.9991529336,83.66142,0,7.2319884204,13.6432419064,20,5,17.003,185.9991529336,132.217852,0.4921268,7.2319884204,0,0,0,289.1, 6.4, -7.5,0,0,1024,1024,1024,1024,0,0,0,0,275,-89.9,0,100,4.247,4.256,4.249,4.251,0,0,6.761,81.86,185.9991529336,132.217852,6,P-GPS,
16400,2023-07-07 15:57:06,52.2063858972373,0.086742088574281,132.217852,132.217852,53.7813009336,185.9991529336,83.66142,0,7.34005929,13.7520673692,20,5,17.003,185.9991529336,132.217852,0.4921268,7.34005929,0,0,0,289.2, 5.8, -7.5,0,0,1024,1024,1024,1024,0,0,0,0,275,-89.9,0,100,4.247,4.256,4.249,4.251,0,0,6.761,81.86,185.9991529336,132.217852,6,P-GPS,
16600,2023-07-07 15:57:06,52.2063860936272,0.0867418881882231,132.217852,132.217852,53.7813009336,185.9991529336,83.66142,0,7.4208991876,13.8365489992,20,5,17.003,185.9991529336,132.217852,0.4921268,7.4208991876,0,0,0,289.1, 5.8, -7.8,0,0,1024,1024,1024,1024,0,0,0,0,275,-89.9,0,100,4.247,4.256,4.249,4.251,0,0,6.761,81.86,185.9991529336,132.217852,6,P-GPS,
16800,2023-07-07 15:57:06,52.2063862339081,0.0867415347279713,132.217852,132.217852,53.7813009336,185.9991529336,83.66142,0,7.4912732056,13.9307091072,20,5,17.003,185.9991529336,132.217852,0.4921268,7.4912732056,0,0,0,289.2, 6.4, -7.2,0,0,1024,1024,1024,1024,0,0,0,0,275,-89.9,0,100,4.247,4.256,4.249,4.251,0,0,6.761,81.86,185.9991529336,132.217852,6,P-GPS,
17000,2023-07-07 15:57:06,52.2063862920924,0.086741054326013,132.217852,132.217852,53.7813009336,185.9991529336,83.66142,0,7.541338824,14.040190738,20,5,16.999,185.9991529336,132.217852,0.4921268,7.541338824,0,0,0,289, 7.1, -6.2,0,0,1024,1024,1024,1024,0,0,0,0,275,-89.9,0,100,4.251,4.254,4.25,4.249,0,0,6.911,81.86,185.9991529336,132.217852,6,P-GPS,
17200,2023-07-07 15:57:07,52.2063862784025,0.0867406166375375,132.217852,132.217852,53.7813009336,185.9991529336,83.66142,0,7.5647640216,14.1381894288,20,5,16.999,185.9991529336,132.217852,0.4921268,7.5647640216,0,0,0,289.1, 6.4, -5.5,0,0,1039,1024,1024,1024,2,0,0,0,275,-89.9,0,100,4.251,4.254,4.25,4.249,0,0,6.911,81.86,185.9991529336,132.217852,6,P-GPS,
17400,2023-07-07 15:57:07,52.2063862362148,0.0867402264697448,132.545936,132.545936,53.7813009336,186.3272369336,83.66142,0,7.5762469616,14.2267721088,20,5,16.999,186.3272369336,132.545936,0.4921268,7.5762469616,0,0,0,289.2, 5.6, -5.7,0,0,1593,1024,1024,1024,86,0,0,0,275,-89.9,0,100,4.251,4.254,4.25,4.249,0,0,6.911,81.86,186.3272369336,132.545936,6,P-GPS,
17600,2023-07-07 15:57:07,52.2063862027846,0.0867398176393221,132.545936,132.545936,53.7813009336,186.3272369336,83.66142,0,7.5931104792,14.3189965212,20,5,16.999,186.3272369336,132.545936,0.4921268,7.5931104792,0,0,-0.223694,289.1, -6.6, 0.4,0,0,1684,1024,1024,1024,100,0,0,0,275,-89.9,0,100,4.251,4.254,4.25,4.249,0,0,6.911,81.86,186.3272369336,132.545936,6,P-GPS,
17800,2023-07-07 15:57:07,52.2063865013005,0.0867386600363994,132.545936,132.545936,53.7813009336,186.3272369336,83.66142,1.006623,7.7812666532,14.5998036168,20,5,16.999,186.3272369336,132.545936,1.006623,7.7812666532,0.447388,-0.894776,0,288.8, -22.3, 0.4,0,0,1684,1024,1024,1024,100,0,0,0,275,-89.9,0,100,4.251,4.254,4.25,4.249,0,0,6.911,81.86,186.3272369336,132.545936,6,P-GPS,
18000,2023-07-07 15:57:07,52.2063873823147,0.0867355491944081,132.217852,132.217852,53.7813009336,185.9991529336,83.66142,2.9974996,8.3391734952,15.3660437988,21,5,16.994,186.3272369336,132.545936,2.9974996,8.3391734952,1.342164,-2.684328,0,290.2, -27, -2.4,0,0,1676,1024,1024,1024,99,0,0,0,275,-89.9,0,100,4.254,4.261,4.262,4.269,0,0,6.825,82.04,185.9991529336,132.217852,6,P-GPS,
18200,2023-07-07 15:57:08,52.2063888329895,0.0867297512237713,132.217852,132.217852,53.7813009336,185.9991529336,83.66142,5.3239172,9.3964569936,16.7662735024,21,5,16.994,186.3272369336,132.545936,5.3239172,9.3964569936,2.013246,-4.921268,0,291.2, -26.7, -4.7,0,0,1660,1024,1024,1024,96,0,0,0,275,-89.9,0,100,4.254,4.261,4.262,4.269,0,0,6.825,82.04,185.9991529336,132.217852,6,P-GPS,
18400,2023-07-07 15:57:08,52.206390473432,0.0867210973080696,132.217852,132.217852,53.7813009336,185.9991529336,83.66142,7.3595326,10.9628612432,18.7916016512,20,5,16.994,186.3272369336,132.545936,7.3595326,10.9628612432,2.460634,-6.934514,0.223694,288.3, -24.5, -2.6,0,0,1675,1024,1024,1024,99,0,0,0,275,-90,0,100,4.254,4.261,4.262,4.269,0,0,6.825,82.04,185.9991529336,132.217852,6,P-GPS,
18600,2023-07-07 15:57:08,52.2063926107036,0.0867099366341971,131.889768,131.8569596,53.8141093336,185.6710689336,83.66142,9.3504092,13.174869188,21.406004622,20,5,16.994,186.3272369336,132.545936,9.3504092,13.174869188,2.684328,-8.94776,0.223694,285.8, -22.3, -3.8,0,0,1664,1024,1024,1024,97,0,0,0,275,-89.9,0,100,4.254,4.261,4.262,4.269,0,0,6.825,82.04,185.6710689336,131.889768,6,P-GPS,
18800,2023-07-07 15:57:08,52.206395152406,0.0866965612286273,131.889768,131.8241512,53.8469177336,185.6710689336,83.66142,10.961006,15.981955892,24.5370414676,20,5,16.994,186.3272369336,132.545936,10.961006,15.981955892,3.131716,-10.513618,0,285.7, -20.4, -6.6,0,0,1660,1024,1024,1024,96,0,0,0,275,-89.9,0,100,4.254,4.261,4.262,4.269,0,0,6.825,82.04,185.6710689336,131.889768,6,P-GPS,
19000,2023-07-07 15:57:08,52.2063978284589,0.0866810004325794,131.889768,131.7913428,53.8797261336,185.6710689336,83.66142,12.4821252,19.3121397256,28.1506242604,20,5,17.011,186.3272369336,132.545936,12.4821252,19.3121397256,3.131716,-12.079476,0,285, -21.7, -6.6,0,0,1621,1024,1024,1024,90,0,0,0,275,-90,0,100,4.233,4.237,4.231,4.236,0,0,6.561,82.04,185.6710689336,131.889768,6,P-GPS,
19200,2023-07-07 15:57:09,52.206400561623,0.0866640473484155,131.889768,131.7585344,53.9125345336,185.6710689336,83.66142,14.0479832,23.0016739644,32.0700797664,20,5,17.011,186.3272369336,132.545936,14.0479832,23.0016739644,3.35541,-13.645334,0,284.6, -21.4, -5.9,0,0,1577,1024,1024,1024,84,0,0,0,275,-90,0,100,4.233,4.237,4.231,4.236,0,0,6.561,82.04,185.6710689336,131.889768,6,P-GPS,
19400,2023-07-07 15:57:09,52.2064037003209,0.0866442103147571,131.561684,131.397642,53.9453429336,185.3429849336,83.66142,15.2559308,27.38927253,36.650919808,20,5,17.011,186.3272369336,132.545936,15.2559308,27.38927253,3.802798,-14.763804,0,284.6, -17.9, -5.1,0,0,1067,1024,1024,1024,7,0,0,0,275,-89.9,0,100,4.233,4.237,4.231,4.236,0,0,6.561,82.04,185.3429849336,131.561684,6,P-GPS,
19600,2023-07-07 15:57:09,52.2064070400349,0.0866234239054219,131.561684,131.3320252,54.0109597336,185.3429849336,83.66142,16.3744008,32.0534459076,41.455381904,19,5,17.011,186.3272369336,132.545936,16.3744008,32.0534459076,4.026492,-15.882274,0,284.3, -6.1, -6,0,0,1024,1024,1024,1024,0,0,0,0,275,-90,0,100,4.233,4.237,4.231,4.236,0,0,6.561,82.04,185.3429849336,131.561684,6,P-GPS,
19800,2023-07-07 15:57:09,52.2064104389504,0.0866025148958881,131.889768,131.6273008,54.0437681336,185.6710689336,83.66142,15.9046434,36.78805892,46.291996232,19,5,17.011,186.3272369336,132.545936,16.3744008,36.78805892,3.802798,-15.434886,0,283.9, 22.3, -2.8,0,0,1024,1024,1024,1024,0,0,0,0,275,-90,0,100,4.233,4.237,4.231,4.236,0,0,6.561,82.04,185.6710689336,131.889768,6,P-GPS,
20000,2023-07-07 15:57:09,52.2064136048803,0.0865839429089537,131.561684,131.2664084,54.0765765336,185.3429849336,83.66142,13.6677034,41.035762468,50.602363824,19,5,16.971,186.3272369336,132.545936,16.3744008,41.035762468,3.579104,-13.197946,0,282.9, 28.4, -3.3,0,0,1024,1024,1024,1024,0,0,0,0,275,-89.9,0,100,4.241,4.247,4.242,4.239,0,0,7.74,81.86,185.3429849336,131.561684,6,P-GPS,
20200,2023-07-07 15:57:10,52.2064166488518,0.0865681678141892,131.889768,131.561684,54.1093849336,185.6710689336,83.66142,11.408394,44.706038176,54.299870504,20,5,16.971,186.3272369336,132.545936,16.3744008,44.706038176,3.131716,-10.961006,0,282.1, 27.8, -6.8,0,0,1024,1024,1024,1024,0,0,0,0,275,-89.9,0,100,4.241,4.247,4.242,4.239,0,0,7.74,81.86,185.6710689336,131.889768,6,P-GPS,
20400,2023-07-07 15:57:10,52.2064193506011,0.0865553358930631,131.889768,131.5288756,54.1421933336,185.6710689336,83.66142,9.1267152,47.7280199,57.333663252,20,5,16.971,186.3272369336,132.545936,16.3744008,47.7280199,2.684328,-8.724066,0,281.3, 27.2, -9.5,0,0,1024,1024,1024,1024,0,0,0,0,275,-89.9,0,100,4.241,4.247,4.242,4.239,0,0,7.74,81.86,185.6710689336,131.889768,6,P-GPS,
20600,2023-07-07 15:57:10,52.2064215998251,0.086545007378523,131.889768,131.4960672,54.1750017336,185.6710689336,83.66142,7.0016222,50.1722457,59.784450732,20,5,16.971,186.3272369336,132.545936,16.3744008,50.1722457,2.013246,-6.71082,0,281.5, 27.6, -9.7,0,0,1024,1024,1024,1024,0,0,0,0,275,-89.9,0,100,4.241,4.247,4.242,4.239,0,0,7.74,81.86,185.6710689336,131.889768,6,P-GPS,
20800,2023-07-07 15:57:10,52.2064232439942,0.0865376548894419,131.889768,131.4960672,54.1750017336,185.6710689336,83.66142,5.1002232,51.918636832,61.534450788,20,5,16.971,186.3272369336,132.545936,16.3744008,51.918636832,1.342164,-4.921268,0,281.3, 28.5, -9.5,0,0,1024,1024,1024,1024,0,0,0,0,275,-90,0,100,4.241,4.247,4.242,4.239,0,0,7.74,81.86,185.6710689336,131.889768,6,P-GPS,
21000,2023-07-07 15:57:10,52.2064243751684,0.0865327733046137,131.889768,131.4632588,54.2078101336,185.6710689336,83.66142,3.1988242,53.084319284,62.701445576,19,5,16.913,186.3272369336,132.545936,16.3744008,53.084319284,0.671082,-3.131716,0,281.2, 28, -9.4,0,0,1024,1024,1024,1024,0,0,0,0,275,-89.9,0,100,4.228,4.229,4.224,4.229,0,0,7.769,82.04,185.6710689336,131.889768,6,P-GPS,
21200,2023-07-07 15:57:11,52.2064250468909,0.0865301425587791,131.889768,131.4632588,54.2078101336,185.6710689336,83.66142,1.8119214,53.721458412,63.338584704,19,5,16.913,186.3272369336,132.545936,16.3744008,53.721458412,0.223694,-1.789552,0,282, 19.9, -8.3,0,0,1024,1024,1024,1024,0,0,0,0,275,-89.9,0,100,4.228,4.229,4.224,4.229,0,0,7.769,82.04,185.6710689336,131.889768,6,P-GPS,
21400,2023-07-07 15:57:11,52.2064253020305,0.0865288240963927,131.889768,131.4632588,54.2078101336,185.6710689336,83.66142,0.894776,54.02887312,63.647639832,19,5,16.913,186.3272369336,132.545936,16.3744008,54.02887312,0,-0.894776,0,282.7, 13.4, -6.4,0,0,1024,1024,1024,1024,0,0,0,0,275,-90,0,100,4.228,4.229,4.224,4.229,0,0,7.769,82.04,185.6710689336,131.889768,6,P-GPS,
21600,2023-07-07 15:57:11,52.2064253247413,0.0865281020972529,131.889768,131.4632588,54.2078101336,185.6710689336,83.66142,0.7158208,54.180447928,63.809385244,19,5,16.913,186.3272369336,132.545936,16.3744008,54.180447928,-0.223694,-0.671082,0,283.1, 10.9, -4.4,0,0,1024,1024,1024,1024,0,0,0,0,275,-89.9,0,100,4.228,4.229,4.224,4.229,0,0,7.769,82.04,185.6710689336,131.889768,6,P-GPS,
21800,2023-07-07 15:57:11,52.2064252546898,0.0865276976004746,132.217852,131.7913428,54.2078101336,185.9991529336,83.66142,0.4921268,54.253282576,63.903217268,19,5,16.913,186.3272369336,132.545936,16.3744008,54.253282576,-0.223694,-0.447388,0,283.2, 9.6, -3,0,0,1024,1024,1024,1024,0,0,0,0,275,-89.9,0,100,4.228,4.229,4.224,4.229,0,0,7.769,82.04,185.9991529336,132.217852,6,P-GPS,
22000,2023-07-07 15:57:11,52.2064252049974,0.0865274969387585,132.217852,131.7913428,54.2078101336,185.9991529336,83.66142,0.223694,54.287403312,63.9517737,19,5,16.89,186.3272369336,132.545936,16.3744008,54.287403312,0,-0.223694,0,283.2, 8.8, -3.3,0,0,1024,1024,1024,1024,0,0,0,0,275,-89.9,0,100,4.237,4.242,4.239,4.24,0,0,8.553,82.22,185.9991529336,132.217852,6,P-GPS,
22200,2023-07-07 15:57:12,52.2064251772278,0.08652737015869,132.217852,131.7913428,54.2078101336,185.9991529336,83.66142,0,54.30938494,63.981629344,20,5,16.89,186.3272369336,132.545936,16.3744008,54.30938494,0,0,0,283.3, 8.4, -3.4,0,0,1024,1024,1024,1024,0,0,0,0,275,-89.9,0,100,4.237,4.242,4.239,4.24,0,0,8.553,82.22,185.9991529336,132.217852,6,P-GPS,
22400,2023-07-07 15:57:12,52.2064251518783,0.0865273688865556,132.217852,131.7913428,54.2078101336,185.9991529336,83.66142,0,54.3061041,63.99114378,20,5,16.89,186.3272369336,132.545936,16.3744008,54.30938494,0,0,0,283.4, 7, -3.4,0,0,1024,1024,1024,1024,0,0,0,0,275,-89.9,0,100,4.237,4.242,4.239,4.24,0,0,8.553,82.22,185.9991529336,132.217852,6,P-GPS,
22600,2023-07-07 15:57:12,52.2064251717364,0.0865275032015737,132.217852,131.7913428,54.2078101336,185.9991529336,83.66142,0,54.281169716,64.021983676,20,5,16.89,186.3272369336,132.545936,16.3744008,54.30938494,0,0,0,283.1, 5.7, -3,0,0,1024,1024,1024,1024,0,0,0,0,275,-90,0,100,4.237,4.242,4.239,4.24,0,0,8.553,82.22,185.9991529336,132.217852,6,P-GPS,
22800,2023-07-07 15:57:12,52.2064253023817,0.0865276810347693,132.217852,131.7913428,54.2078101336,185.9991529336,83.66142,0,54.26345318,64.083991552,20,5,16.89,186.3272369336,132.545936,16.3744008,54.30938494,0,0,0,283.4, 4.7, -4.9,0,0,1684,1024,1024,1024,100,0,0,0,275,-90,0,100,4.237,4.242,4.239,4.24,0,0,8.553,82.22,185.9991529336,132.217852,6,P-GPS,
23000,2023-07-07 15:57:13,52.2064255047277,0.08652765733952,132.217852,131.7913428,54.2078101336,185.9991529336,83.66142,0,54.297573916,64.158138536,20,5,16.972,186.3272369336,132.545936,16.3744008,54.30938494,0,0,0,283.5, -3.3, -2.3,0,0,1684,1024,1024,1024,100,0,0,0,275,-89.9,0,100,4.238,4.246,4.248,4.248,0,0,7.085,82.22,185.9991529336,132.217852,6,P-GPS,
23200,2023-07-07 15:57:13,52.2064259971321,0.0865265713561875,132.217852,131.7913428,54.2078101336,185.9991529336,83.66142,1.4987498,54.591865264,64.459975816,20,5,16.972,186.3272369336,132.545936,16.3744008,54.591865264,0.671082,-1.342164,0,283.3, -24.1, -1.2,0,0,1456,1024,1024,1024,65,0,0,0,275,-89.9,0,100,4.238,4.246,4.248,4.248,0,0,7.085,82.22,185.9991529336,132.217852,6,P-GPS,
23400,2023-07-07 15:57:13,52.2064269440878,0.0865230595944219,132.217852,131.7585344,54.2406185336,185.9991529336,83.66142,3.5343652,55.449804924,65.317915476,20,5,16.972,186.3272369336,132.545936,16.3744008,55.449804924,1.11847,-3.35541,0,283.7, -25.4, -1.4,0,0,1444,1024,1024,1024,64,0,0,0,275,-90,0,100,4.238,4.246,4.248,4.248,0,0,7.085,82.22,185.9991529336,132.217852,6,P-GPS,
23600,2023-07-07 15:57:13,52.2064282779208,0.086517093787678,131.889768,131.4304504,54.2406185336,185.6710689336,83.66142,5.4581336,56.867127804,66.737863028,20,5,16.972,186.3272369336,132.545936,16.3744008,56.867127804,1.789552,-5.144962,0,284.5, -16.4, -3.1,0,0,1024,1024,1024,1024,0,0,0,0,275,-90,0,100,4.238,4.246,4.248,4.248,0,0,7.085,82.22,185.6710689336,131.889768,6,P-GPS,
23800,2023-07-07 15:57:13,52.20643001379,0.0865088647281462,131.889768,131.397642,54.2734269336,185.6710689336,83.66142,6.5766036,58.80741658,68.683729232,20,5,16.972,186.3272369336,132.545936,16.3744008,58.80741658,2.013246,-6.263432,0,284.3, -4.3, -4.9,0,0,1024,1024,1024,1024,0,0,0,0,275,-89.9,0,100,4.238,4.246,4.248,4.248,0,0,7.085,82.22,185.6710689336,131.889768,6,P-GPS,
24000,2023-07-07 15:57:13,52.2064317944599,0.0865002603190898,131.889768,131.3648336,54.3062353336,185.6710689336,83.66142,6.3081708,60.832022944,70.714241108,20,5,16.996,186.3272369336,132.545936,16.3744008,60.832022944,1.789552,-6.039738,0.223694,282.7, 27.3, -5.6,0,0,1024,1024,1024,1024,0,0,0,0,275,-90,0,100,4.232,4.239,4.237,4.241,0,0,6.771,82.22,185.6710689336,131.889768,6,P-GPS,
24200,2023-07-07 15:57:14,52.2064332486793,0.0864936981189967,131.889768,131.3648336,54.3062353336,185.6710689336,83.66142,4.026492,62.389765776,72.274280528,20,5,16.996,186.3272369336,132.545936,16.3744008,62.389765776,1.342164,-3.802798,0,281.6, 29.2, -6.4,0,0,1024,1024,1024,1024,0,0,0,0,275,-90,0,100,4.232,4.239,4.237,4.241,0,0,6.771,82.22,185.6710689336,131.889768,6,P-GPS,
24400,2023-07-07 15:57:14,52.2064341948212,0.0864898058073331,131.889768,131.3648336,54.3062353336,185.6710689336,83.66142,1.901399,63.325789428,73.210632264,20,5,16.996,186.3272369336,132.545936,16.3744008,63.325789428,0.671082,-1.789552,0,281.5, 26.1, -8.3,0,0,1024,1024,1024,1024,0,0,0,0,275,-90,0,100,4.232,4.239,4.237,4.241,0,0,6.771,82.22,185.6710689336,131.889768,6,P-GPS,
24600,2023-07-07 15:57:14,52.2064346047433,0.0864880697493786,131.889768,131.3320252,54.3390437336,185.6710689336,83.66142,0.671082,63.741471856,73.626642776,20,5,16.996,186.3272369336,132.545936,16.3744008,63.741471856,0,-0.671082,0,282.7, 14.8, -6.9,0,0,1024,1024,1024,1024,0,0,0,0,275,-90,0,100,4.232,4.239,4.237,4.241,0,0,6.771,82.22,185.6710689336,131.889768,6,P-GPS,
24800,2023-07-07 15:57:14,52.2064346849424,0.0864871913895523,131.889768,131.3320252,54.3390437336,185.6710689336,83.66142,0.447388,63.93372908,73.825133596,20,5,16.996,186.3272369336,132.545936,16.3744008,63.93372908,0,-0.447388,0,283.1, 10.7, -5,0,0,1024,1024,1024,1024,0,0,0,0,275,-89.9,0,100,4.232,4.239,4.237,4.241,0,0,6.771,82.22,185.6710689336,131.889768,6,P-GPS,
25000,2023-07-07 15:57:14,52.2064346284822,0.0864865659747651,131.889768,131.3320252,54.3390437336,185.6710689336,83.66142,0.223694,64.054463992,73.9665378,20,5,16.874,186.3272369336,132.545936,16.3744008,64.054463992,0,-0.223694,0,283.3, 10.1, -3.8,0,0,1024,1024,1024,1024,0,0,0,0,275,-90,0,99,4.224,4.234,4.227,4.232,0,0,8.315,82.22,185.6710689336,131.889768,6,P-GPS,
25200,2023-07-07 15:57:15,52.2064345224025,0.0864860853037015,131.889768,131.3320252,54.3390437336,185.6710689336,83.66142,0.223694,64.13878158,74.080711032,20,5,16.874,186.3272369336,132.545936,16.3744008,64.13878158,0,-0.223694,0,283.2, 9.6, -3,0,0,1024,1024,1024,1024,0,0,0,0,275,-90,0,99,4.224,4.234,4.227,4.232,0,0,8.315,82.22,185.6710689336,131.889768,6,P-GPS,
25400,2023-07-07 15:57:15,52.2064344691935,0.0864857618460738,132.217852,131.6929176,54.3062353336,185.9991529336,83.66142,0,64.1978367,74.155514184,20,5,16.874,186.3272369336,132.545936,16.3744008,64.1978367,0,0,0,283.2, 9.9, -3.1,0,0,1024,1024,1024,1024,0,0,0,0,275,-89.9,0,99,4.224,4.234,4.227,4.232,0,0,8.315,82.22,185.9991529336,132.217852,6,P-GPS,
25600,2023-07-07 15:57:15,52.2064344838343,0.0864856622561291,132.217852,131.6929176,54.3062353336,185.9991529336,83.66142,0,64.220474496,74.178480064,20,5,16.874,186.3272369336,132.545936,16.3744008,64.220474496,0,0,0,283.2, 9.3, -3.9,0,0,1024,1024,1024,1024,0,0,0,0,275,-89.9,0,99,4.224,4.234,4.227,4.232,0,0,8.315,82.22,185.9991529336,132.217852,6,P-GPS,
25800,2023-07-07 15:57:15,52.2064345001757,0.0864857709327476,132.217852,131.6601092,54.3390437336,185.9991529336,83.66142,0,64.200461372,74.203414448,21,5,16.874,186.3272369336,132.545936,16.3744008,64.220474496,0,0,0,283.2, 6.7, -4.4,0,0,1024,1024,1024,1024,0,0,0,0,275,-90,0,99,4.224,4.234,4.227,4.232,0,0,8.315,82.22,185.9991529336,132.217852,6,P-GPS,
26000,2023-07-07 15:57:15,52.2064345482403,0.086485917214216,132.217852,131.6601092,54.3390437336,185.9991529336,83.66142,0,64.176839324,74.24048794,21,5,16.874,186.3272369336,132.545936,16.3744008,64.220474496,0,0,0,283.2, 6.2, -4.3,0,0,1024,1024,1024,1024,0,0,0,0,275,-89.9,0,99,4.229,4.231,4.223,4.243,0,0,8.315,82.22,185.9991529336,132.217852,6,P-GPS,
26200,2023-07-07 15:57:16,52.2064345778004,0.0864859961145034,132.217852,131.6601092,54.3390437336,185.9991529336,83.66142,0,64.164700216,74.261157232,21,5,16.874,186.3272369336,132.545936,16.3744008,64.220474496,0,0,0,283.4, 6.3, -4.2,0,0,1024,1024,1024,1024,0,0,0,0,275,-89.9,0,99,4.229,4.231,4.223,4.243,0,0,8.315,82.22,185.9991529336,132.217852,6,P-GPS,
26400,2023-07-07 15:57:16,52.2064345929767,0.0864860369905559,132.217852,131.6601092,54.3390437336,185.9991529336,83.66142,0,64.15846662,74.271984004,22,5,16.874,186.3272369336,132.545936,16.3744008,64.220474496,0,0,0,283.4, 6, -3.6,0,0,1024,1024,1024,1024,0,0,0,0,275,-89.9,0,99,4.229,4.231,4.223,4.243,0,0,8.315,82.22,185.9991529336,132.217852,6,P-GPS,
26600,2023-07-07 15:57:16,52.2064346373618,0.0864860524798399,132.217852,131.6601092,54.3390437336,185.9991529336,83.66142,0,64.16174746,74.288716288,22,5,16.874,186.3272369336,132.545936,16.3744008,64.220474496,0,0,0,283.4, 6.4, -3.5,0,0,1024,1024,1024,1024,0,0,0,0,275,-89.9,0,99,4.229,4.231,4.223,4.243,0,0,8.315,82.22,185.9991529336,132.217852,6,P-GPS,
26800,2023-07-07 15:57:16,52.2064347492799,0.0864860718274653,132.217852,131.6601092,54.3390437336,185.9991529336,83.66142,0,64.173558484,74.329726788,22,5,16.874,186.3272369336,132.545936,16.3744008,64.220474496,0,0,0,283.4, 5.6, -3.7,0,0,1024,1024,1024,1024,0,0,0,0,275,-89.9,0,99,4.229,4.231,4.223,4.243,0,0,8.315,82.22,185.9991529336,132.217852,6,P-GPS,
27000,2023-07-07 15:57:16,52.206434904298,0.0864861524332515,132.217852,131.6601092,54.3390437336,185.9991529336,83.66142,0,64.178807828,74.389109992,22,5,16.941,186.3272369336,132.545936,16.3744008,64.220474496,0,0,0,283.4, 5.2, -3.8,0,0,1024,1024,1024,1024,0,0,0,0,275,-89.9,0,99,4.242,4.248,4.243,4.248,0,0,7.613,82.4,185.9991529336,132.217852,6,P-GPS,
27200,2023-07-07 15:57:17,52.206435142231,0.0864862255739857,132.545936,131.9881932,54.3390437336,186.3272369336,83.66142,0,64.197508616,74.477364588,22,5,16.941,186.3272369336,132.545936,16.3744008,64.220474496,0,0,0,283.3, 4.7, -3.9,0,0,1024,1024,1024,1024,0,0,0,0,275,-90,0,99,4.242,4.248,4.243,4.248,0,0,7.613,82.4,186.3272369336,132.545936,6,P-GPS,
27400,2023-07-07 15:57:17,52.206435441503,0.0864862479132237,132.217852,131.6601092,54.3390437336,185.9991529336,83.66142,0,64.235894444,74.58661656,22,5,16.941,186.3272369336,132.545936,16.3744008,64.235894444,0,0,0,283.4, 4.3, -5,0,0,1024,1024,1024,1024,0,0,0,0,275,-90,0,99,4.242,4.248,4.243,4.248,0,0,7.613,82.4,185.9991529336,132.217852,6,P-GPS,
27600,2023-07-07 15:57:17,52.2064357898248,0.0864862223587011,132.217852,131.6601092,54.3390437336,185.9991529336,83.66142,0,64.291012556,74.713913152,22,5,16.941,186.3272369336,132.545936,16.3744008,64.291012556,0,0,0,283.4, 4.6, -6,0,0,1024,1024,1024,1024,0,0,0,0,275,-90,0,99,4.242,4.248,4.243,4.248,0,0,7.613,82.4,185.9991529336,132.217852,6,P-GPS,
27800,2023-07-07 15:57:17,52.2064360633447,0.0864861532440623,132.217852,131.6601092,54.3390437336,185.9991529336,83.66142,0,64.344490248,74.814963024,22,5,16.941,186.3272369336,132.545936,16.3744008,64.344490248,0,0,0,283.3, 4.5, -4.8,0,0,1024,1024,1024,1024,0,0,0,0,275,-89.9,0,99,4.242,4.248,4.243,4.248,0,0,7.613,82.4,185.9991529336,132.217852,6,P-GPS,
28000,2023-07-07 15:57:17,52.2064362932205,0.086486141109858,132.217852,131.6601092,54.3390437336,185.9991529336,83.66142,0,64.37992332,74.898624444,21,5,16.974,186.3272369336,132.545936,16.3744008,64.37992332,0,0,0,283.3, 4.1, -4.3,0,0,1024,1024,1024,1024,0,0,0,0,275,-90,0,99,4.241,4.246,4.24,4.243,0,0,6.791,82.4,185.9991529336,132.217852,6,P-GPS,
28200,2023-07-07 15:57:18,52.2064365124819,0.0864861461145183,132.217852,131.6601092,54.3390437336,185.9991529336,83.66142,0,64.410763216,74.97867694,21,5,16.974,186.3272369336,132.545936,16.3744008,64.410763216,0,0,0,283.3, 3.8, -4,0,0,1024,1024,1024,1024,0,0,0,0,275,-90,0,99,4.241,4.246,4.24,4.243,0,0,6.791,82.4,185.9991529336,132.217852,6,P-GPS,
28400,2023-07-07 15:57:18,52.206436726813,0.0864860545767646,132.217852,131.6601092,54.3390437336,185.9991529336,83.66142,0,64.460631984,75.059713688,21,5,16.974,186.3272369336,132.545936,16.3744008,64.460631984,0,0,0,283.4, 3.4, -4.5,0,0,1024,1024,1024,1024,0,0,0,0,275,-89.9,0,99,4.241,4.246,4.24,4.243,0,0,6.791,82.4,185.9991529336,132.217852,6,P-GPS,
28600,2023-07-07 15:57:18,52.2064368315263,0.086485894874978,132.217852,131.6601092,54.3390437336,185.9991529336,83.66142,0,64.508532248,75.111879044,21,5,16.974,186.3272369336,132.545936,16.3744008,64.508532248,0,0,0,283.5, 3.4, -4.2,0,0,1024,1024,1024,1024,0,0,0,0,275,-90,0,99,4.241,4.246,4.24,4.243,0,0,6.791,82.4,185.9991529336,132.217852,6,P-GPS,
28800,2023-07-07 15:57:18,52.2064368056928,0.0864856054714077,131.889768,131.3320252,54.3390437336,185.6710689336,83.66142,0,64.564306528,75.17716776,21,5,16.974,186.3272369336,132.545936,16.3744008,64.564306528,0,0,0,283.5, 3.4, -3,0,0,1024,1024,1024,1024,0,0,0,0,275,-90,0,99,4.241,4.246,4.24,4.243,0,0,6.791,82.4,185.6710689336,131.889768,6,P-GPS,
29000,2023-07-07 15:57:18,52.2064367219898,0.0864852490221645,131.889768,131.3320252,54.3390437336,185.6710689336,83.66142,0,64.625330152,75.2624696,21,5,16.973,186.3272369336,132.545936,16.3744008,64.625330152,0,0,0,283, 5, -0.8,0,0,1024,1024,1024,1024,0,0,0,0,275,-89.9,0,99,4.238,4.245,4.24,4.245,0,0,6.544,82.4,185.6710689336,131.889768,6,P-GPS,
29200,2023-07-07 15:57:19,52.2064366362051,0.0864850441106809,131.889768,131.3320252,54.3390437336,185.6710689336,83.66142,0,64.654857712,75.31824388,22,5,16.973,186.3272369336,132.545936,16.3744008,64.654857712,0,0,0,283.9, 2.6, -1.2,0,0,1024,1024,1024,1024,0,0,0,0,275,-90,0,99,4.238,4.245,4.24,4.245,0,0,6.544,82.4,185.6710689336,131.889768,6,P-GPS,
29400,2023-07-07 15:57:19,52.2064365675756,0.0864849158627651,131.889768,131.3320252,54.3390437336,185.6710689336,83.66142,0,64.671261912,75.356301624,22,5,16.973,186.3272369336,132.545936,16.3744008,64.671261912,0,0,0,283.2, 3, 0.2,0,0,1024,1024,1024,1024,0,0,0,0,275,-90,0,99,4.238,4.245,4.24,4.245,0,0,6.544,82.4,185.6710689336,131.889768,6,P-GPS,
29600,2023-07-07 15:57:19,52.2064365332523,0.0864849872420825,131.889768,131.3320252,54.3390437336,185.6710689336,83.66142,0,64.651576872,75.376314748,22,5,16.973,186.3272369336,132.545936,16.3744008,64.671261912,0,0,0,283.1, 1.4, -0.1,0,0,1024,1024,1024,1024,0,0,0,0,275,-89.9,0,99,4.238,4.245,4.24,4.245,0,0,6.544,82.4,185.6710689336,131.889768,6,P-GPS,
29800,2023-07-07 15:57:19,52.2064365592058,0.0864851536260693,131.561684,131.0039412,54.3390437336,185.3429849336,83.66142,0.223694,64.62106506,75.414700576,22,5,16.973,186.3272369336,132.545936,16.3744008,64.671261912,0,0.223694,0,283.1, -1.4, -1,0,0,1024,1024,1024,1024,0,0,0,0,275,-90,0,99,4.238,4.245,4.24,4.245,0,0,6.544,82.4,185.3429849336,131.561684,6,P-GPS,
30000,2023-07-07 15:57:20,52.2064366240144,0.0864852090687588,131.561684,131.0039412,54.3390437336,185.3429849336,83.66142,0,64.619096556,75.441603464,22,5,16.969,186.3272369336,132.545936,16.3744008,64.671261912,0,0,0,283.1, -1.3, -1.7,0,0,1024,1024,1024,1024,0,0,0,0,275,-90,0,99,4.259,4.262,4.256,4.257,0,0,6.787,82.58,185.3429849336,131.561684,6,P-GPS,
30200,2023-07-07 15:57:20,52.2064366737967,0.0864850773259685,131.561684,131.0039412,54.3390437336,185.3429849336,83.66142,0,64.653545376,75.476052284,22,5,16.969,186.3272369336,132.545936,16.3744008,64.671261912,0,0,0,283.3, -1.1, -1.4,0,0,1024,1024,1024,1024,0,0,0,0,275,-89.9,0,99,4.259,4.262,4.256,4.257,0,0,6.787,82.58,185.3429849336,131.561684,6,P-GPS,
30400,2023-07-07 15:57:20,52.2064367253266,0.0864848149028296,131.561684,131.0039412,54.3390437336,185.3429849336,83.66142,0,64.714897084,75.537732076,22,5,16.969,186.3272369336,132.545936,16.3744008,64.714897084,0,0,0,283.4, -0.4, -0.8,0,0,1024,1024,1024,1024,0,0,0,0,275,-90,0,99,4.259,4.262,4.256,4.257,0,0,6.787,82.58,185.3429849336,131.561684,6,P-GPS,
30600,2023-07-07 15:57:20,52.2064368290804,0.0864844776054988,131.2336,130.6758572,54.3390437336,185.0149009336,83.66142,0.3131716,64.798886588,75.622049664,22,5,16.969,186.3272369336,132.545936,16.3744008,64.798886588,0.223694,-0.223694,0.223694,283.9, -0.2, -2.4,0,0,1024,1024,1024,1024,0,0,0,0,275,-90,0,99,4.259,4.262,4.256,4.257,0,0,6.787,82.58,185.0149009336,131.2336,6,P-GPS,
30800,2023-07-07 15:57:20,52.2064369822653,0.0864838961702127,131.2336,130.6758572,54.3390437336,185.0149009336,83.66142,0.3131716,64.940618876,75.763781952,22,5,16.969,186.3272369336,132.545936,16.3744008,64.940618876,0.223694,-0.223694,0,283.7, 1.2, -1.7,0,0,1024,1024,1024,1024,0,0,0,0,275,-90,0,99,4.259,4.262,4.256,4.257,0,0,6.787,82.58,185.0149009336,131.2336,6,P-GPS,
31000,2023-07-07 15:57:20,52.2064371347776,0.0864833507740727,131.2336,130.6758572,54.3390437336,185.0149009336,83.66142,0.3131716,65.074477148,75.897640224,22,5,17.017,186.3272369336,132.545936,16.3744008,65.074477148,0.223694,-0.223694,0,283.1, 4.6, -1.3,0,0,1024,1024,1024,1024,0,0,0,0,275,-90,0,99,4.235,4.24,4.238,4.246,0,0,6.02,82.58,185.0149009336,131.2336,6,P-GPS,
31200,2023-07-07 15:57:21,52.2064372298874,0.0864831115009828,131.2336,130.6758572,54.3390437336,185.0149009336,83.66142,0,65.137469276,75.96128852,22,5,17.017,186.3272369336,132.545936,16.3744008,65.137469276,0,0,0,283, 1.9, -1.3,0,0,1024,1024,1024,1024,0,0,0,0,275,-90,0,99,4.235,4.24,4.238,4.246,0,0,6.02,82.58,185.0149009336,131.2336,6,P-GPS,
31400,2023-07-07 15:57:21,52.2064373329987,0.0864830306156066,131.2336,130.6758572,54.3390437336,185.0149009336,83.66142,0,65.16896534,76.003283272,22,5,17.017,186.3272369336,132.545936,16.3744008,65.16896534,0,0,0,283.4, 0.7, -3.2,0,0,1024,1024,1024,1024,0,0,0,0,275,-89.9,0,99,4.235,4.24,4.238,4.246,0,0,6.02,82.58,185.0149009336,131.2336,6,P-GPS,
31600,2023-07-07 15:57:21,52.2064373923202,0.0864829647442115,131.2336,130.6758572,54.3390437336,185.0149009336,83.66142,0,65.190946968,76.029201908,22,5,17.017,186.3272369336,132.545936,16.3744008,65.190946968,0,0,0,283.4, -0.3, -1.9,0,0,1024,1024,1024,1024,0,0,0,0,275,-90,0,99,4.235,4.24,4.238,4.246,0,0,6.02,82.58,185.0149009336,131.2336,6,P-GPS,
31800,2023-07-07 15:57:21,52.2064374849028,0.0864828472325502,131.2336,130.6758572,54.3390437336,185.0149009336,83.66142,0.223694,65.228676628,76.072180912,22,5,17.017,186.3272369336,132.545936,16.3744008,65.228676628,0.223694,0,0.223694,284.1, -1.2, -2.8,0,0,1024,1024,1024,1024,0,0,0,0,275,-90,0,99,4.235,4.24,4.238,4.246,0,0,6.02,82.58,185.0149009336,131.2336,6,P-GPS,
32000,2023-07-07 15:57:21,52.2064376865506,0.0864824286584173,131.2336,130.6430488,54.3718521336,185.0149009336,83.66142,0.3131716,65.343506028,76.191275404,22,5,17.02,186.3272369336,132.545936,16.3744008,65.343506028,0.223694,-0.223694,0,283.7, 2.2, -4.7,0,0,1024,1024,1024,1024,0,0,0,0,275,-90,0,99,4.256,4.257,4.249,4.239,0,0,5.484,82.58,185.0149009336,131.2336,6,P-GPS,
32200,2023-07-07 15:57:22,52.2064379334017,0.0864818492920969,131.2336,130.6430488,54.3718521336,185.0149009336,83.66142,0.3131716,65.498361676,76.349083808,21,5,17.02,186.3272369336,132.545936,16.3744008,65.498361676,0.223694,-0.223694,0,283.4, 5.5, -4.7,0,0,1024,1024,1024,1024,0,0,0,0,275,-90,0,99,4.256,4.257,4.249,4.239,0,0,5.484,82.58,185.0149009336,131.2336,6,P-GPS,
32400,2023-07-07 15:57:22,52.2064381607502,0.0864814410627925,131.561684,130.9711328,54.3718521336,185.3429849336,83.66142,0.223694,65.61515958,76.472443392,21,5,17.02,186.3272369336,132.545936,16.3744008,65.61515958,0.223694,0,0,283.4, 5.7, -5.9,0,0,1024,1024,1024,1024,0,0,0,0,275,-90,0,99,4.256,4.257,4.249,4.239,0,0,5.484,82.58,185.3429849336,131.561684,6,P-GPS,
32600,2023-07-07 15:57:22,52.2064382811238,0.0864811927589468,131.561684,130.9711328,54.3718521336,185.3429849336,83.66142,0.223694,65.683401052,76.542981452,21,5,17.02,186.3272369336,132.545936,16.3744008,65.683401052,0.223694,0,0,283.6, 4.6, -6.2,0,0,1024,1024,1024,1024,0,0,0,0,275,-89.9,0,99,4.256,4.257,4.249,4.239,0,0,5.484,82.58,185.3429849336,131.561684,6,P-GPS,
32800,2023-07-07 15:57:22,52.2064383231273,0.0864809206619953,131.561684,130.9711328,54.3718521336,185.3429849336,83.66142,0,65.745408928,76.60597358,21,5,17.02,186.3272369336,132.545936,16.3744008,65.745408928,0,0,0,283.3, 5.3, -6.1,0,0,1024,1024,1024,1024,0,0,0,0,275,-90,0,99,4.256,4.257,4.249,4.239,0,0,5.484,82.58,185.3429849336,131.561684,6,P-GPS,
33000,2023-07-07 15:57:22,52.20643825317,0.0864806439518093,131.561684,130.9711328,54.3718521336,185.3429849336,83.66142,0,65.791996856,76.672902716,22,5,17.011,186.3272369336,132.545936,16.3744008,65.791996856,0,0,0,283.3, 5.9, -4.6,0,0,1024,1024,1024,1024,0,0,0,0,275,-89.9,0,99,4.23,4.24,4.232,4.237,0,0,5.736,82.58,185.3429849336,131.561684,6,P-GPS,
33200,2023-07-07 15:57:23,52.2064380905616,0.086480474520292,131.561684,130.9711328,54.3718521336,185.3429849336,83.66142,0,65.803151712,76.743112692,22,5,17.011,186.3272369336,132.545936,16.3744008,65.803151712,0,0,0,283.5, 5.3, -3.4,0,0,1024,1024,1024,1024,0,0,0,0,275,-89.9,0,99,4.23,4.24,4.232,4.237,0,0,5.736,82.58,185.3429849336,131.561684,6,P-GPS,
