time(millisecond),datetime(utc),latitude,longitude,height_above_takeoff(feet),height_above_ground_at_drone_location(feet),ground_elevation_at_drone_location(feet),altitude_above_seaLevel(feet),height_sonar(feet),speed(mph),distance(feet),mileage(feet),satellites,gpslevel,voltage(v),max_altitude(feet),max_ascent(feet),max_speed(mph),max_distance(feet), xSpeed(mph), ySpeed(mph), zSpeed(mph), compass_heading(degrees), pitch(degrees), roll(degrees),isPhoto,isVideo,rc_elevator,rc_aileron,rc_throttle,rc_rudder,rc_elevator(percent),rc_aileron(percent),rc_throttle(percent),rc_rudder(percent),gimbal_heading(degrees),gimbal_pitch(degrees),gimbal_roll(degrees),battery_percent,voltageCell1,voltageCell2,voltageCell3,voltageCell4,voltageCell5,voltageCell6,current(A),battery_temperature(f),altitude(feet),ascent(feet),flycStateRaw,flycState,message
552500,2022-07-09 12:59:21,52.1653676210158,0.0999816025768788,0,0,58.647981207444,58.647981207444,0,0,0,0,25,5,15.481,58.647981207444,0,0,0,0,0,0,300.2, 3.6, -0.3,0,0,1024,1024,1024,1024,0,0,0,0,296.2,0,0,52,3.871,3.871,3.871,3.869,0,0,1.616,108.32,58.647981207444,0,41,Motors_Started,"Setting new Return-To-Home altitude to 26m (85 ft). Data Recorder File Index is 6. Setting new Maximum Flight Altitude to 120m (394 ft)"
552700,2022-07-09 12:59:21,52.1653676400263,0.0999815987055039,0,0,58.647981207444,58.647981207444,0,0,2.01402237416,0,25,5,15.481,58.647981207444,0,0,2.01402237416,0,0,0,300.1, 3.6, -0.3,0,0,1024,1024,1024,1024,0,0,0,0,296.2,0,0,52,3.871,3.871,3.871,3.869,0,0,1.616,108.32,58.647981207444,0,41,Motors_Started,
552900,2022-07-09 12:59:21,52.1653676590368,0.0999815948341289,0,0,58.647981207444,58.647981207444,0,0,2.02727040608,0.0139797576652,25,5,15.481,58.647981207444,0,0,2.02727040608,0,0,0,300.2, 3.6, -0.3,0,0,1024,1024,1024,1024,0,0,0,0,296.2,0,0,52,3.871,3.871,3.871,3.869,0,0,1.616,108.32,58.647981207444,0,41,Motors_Started,
553100,2022-07-09 12:59:21,52.1653676945649,0.0999815796977949,0,0,58.647981207444,58.647981207444,0,0,2.03930780804,0.027377461506,25,5,15.481,58.647981207444,0,0,2.03930780804,0,0,0,300.3, 3.5, -0.4,0,0,1024,1024,1024,1024,0,0,0,0,296.2,0,0,52,3.871,3.871,3.871,3.869,0,0,1.616,108.32,58.647981207444,0,41,Motors_Started,
553300,2022-07-09 12:59:21,52.1653677344685,0.0999815809473717,0,0,58.647981207444,58.647981207444,0,0,2.053641798,0.04193897772,25,5,15.481,58.647981207444,0,0,2.053641798,0,0,0,300.3, 3.5, -0.4,0,0,1024,1024,1024,1024,0,0,0,0,296.2,0,0,52,3.871,3.871,3.871,3.869,0,0,1.616,108.32,58.647981207444,0,41,Motors_Started,
553500,2022-07-09 12:59:22,52.1653677611395,0.0999815641669037,0,0,58.647981207444,58.647981207444,0,0,2.06246397676,0.052369424248,25,5,15.418,58.647981207444,0,0,2.06246397676,0,0,0,300.3, 3.5, -0.4,0,0,1024,1024,1024,1024,0,0,0,0,296.2,0,0,52,3.85,3.852,3.851,3.848,0,0,3.336,108.14,58.647981207444,0,41,Motors_Started,
553700,2022-07-09 12:59:22,52.1653677878394,0.0999815597661062,0,0,58.647981207444,58.647981207444,0,0,2.07183733664,0.06216043506,25,5,15.418,58.647981207444,0,0,2.07183733664,0,0,0,300.3, 3.5, -0.4,0,0,1024,1024,1024,1024,0,0,0,0,296.2,0,0,52,3.85,3.852,3.851,3.848,0,0,3.336,108.14,58.647981207444,0,41,Motors_Started,
553900,2022-07-09 12:59:22,52.1653678122347,0.099981558464591,0,0,58.647981207444,58.647981207444,0,0,2.08051843928,0.071065947156,25,5,15.418,58.647981207444,0,0,2.08051843928,0,0,0,300.3, 3.5, -0.4,0,0,1024,1024,1024,1024,0,0,0,0,296.2,0,0,52,3.85,3.852,3.851,3.848,0,0,3.336,108.14,58.647981207444,0,41,Motors_Started,
554100,2022-07-09 12:59:22,52.1653678557332,0.0999815624961457,0,0,58.647981207444,58.647981207444,0,0,2.09627303296,0.08696194504,25,5,15.418,58.647981207444,0,0,2.09627303296,0,0,0,300.3, 3.4, -0.5,0,0,1024,1024,1024,1024,0,0,0,0,296.2,0,0,52,3.85,3.852,3.851,3.848,0,0,3.336,108.14,58.647981207444,0,11,AutoTakeoff,
554300,2022-07-09 12:59:22,52.1653678854422,0.0999815804375898,0,0,58.647981207444,58.647981207444,0,0,2.1076772328,0.098521000528,25,5,15.418,58.647981207444,0,0,2.1076772328,0,0,0,300.3, 3.1, -0.7,0,0,1024,1024,1024,1024,0,0,0,0,296.2,0,0,52,3.85,3.852,3.851,3.848,0,0,3.336,108.14,58.647981207444,0,11,AutoTakeoff,
554500,2022-07-09 12:59:23,52.1653679090248,0.0999815805174614,0,0,58.647981207444,58.647981207444,0,0,2.11612867664,0.107125003428,25,5,15.448,58.647981207444,0,0,2.11612867664,0,0,0,300.6, 0.2, -0.6,0,0,1024,1024,1024,1024,0,0,0,0,296.2,0,0,52,3.857,3.856,3.855,3.851,0,0,4.296,108.14,58.647981207444,0,11,AutoTakeoff,
554700,2022-07-09 12:59:23,52.165367959961,0.0999812992943709,0,0,58.647981207444,58.647981207444,0,0,2.12458340132,0.115729006328,25,5,15.448,58.647981207444,0,0,2.12458340132,0,0,-0.447388,300.2, -3.8, 0.7,0,0,1024,1024,1024,1024,0,0,0,0,296.2,0,0,52,3.857,3.856,3.855,3.851,0,0,4.296,108.14,58.647981207444,0,11,AutoTakeoff,
554900,2022-07-09 12:59:23,52.1653680108972,0.0999810180712803,0.328084,0.328084,58.647981207444,58.976065207444,0.328084,0.223694,2.13287080316,0.244818249304,25,5,15.448,58.976065207444,0.328084,0.223694,2.13287080316,0,-0.223694,-0.894776,301.1, 2.1, 0.6,0,0,1024,1024,1024,1024,0,0,0,0,296.2,0,0,52,3.857,3.856,3.855,3.851,0,0,4.296,108.14,58.976065207444,0.328084,11,AutoTakeoff,
555100,2022-07-09 12:59:23,52.1653680032491,0.0999806673801421,0.656168,0.656168,58.647981207444,59.304149207444,0.328084,0,2.12145019912,0.323350075964,25,5,15.448,59.304149207444,0.656168,0.223694,2.13287080316,0,0,-0.894776,300.6, 2.8, 1.7,0,0,1024,1024,1024,1024,0,0,0,0,296.3,0,0,52,3.857,3.856,3.855,3.851,0,0,4.296,108.14,59.304149207444,0.656168,11,AutoTakeoff,
555300,2022-07-09 12:59:23,52.1653679030997,0.0999806020992461,0.984252,0.984252,58.647981207444,59.632233207444,0.984252,0.223694,2.08375006668,0.36270342368,25,5,15.448,59.632233207444,0.984252,0.223694,2.13287080316,-0.223694,0,-0.894776,300.6, 0.7, 2.1,0,0,1024,1024,1024,1024,0,0,0,0,296.3,0,0,52,3.857,3.856,3.855,3.851,0,0,4.296,108.14,59.632233207444,0.984252,11,AutoTakeoff,
555500,2022-07-09 12:59:24,52.1653678055407,0.09998078319492,0.984252,0.984252,58.647981207444,59.632233207444,1.312336,0,2.0522638452,0.41664043328,25,5,15.351,59.632233207444,0.984252,0.223694,2.13287080316,0,0,-0.894776,300.3, -1.4, 2.5,0,0,1024,1024,1024,1024,0,0,0,0,296.3,0,0,52,3.834,3.837,3.837,3.834,0,0,6.155,107.96,59.632233207444,0.984252,11,AutoTakeoff,
555700,2022-07-09 12:59:24,52.1653677953546,0.0999809091579812,1.312336,1.312336,58.647981207444,59.960317207444,1.64042,0,2.02172250564,0.47058072372,25,5,15.351,59.960317207444,1.312336,0.223694,2.13287080316,0,0,-0.894776,300.3, -2.7, 2.5,0,0,1024,1024,1024,1024,0,0,0,0,296.3,0,0,52,3.834,3.837,3.837,3.834,0,0,6.155,107.96,59.960317207444,1.312336,11,AutoTakeoff,
555900,2022-07-09 12:59:24,52.1653677851686,0.0999810351210425,1.64042,1.64042,58.647981207444,60.288401207444,1.968504,0,2.05173234912,0.50289699772,25,5,15.351,60.288401207444,1.64042,0.223694,2.13287080316,0,0,-0.894776,300.3, -1.6, 2.5,0,0,1024,1024,1024,1024,0,0,0,0,296.3,0,0,52,3.834,3.837,3.837,3.834,0,0,6.155,107.96,60.288401207444,1.64042,11,AutoTakeoff,
556100,2022-07-09 12:59:24,52.1653678545274,0.0999810511822292,1.968504,1.968504,58.647981207444,60.616485207444,2.296588,0,2.07729337356,0.52845802216,25,5,15.351,60.616485207444,1.968504,0.223694,2.13287080316,0,0,-0.894776,300.5, -0.7, 1.6,0,0,1024,1024,1024,1024,0,0,0,0,296.3,0,0,52,3.834,3.837,3.837,3.834,0,0,6.155,107.96,60.616485207444,1.968504,11,AutoTakeoff,
556300,2022-07-09 12:59:24,52.1653679631484,0.0999810307638908,2.296588,2.296588,58.647981207444,60.944569207444,2.624672,0,2.11596463464,0.56834975572,24,5,15.351,60.944569207444,2.296588,0.223694,2.13287080316,0,0,-1.11847,300.4, -0.2, 1.3,0,0,1024,1024,1024,1024,0,0,0,0,296.3,0,0,52,3.834,3.837,3.837,3.834,0,0,6.155,107.96,60.944569207444,2.296588,11,AutoTakeoff,
556500,2022-07-09 12:59:25,52.1653680944622,0.0999810764679377,2.624672,2.624672,58.647981207444,61.272653207444,2.952756,0,2.16480321888,0.6173392586,25,5,15.329,61.272653207444,2.624672,0.223694,2.16480321888,0,0,-1.11847,300.3, 0, 0.9,0,0,1024,1024,1024,1024,0,0,0,0,296.3,0,0,52,3.828,3.833,3.833,3.829,0,0,8.183,107.96,61.272653207444,2.624672,11,AutoTakeoff,"Home Point updated (Code: 3000001)"
556700,2022-07-09 12:59:25,52.1653681718353,0.099981183177783,2.952756,2.952756,58.647981207444,61.600737207444,3.28084,0,2.19603681568,0.6543143254,25,5,15.329,61.600737207444,2.952756,0.223694,2.19603681568,0,0,-1.11847,300.4, -0.7, 1.1,0,0,1024,1024,1024,1024,0,0,0,0,296.3,0,0,52,3.828,3.833,3.833,3.829,0,0,8.183,107.96,61.600737207444,2.952756,11,AutoTakeoff,
556900,2022-07-09 12:59:25,52.1653682266186,0.0999813351979908,3.608924,3.608924,58.647981207444,62.256905207444,3.608924,0,2.2208498086,0.69377298808,25,5,15.329,62.256905207444,3.608924,0.223694,2.2208498086,0,0,-0.894776,300.6, -1.5, 1.3,0,0,1024,1024,1024,1024,0,0,0,0,296.3,0,0,52,3.828,3.833,3.833,3.829,0,0,8.183,107.96,62.256905207444,3.608924,6,P-GPS,
557100,2022-07-09 12:59:25,52.1653682692497,0.0999814609548261,3.608924,3.608924,58.647981207444,62.256905207444,3.937008,0,2.24072513732,0.72592850092,24,5,15.329,62.256905207444,3.608924,0.223694,2.24072513732,0,0,-0.447388,299.7, -1, 1.7,0,0,1024,1024,1024,1024,0,0,0,0,296.3,0,0,52,3.828,3.833,3.833,3.829,0,0,8.183,107.96,62.256905207444,3.608924,6,P-GPS,
557300,2022-07-09 12:59:25,52.1653683304154,0.0999816087990119,3.608924,3.608924,58.647981207444,62.256905207444,3.937008,0,2.26841870776,0.76583663868,25,5,15.329,62.256905207444,3.608924,0.223694,2.26841870776,0,0,0,300, -1.2, -0.1,0,0,1024,1024,1024,1024,0,0,0,0,296.3,0,0,52,3.828,3.833,3.833,3.829,0,0,8.183,107.96,62.256905207444,3.608924,6,P-GPS,
557500,2022-07-09 12:59:26,52.165368348679,0.0999817023566573,3.608924,3.608924,58.647981207444,62.256905207444,3.937008,0,2.27880256636,0.78780842416,25,5,15.325,62.256905207444,3.608924,0.223694,2.27880256636,0,0,0,300.1, -1.3, 0.7,0,0,1024,1024,1024,1024,0,0,0,0,296.3,0,0,52,3.835,3.837,3.836,3.832,0,0,8.154,108.14,62.256905207444,3.608924,6,P-GPS,
557700,2022-07-09 12:59:26,52.1653683329608,0.0999817626226607,3.608924,3.608924,58.647981207444,62.256905207444,3.937008,0,2.27574154264,0.80246393644,25,5,15.325,62.256905207444,3.608924,0.223694,2.27880256636,0,0,0,300.5, -1.9, 1.7,0,0,1024,1024,1024,1024,0,0,0,0,296.3,0,0,52,3.835,3.837,3.836,3.832,0,0,8.154,108.14,62.256905207444,3.608924,6,P-GPS,
557900,2022-07-09 12:59:26,52.1653683969022,0.0999818375793753,3.608924,3.608924,58.647981207444,62.256905207444,3.937008,0,2.30190624164,0.831200814,25,5,15.325,62.256905207444,3.608924,0.223694,2.30190624164,0,0,0,300.5, -1.6, 0.6,0,0,1024,1024,1024,1024,0,0,0,0,296.3,0,0,52,3.835,3.837,3.836,3.832,0,0,8.154,108.14,62.256905207444,3.608924,6,P-GPS,
558100,2022-07-09 12:59:26,52.1653684994246,0.0999818516952724,3.608924,3.608924,58.647981207444,62.256905207444,3.937008,0,2.33919626908,0.86873690444,25,5,15.325,62.256905207444,3.608924,0.223694,2.33919626908,0,0,0,300.5, -0.4, -0.4,0,0,1024,1024,1024,1024,0,0,0,0,296.3,0,0,52,3.835,3.837,3.836,3.832,0,0,8.154,108.14,62.256905207444,3.608924,6,P-GPS,
558300,2022-07-09 12:59:26,52.16536852586,0.0999818445932417,3.608924,3.608924,58.647981207444,62.256905207444,3.937008,0,2.348343251,0.87851380764,25,5,15.325,62.256905207444,3.608924,0.223694,2.348343251,0,0,0,300.3, -1, 0.7,0,0,1024,1024,1024,1024,0,0,0,0,296.3,0,0,52,3.835,3.837,3.836,3.832,0,0,8.154,108.14,62.256905207444,3.608924,6,P-GPS,
558500,2022-07-09 12:59:27,52.1653685061646,0.0999818018509929,3.608924,3.608924,58.647981207444,62.256905207444,3.937008,0,2.33944233208,0.89047575028,25,5,15.326,62.256905207444,3.608924,0.223694,2.348343251,0,0,0,300, -1, 0.5,0,0,1024,1024,1024,1024,0,0,0,0,296.3,0,0,52,3.829,3.832,3.833,3.829,0,0,7.36,108.14,62.256905207444,3.608924,6,P-GPS,
558700,2022-07-09 12:59:27,52.1653684458407,0.0999817461210887,3.608924,3.608924,58.647981207444,62.256905207444,3.937008,0,2.31546267252,0.91577430752,25,5,15.326,62.256905207444,3.608924,0.223694,2.348343251,0,0,0,300.1, -0.8, 0.6,0,0,1024,1024,1024,1024,0,0,0,0,296.3,0,0,52,3.829,3.832,3.833,3.829,0,0,7.36,108.14,62.256905207444,3.608924,6,P-GPS,
558900,2022-07-09 12:59:27,52.1653683699956,0.0999816598666808,3.608924,3.608924,58.647981207444,62.256905207444,3.937008,0,2.28468839332,0.94951446608,25,5,15.326,62.256905207444,3.608924,0.223694,2.348343251,0,0,0,300.3, -0.9, 1.2,0,0,1024,1024,1024,1024,0,0,0,0,296.3,0,0,52,3.829,3.832,3.833,3.829,0,0,7.36,108.14,62.256905207444,3.608924,6,P-GPS,
559100,2022-07-09 12:59:27,52.1653682752519,0.099981564382077,3.937008,3.937008,58.647981207444,62.584989207444,3.937008,0,2.24684718476,0.99015095032,25,5,15.326,62.584989207444,3.937008,0.223694,2.348343251,0,0,-0.447388,300.4, -0.6, 2.4,0,0,1024,1024,1024,1024,0,0,0,0,296.3,0,0,52,3.829,3.832,3.833,3.829,0,0,7.36,108.14,62.584989207444,3.937008,6,P-GPS,
559300,2022-07-09 12:59:27,52.1653682145628,0.0999815265399327,3.937008,3.937008,58.647981207444,62.584989207444,4.265092,0,2.22356306328,1.01385830016,25,5,15.326,62.584989207444,3.937008,0.223694,2.348343251,0,0,-0.671082,300.1, -1.3, 1.9,0,0,1024,1024,1024,1024,0,0,0,0,296.3,0,0,52,3.829,3.832,3.833,3.829,0,0,7.36,108.14,62.584989207444,3.937008,6,P-GPS,
559500,2022-07-09 12:59:28,52.1653681991702,0.0999815032091157,4.265092,4.265092,58.647981207444,62.913073207444,4.593176,0,2.21712933604,1.02152562324,25,5,15.32,62.913073207444,4.265092,0.223694,2.348343251,0,0,-0.671082,300.5, -1.5, 0.6,0,0,1024,1024,1024,1024,0,0,0,0,296.3,0,0,51,3.823,3.829,3.828,3.824,0,0,7.714,108.14,62.913073207444,4.265092,6,P-GPS,
559700,2022-07-09 12:59:28,52.1653681566398,0.0999813593737888,4.593176,4.593176,58.647981207444,63.241157207444,4.593176,0,2.19648629076,1.05726053252,25,5,15.32,63.241157207444,4.593176,0.223694,2.348343251,0,0,-0.671082,300.7, -0.3, 1.7,0,0,1024,1024,1024,1024,0,0,0,0,296.3,0,0,51,3.823,3.829,3.828,3.824,0,0,7.714,108.14,63.241157207444,4.593176,6,P-GPS,
559900,2022-07-09 12:59:28,52.1653681004451,0.099981157101214,4.92126,4.92126,58.647981207444,63.569241207444,5.249344,0,2.16942592244,1.106955416,25,5,15.32,63.569241207444,4.92126,0.223694,2.348343251,0,0,-2.013246,300.5, 0.7, 3.1,0,0,1024,1024,1024,1024,0,0,0,0,296.3,0,0,51,3.823,3.829,3.828,3.824,0,0,7.714,108.14,63.569241207444,4.92126,6,P-GPS,
560100,2022-07-09 12:59:28,52.1653680934448,0.0999811494309161,5.905512,5.905512,58.647981207444,64.553493207444,6.233596,0,2.16665689348,1.11003284392,25,5,15.32,64.553493207444,5.905512,0.223694,2.348343251,0,0,-4.250186,300.7, 0.7, 2.1,0,0,1024,1024,1024,1024,0,0,0,0,296.3,0,0,51,3.823,3.829,3.828,3.824,0,0,7.714,108.14,64.553493207444,5.905512,6,P-GPS,
560300,2022-07-09 12:59:28,52.1653680153884,0.0999812956658844,7.217848,7.217848,58.647981207444,65.865829207444,7.545932,0,2.14334652528,1.15341539124,25,5,15.32,65.865829207444,7.217848,0.223694,2.348343251,0,0,-4.697574,300.5, -0.4, 2.2,0,0,1024,1024,1024,1024,0,0,0,0,296.3,0,0,51,3.823,3.829,3.828,3.824,0,0,7.714,108.14,65.865829207444,7.217848,6,P-GPS,
560500,2022-07-09 12:59:29,52.1653678368582,0.0999813814462999,8.530184,8.530184,58.647981207444,67.178165207444,8.858268,0,2.08222447608,1.22132221756,25,5,15.259,67.178165207444,8.530184,0.223694,2.348343251,0,0,-3.35541,300.3, -1.7, 3.7,0,0,1024,1024,1024,1024,0,0,0,0,296.3,0,0,51,3.809,3.823,3.829,3.825,0,0,9.516,107.96,67.178165207444,8.530184,6,P-GPS,
560700,2022-07-09 12:59:29,52.1653677022751,0.0999814173878915,9.514436,9.514436,58.647981207444,68.162417207444,9.84252,0,2.02153549776,1.28922904388,25,5,15.259,68.162417207444,9.514436,0.223694,2.348343251,0,0,-3.35541,300.6, -2.3, 1.8,0,0,1024,1024,1024,1024,0,0,0,0,296.3,0,0,51,3.809,3.823,3.829,3.825,0,0,9.516,107.96,68.162417207444,9.514436,6,P-GPS,
560900,2022-07-09 12:59:29,52.1653675676921,0.0999814533294832,10.826772,10.826772,58.647981207444,69.474753207444,11.154856,0,1.98846463056,1.32244426804,25,5,15.259,69.474753207444,10.826772,0.223694,2.348343251,0,0,-4.697574,300.3, -1.3, 2.8,0,0,1024,1024,1024,1024,0,0,0,0,296.3,0,0,51,3.809,3.823,3.829,3.825,0,0,9.516,107.96,69.474753207444,10.826772,6,P-GPS,
561100,2022-07-09 12:59:29,52.1653675005071,0.0999813974402721,12.139108,12.139108,58.647981207444,70.787089207444,12.467192,0,1.96206371108,1.34996067312,25,5,15.259,70.787089207444,12.139108,0.223694,2.348343251,0,0,-4.697574,300.3, -1.6, 3.1,0,0,1024,1024,1024,1024,0,0,0,0,296.3,0,0,51,3.809,3.823,3.829,3.825,0,0,9.516,107.96,70.787089207444,12.139108,6,P-GPS,
561300,2022-07-09 12:59:29,52.1653674622751,0.0999813705492742,13.451444,13.451444,58.647981207444,72.099425207444,13.779528,0,1.94725399932,1.36515424316,25,5,15.259,72.099425207444,13.451444,0.223694,2.348343251,0,0,-3.579104,300.1, -2, 3.6,0,0,1024,1024,1024,1024,0,0,0,0,296.3,0,0,51,3.809,3.823,3.829,3.825,0,0,9.516,107.96,72.099425207444,13.451444,6,P-GPS,
561500,2022-07-09 12:59:30,52.1653674303987,0.0999813336586064,14.435696,14.435696,58.647981207444,73.083677207444,14.76378,0,1.93433077056,1.37941605464,25,5,15.211,73.083677207444,14.435696,0.223694,2.348343251,0,0,-2.908022,300.3, -2, 2.6,0,0,1024,1024,1024,1024,0,0,0,0,296.3,0,0,51,3.826,3.83,3.831,3.829,0,0,10.624,108.14,73.083677207444,14.435696,6,P-GPS,
561700,2022-07-09 12:59:30,52.1653674459637,0.0999813289138808,15.419948,15.419948,58.647981207444,74.067929207444,15.419948,0,1.92142722684,1.39367786612,25,5,15.211,74.067929207444,15.419948,0.223694,2.348343251,0,0,-2.684328,300.3, -1, 3.6,0,0,1024,1024,1024,1024,0,0,0,0,296.3,0,0,51,3.826,3.83,3.831,3.829,0,0,10.624,108.14,74.067929207444,15.419948,6,P-GPS,
561900,2022-07-09 12:59:30,52.1653674615287,0.0999813241691551,15.748032,15.748032,58.647981207444,74.396013207444,16.076116,0,1.94513457668,1.4174705178,25,5,15.211,74.396013207444,15.748032,0.223694,2.348343251,0,0,-1.11847,300.5, -2.6, 2.6,0,0,1024,1024,1024,1024,0,0,0,0,296.3,0,0,51,3.826,3.83,3.831,3.829,0,0,10.624,108.14,74.396013207444,15.748032,6,P-GPS,
562100,2022-07-09 12:59:30,52.1653675616449,0.0999813491650561,16.076116,16.076116,58.647981207444,74.724097207444,16.4042,0,1.98207683508,1.45442261872,25,5,15.211,74.724097207444,16.076116,0.223694,2.348343251,0,0,-0.223694,300.5, -1.4, 2.1,0,0,1024,1024,1024,1024,0,0,0,0,296.3,0,0,51,3.826,3.83,3.831,3.829,0,0,10.624,108.14,74.724097207444,16.076116,6,P-GPS,
562300,2022-07-09 12:59:30,52.1653676558724,0.0999813775784166,16.076116,16.076116,58.647981207444,74.724097207444,16.4042,0,2.01703746612,1.4893865306,25,5,15.211,74.724097207444,16.076116,0.223694,2.348343251,0,0,0,300.4, -0.1, -0.3,0,0,1024,1024,1024,1024,0,0,0,0,296.3,0,0,51,3.826,3.83,3.831,3.829,0,0,10.624,108.14,74.724097207444,16.076116,6,P-GPS,
562500,2022-07-09 12:59:31,52.1653675739577,0.0999812802668032,16.076116,16.076116,58.647981207444,74.724097207444,16.4042,0,1.9838583312,1.52636487824,25,5,15.361,74.724097207444,16.076116,0.223694,2.348343251,0,0,0,300.2, -3.2, 0.7,0,0,1024,1024,1024,1024,0,0,0,0,296.3,0,0,51,3.821,3.828,3.829,3.824,0,0,6.69,108.32,74.724097207444,16.076116,6,P-GPS,
562700,2022-07-09 12:59:31,52.1653674292593,0.0999810029903764,16.076116,16.076116,58.647981207444,74.724097207444,16.4042,0.223694,1.9221293266,1.60783797796,25,5,15.361,74.724097207444,16.076116,0.223694,2.348343251,0,-0.223694,0,300.2, -3.8, 2.2,0,0,1024,1024,1024,1024,0,0,0,0,296.3,0,0,51,3.821,3.828,3.829,3.824,0,0,6.69,108.32,74.724097207444,16.076116,6,P-GPS,
562900,2022-07-09 12:59:31,52.1653673452821,0.0999805284017104,16.076116,16.076116,58.647981207444,74.724097207444,16.4042,0.223694,1.87957027012,1.71837603924,25,5,15.361,74.724097207444,16.076116,0.223694,2.348343251,0,-0.223694,0,300.6, -7.1, 2.6,0,0,1024,1024,1024,1024,0,0,0,0,296.3,0,0,51,3.821,3.828,3.829,3.824,0,0,6.69,108.32,74.724097207444,16.076116,6,P-GPS,
563100,2022-07-09 12:59:31,52.165367435572,0.0999796513986786,16.076116,16.076116,58.647981207444,74.724097207444,16.4042,0.671082,1.90561357804,1.9173885128,25,5,15.361,74.724097207444,16.076116,0.671082,2.348343251,0,-0.671082,0,300.3, -9.1, 3.3,0,0,1024,1024,1024,1024,0,0,0,0,296.3,0,0,51,3.821,3.828,3.829,3.824,0,0,6.69,108.32,74.724097207444,16.076116,6,P-GPS,
563300,2022-07-09 12:59:31,52.1653677447488,0.0999782033220172,16.076116,16.076116,58.647981207444,74.724097207444,16.4042,1.2079476,2.04935374012,2.2605315684,25,5,15.361,74.724097207444,16.076116,1.2079476,2.348343251,0.447388,-1.11847,0,300.2, -10.1, 2.7,0,0,1024,1024,1024,1024,0,0,0,0,296.3,0,0,51,3.821,3.828,3.829,3.824,0,0,6.69,108.32,74.724097207444,16.076116,6,P-GPS,
563500,2022-07-09 12:59:32,52.1653682898103,0.0999759320699297,16.076116,16.076116,58.647981207444,74.724097207444,16.732284,1.901399,2.37962934124,2.80633867248,25,5,15.296,74.724097207444,16.076116,1.901399,2.37962934124,0.671082,-1.789552,-1.342164,300.2, -8, 2.7,0,0,1024,1024,1024,1024,0,0,0,0,296.3,0,0,51,3.82,3.823,3.822,3.814,0,0,7.462,108.32,74.724097207444,16.076116,6,P-GPS,
563700,2022-07-09 12:59:32,52.1653690091733,0.0999729759539412,16.732284,16.732284,58.647981207444,75.380265207444,17.388452,2.4158952,2.91150927952,3.518044732,25,5,15.296,75.380265207444,16.732284,2.4158952,2.91150927952,0.894776,-2.23694,-1.789552,299.6, -8.7, 4.7,0,0,1024,1024,1024,1024,0,0,0,0,296.3,0,0,51,3.82,3.823,3.822,3.814,0,0,7.462,108.32,75.380265207444,16.732284,6,P-GPS,
563900,2022-07-09 12:59:32,52.1653698705125,0.0999695400351514,17.060368,17.060368,58.647981207444,75.708349207444,17.716536,2.908022,3.6155512968,4.3487206116,25,5,15.296,75.708349207444,17.060368,2.908022,3.6155512968,1.11847,-2.684328,-0.671082,299.9, -9.2, 6,0,0,1024,1024,1024,1024,0,0,0,0,296.3,0,0,51,3.82,3.823,3.822,3.814,0,0,7.462,108.32,75.708349207444,17.060368,6,P-GPS,
564100,2022-07-09 12:59:32,52.1653709477498,0.0999656428158517,17.388452,17.388452,58.647981207444,76.036433207444,17.716536,3.1988242,4.4929791464,5.3053807472,25,5,15.296,76.036433207444,17.388452,3.1988242,4.4929791464,1.342164,-2.908022,-0.223694,300.6, -7.7, 6,0,0,1024,1024,1024,1024,0,0,0,0,296.3,0,0,51,3.82,3.823,3.822,3.814,0,0,7.462,108.32,76.036433207444,17.388452,6,P-GPS,
564300,2022-07-09 12:59:32,52.165372235713,0.0999614206018286,17.388452,17.388452,58.647981207444,76.036433207444,17.716536,3.5119958,5.5028216984,6.3606629332,25,5,15.296,76.036433207444,17.388452,3.5119958,5.5028216984,1.565858,-3.131716,0,300.4, -9, 4.9,0,0,1024,1024,1024,1024,0,0,0,0,296.3,0,0,51,3.82,3.823,3.822,3.814,0,0,7.462,108.32,76.036433207444,17.388452,6,P-GPS,
564500,2022-07-09 12:59:33,52.1653737223782,0.0999567850009069,17.388452,17.388452,58.647981207444,76.036433207444,17.716536,4.1159696,6.6445540184,7.531332262,25,5,15.32,76.036433207444,17.388452,4.1159696,6.6445540184,2.013246,-3.579104,0,300.1, -9.3, 4.4,0,0,1024,1024,1024,1024,0,0,0,0,296.3,0,0,51,3.822,3.826,3.826,3.82,0,0,8.078,108.5,76.036433207444,17.388452,6,P-GPS,
564700,2022-07-09 12:59:33,52.1653754437267,0.099951394304673,17.388452,17.388452,58.647981207444,76.036433207444,17.716536,4.2949248,7.7949149476,8.7019687824,25,5,15.32,76.036433207444,17.388452,4.2949248,7.7949149476,2.013246,-3.802798,0,299.9, -9.4, 4.9,0,0,1024,1024,1024,1024,0,0,0,0,296.3,0,0,51,3.822,3.826,3.826,3.82,0,0,8.078,108.5,76.036433207444,17.388452,6,P-GPS,
564900,2022-07-09 12:59:33,52.1653771650752,0.0999460036084391,17.388452,17.388452,58.647981207444,76.036433207444,17.716536,4.809421,9.3246065976,10.2515095144,25,5,15.32,76.036433207444,17.388452,4.809421,9.3246065976,2.23694,-4.250186,0,299.8, -8.9, 5.1,0,0,1024,1024,1024,1024,0,0,0,0,296.3,0,0,51,3.822,3.826,3.826,3.82,0,0,8.078,108.5,76.036433207444,17.388452,6,P-GPS,
565100,2022-07-09 12:59:33,52.1653791316838,0.0999399074228669,17.388452,17.388452,58.647981207444,76.036433207444,17.716536,5.3015478,10.8529531032,11.7929465716,25,5,15.32,76.036433207444,17.388452,5.3015478,10.8529531032,2.460634,-4.697574,0,300, -8.6, 5.7,0,0,1024,1024,1024,1024,0,0,0,0,296.3,0,0,51,3.822,3.826,3.826,3.82,0,0,8.078,108.5,76.036433207444,17.388452,6,P-GPS,
565300,2022-07-09 12:59:33,52.165381255159,0.0999334335028351,17.388452,17.388452,58.647981207444,76.036433207444,17.716536,5.6147194,12.4866801896,13.4359256268,25,5,15.32,76.036433207444,17.388452,5.6147194,12.4866801896,2.684328,-4.921268,0,300.1, -8.5, 5.1,0,0,1024,1024,1024,1024,0,0,0,0,296.3,0,0,51,3.822,3.826,3.826,3.82,0,0,8.078,108.5,76.036433207444,17.388452,6,P-GPS,
565500,2022-07-09 12:59:34,52.1653835736901,0.0999265821451343,17.388452,17.388452,58.647981207444,76.036433207444,17.716536,5.9055216,14.2321526864,15.1870739768,25,5,15.278,76.036433207444,17.388452,5.9055216,14.2321526864,2.908022,-5.144962,0,300.4, -7.1, 5.8,0,0,1024,1024,1024,1024,0,0,0,0,296.3,0,0,51,3.818,3.823,3.823,3.819,0,0,7.618,108.5,76.036433207444,17.388452,6,P-GPS,
565700,2022-07-09 12:59:34,52.1653859860514,0.0999196418182622,17.388452,17.388452,58.647981207444,76.036433207444,17.716536,6.0173686,15.9788719024,16.9382223268,25,5,15.278,76.036433207444,17.388452,6.0173686,15.9788719024,3.131716,-5.144962,0,300.5, -1.5, 4.3,0,0,1024,1024,1024,1024,0,0,0,0,296.3,0,0,51,3.818,3.823,3.823,3.819,0,0,7.618,108.5,76.036433207444,17.388452,6,P-GPS,
565900,2022-07-09 12:59:34,52.1653883984128,0.09991270149139,17.388452,17.388452,58.647981207444,76.036433207444,18.04462,5.4133948,17.7968181548,18.7577761908,25,5,15.278,76.036433207444,17.388452,6.0173686,17.7968181548,2.684328,-4.697574,0,300.5, 20.9, 2.7,0,0,1024,1024,1024,1024,0,0,0,0,296.3,0,0,51,3.818,3.823,3.823,3.819,0,0,7.618,108.5,76.036433207444,17.388452,6,P-GPS,
566100,2022-07-09 12:59:34,52.165390093887,0.0999074373921714,17.716536,17.716536,58.647981207444,76.364517207444,17.716536,3.3106712,19.1231305332,20.0883536612,25,5,15.278,76.364517207444,17.716536,6.0173686,19.1231305332,1.565858,-2.908022,0,301.7, 28.4, 5.6,0,0,1024,1024,1024,1024,0,0,0,0,296.3,0,0,51,3.818,3.823,3.823,3.819,0,0,7.618,108.5,76.364517207444,17.716536,6,P-GPS,
566300,2022-07-09 12:59:34,52.1653908848854,0.0999047380688027,17.716536,17.716536,58.647981207444,76.364517207444,17.716536,1.2974252,19.7883208432,20.7578418716,25,5,15.278,76.364517207444,17.716536,6.0173686,19.7883208432,0.671082,-1.11847,0,301.7, 15.4, 3.7,0,0,1024,1024,1024,1024,0,0,0,0,296.3,0,0,51,3.818,3.823,3.823,3.819,0,0,7.618,108.5,76.364517207444,17.716536,6,P-GPS,
566500,2022-07-09 12:59:35,52.1653910227871,0.0999036866470185,17.716536,17.716536,58.647981207444,76.364517207444,14.107612,0.447388,20.0148300368,20.9984586772,25,5,15.268,76.364517207444,17.716536,6.0173686,20.0148300368,0,-0.447388,0,300.4, 2.3, 2.4,0,0,1024,1024,1024,1024,0,0,0,0,296.3,0,0,51,3.813,3.818,3.813,3.811,0,0,7.719,108.5,76.364517207444,17.716536,6,P-GPS,
566700,2022-07-09 12:59:35,52.1653908493991,0.0999028287677932,17.716536,17.716536,58.647981207444,76.364517207444,14.107612,0.447388,20.2416673144,21.2390754828,25,5,15.268,76.364517207444,17.716536,6.0173686,20.2416673144,0,-0.447388,0,300.2, -5.3, 4.7,0,0,1024,1024,1024,1024,0,0,0,0,296.3,0,0,51,3.813,3.818,3.813,3.811,0,0,7.719,108.5,76.364517207444,17.716536,6,P-GPS,
566900,2022-07-09 12:59:35,52.1653906760112,0.0999019708885679,17.716536,17.716536,58.647981207444,76.364517207444,17.716536,0.894776,20.2774940872,21.4701122356,25,5,15.268,76.364517207444,17.716536,6.0173686,20.2774940872,0,-0.894776,0,299.8, -10.9, 6.4,0,0,1024,1024,1024,1024,0,0,0,0,296.3,0,0,51,3.813,3.818,3.813,3.811,0,0,7.719,108.5,76.364517207444,17.716536,6,P-GPS,
567100,2022-07-09 12:59:35,52.1653908500695,0.0999002782658379,17.716536,17.716536,58.647981207444,76.364517207444,18.04462,1.6329662,20.6358602404,21.8542001744,25,5,15.268,76.364517207444,17.716536,6.0173686,20.6358602404,0.447388,-1.565858,0,299.9, -13.7, 5.9,0,0,1024,1024,1024,1024,0,0,0,0,296.3,0,0,51,3.813,3.818,3.813,3.811,0,0,7.719,108.5,76.364517207444,17.716536,6,P-GPS,
567300,2022-07-09 12:59:35,52.1653914228793,0.0998975633976114,17.716536,17.716536,58.647981207444,76.364517207444,18.04462,2.6172198,21.2659783708,22.49671988,25,5,15.268,76.364517207444,17.716536,6.0173686,21.2659783708,0.894776,-2.460634,0,299.7, -16.3, 5.1,0,0,1024,1024,1024,1024,0,0,0,0,296.3,0,0,51,3.813,3.818,3.813,3.811,0,0,7.719,108.5,76.364517207444,17.716536,6,P-GPS,
567500,2022-07-09 12:59:36,52.1653924153737,0.0998936229507226,17.716536,17.716536,58.647981207444,76.364517207444,18.04462,3.7133204,22.210958716,23.4500007504,25,5,15.266,76.364517207444,17.716536,6.0173686,22.210958716,1.565858,-3.35541,0,299.6, -16.7, 5.8,0,0,1024,1024,1024,1024,0,0,0,0,296.3,0,0,51,3.811,3.817,3.815,3.812,0,0,8.351,108.5,76.364517207444,17.716536,6,P-GPS,
567700,2022-07-09 12:59:36,52.1653938853153,0.0998884778611482,17.716536,17.716536,58.647981207444,76.364517207444,18.04462,4.697574,23.4770020636,24.7202107648,25,5,15.266,76.364517207444,17.716536,6.0173686,23.4770020636,2.013246,-4.250186,0,299.8, -15.1, 5.6,0,0,1024,1024,1024,1024,0,0,0,0,296.3,0,0,51,3.811,3.817,3.815,3.812,0,0,8.351,108.5,76.364517207444,17.716536,6,P-GPS,
567900,2022-07-09 12:59:36,52.1653957586558,0.0998822744642415,18.04462,18.04462,58.647981207444,76.692601207444,18.04462,5.5028724,25.0220152364,26.2676189508,25,5,15.266,76.692601207444,18.04462,6.0173686,25.0220152364,2.460634,-4.921268,0,299.9, -12.5, 5.6,0,0,1024,1024,1024,1024,0,0,0,0,296.3,0,0,51,3.811,3.817,3.815,3.812,0,0,8.351,108.5,76.692601207444,18.04462,6,P-GPS,
568100,2022-07-09 12:59:36,52.1653979563399,0.0998752962965344,18.04462,18.04462,58.647981207444,76.692601207444,18.372704,6.1068462,26.776411618,28.0230980096,25,5,15.266,76.692601207444,18.04462,6.1068462,26.776411618,2.908022,-5.368656,0,300, -6.8, 10.1,0,0,1024,1024,1024,1024,0,0,0,0,296.3,0,0,51,3.811,3.817,3.815,3.812,0,0,8.351,108.5,76.692601207444,18.04462,6,P-GPS,
568300,2022-07-09 12:59:36,52.1654005412143,0.0998682574787416,18.04462,18.04462,58.647981207444,76.692601207444,18.372704,6.0844768,28.611549472,29.8590560736,25,5,15.266,76.692601207444,18.04462,6.1068462,28.611549472,3.579104,-4.921268,0,300.8, -1.3, 16.4,0,0,1024,1024,1024,1024,0,0,0,0,296.3,0,0,51,3.811,3.817,3.815,3.812,0,0,8.351,108.5,76.692601207444,18.04462,6,P-GPS,
568500,2022-07-09 12:59:37,52.1654036571819,0.0998619450862637,18.04462,18.04462,58.647981207444,76.692601207444,13.779528,5.8607828,30.4011492668,31.6723763416,25,5,15.257,76.692601207444,18.04462,6.1068462,30.4011492668,4.026492,-4.250186,0,301, 0.5, 15.3,0,0,1024,1024,1024,1024,0,0,0,0,296.3,0,0,51,3.812,3.817,3.817,3.812,0,0,8.641,108.5,76.692601207444,18.04462,6,P-GPS,
568700,2022-07-09 12:59:37,52.1654075092211,0.0998570939872426,18.04462,18.04462,58.647981207444,76.692601207444,13.779528,5.9055216,32.1933737336,33.485565376,25,5,15.257,76.692601207444,18.04462,6.1068462,32.1933737336,4.697574,-3.579104,0,300.6, 1.8, 20.6,0,0,1024,1024,1024,1024,0,0,0,0,296.3,0,0,51,3.812,3.817,3.817,3.812,0,0,8.641,108.5,76.692601207444,18.04462,6,P-GPS,
568900,2022-07-09 12:59:37,52.1654113612603,0.0998522428882215,18.04462,18.04462,58.647981207444,76.692601207444,15.748032,6.1963238,33.710302916,35.323491944,25,5,15.257,76.692601207444,18.04462,6.1963238,33.710302916,5.59235,-2.684328,0,299.8, 2.2, 21.6,0,0,1024,1024,1024,1024,0,0,0,0,296.3,0,0,51,3.812,3.817,3.817,3.812,0,0,8.641,108.5,76.692601207444,18.04462,6,P-GPS,
569100,2022-07-09 12:59:37,52.1654161502482,0.0998492004955658,18.04462,18.04462,58.647981207444,76.692601207444,15.748032,6.5094954,35.233925012,37.198820088,25,5,15.257,76.692601207444,18.04462,6.5094954,35.233925012,6.263432,-1.789552,0,299.7, 2, 18,0,0,1024,1024,1024,1024,0,0,0,0,296.3,0,0,51,3.812,3.817,3.817,3.812,0,0,8.641,108.5,76.692601207444,18.04462,6,P-GPS,
569300,2022-07-09 12:59:37,52.1654213668366,0.0998471937284371,18.04462,18.04462,58.647981207444,76.692601207444,15.748032,6.5766036,36.693570728,39.154200728,25,5,15.257,76.692601207444,18.04462,6.5766036,36.693570728,6.487126,-1.11847,-0.223694,299.6, 8.9, -2.7,0,0,1024,1024,1024,1024,0,0,0,0,296.3,0,0,51,3.812,3.817,3.817,3.812,0,0,8.641,108.5,76.692601207444,18.04462,6,P-GPS,
569500,2022-07-09 12:59:38,52.1654258584454,0.0998457828195938,18.372704,18.372704,58.647981207444,77.020685207444,15.419948,4.5186188,37.92979124,40.823164036,25,5,15.247,77.020685207444,18.372704,6.5766036,37.92979124,4.47388,-0.671082,-0.223694,299.6, 20.1, -20.1,0,0,1024,1024,1024,1024,0,0,0,0,296.3,0,0,51,3.783,3.823,3.822,3.818,0,0,8.497,108.68,77.020685207444,18.372704,6,P-GPS,
569700,2022-07-09 12:59:38,52.1654277166097,0.0998449787607727,18.372704,18.372704,58.647981207444,77.020685207444,15.419948,2.2816788,39.198163984,42.492127344,25,5,15.247,77.020685207444,18.372704,6.5766036,39.198163984,2.23694,-0.447388,0,302.2, 14.9, -9.9,0,0,1024,1024,1024,1024,0,0,0,0,296.3,0,0,51,3.783,3.823,3.822,3.818,0,0,8.497,108.68,77.020685207444,18.372704,6,P-GPS,
569900,2022-07-09 12:59:38,52.165429574774,0.0998441747019515,18.372704,18.372704,58.647981207444,77.020685207444,17.716536,0.7158208,39.053807024,42.778544676,25,5,15.247,77.020685207444,18.372704,6.5766036,39.198163984,0.671082,-0.223694,0,303.3, 7.2, -5.9,0,0,1024,1024,1024,1024,0,0,0,0,296.3,0,0,51,3.783,3.823,3.822,3.818,0,0,8.497,108.68,77.020685207444,18.372704,6,P-GPS,
570100,2022-07-09 12:59:38,52.1654297237869,0.0998438072539139,18.700788,18.700788,58.647981207444,77.348769207444,18.04462,0,39.15190414,42.876969876,25,5,15.247,77.348769207444,18.700788,6.5766036,39.198163984,0,0,-0.894776,300.8, 1.7, 1.8,0,0,1024,1024,1024,1024,0,0,0,0,296.3,0,0,51,3.783,3.823,3.822,3.818,0,0,8.497,108.68,77.348769207444,18.700788,6,P-GPS,
570300,2022-07-09 12:59:38,52.1654294730589,0.0998435557288954,19.028872,19.028872,58.647981207444,77.676853207444,18.700788,0,39.138124612,42.984253344,25,5,15.247,77.676853207444,19.028872,6.5766036,39.198163984,0,0,-0.447388,300.4, -0.3, 4,0,0,1024,1024,1024,1024,0,0,0,0,296.3,0,0,51,3.783,3.823,3.822,3.818,0,0,8.497,108.68,77.676853207444,19.028872,6,P-GPS,
570500,2022-07-09 12:59:39,52.1654292353613,0.0998433163129442,19.028872,19.028872,58.647981207444,77.676853207444,18.700788,0,39.12565742,43.086287468,25,5,15.246,77.676853207444,19.028872,6.5766036,39.198163984,0,0,0,300.3, -0.6, 15.4,0,0,1024,1024,1024,1024,0,0,0,0,296.3,0,0,51,3.806,3.818,3.819,3.813,0,0,8.722,108.5,77.676853207444,19.028872,6,P-GPS,
570700,2022-07-09 12:59:39,52.1654294771111,0.0998434798621677,19.028872,19.028872,58.647981207444,77.676853207444,18.700788,1.006623,39.152560308,43.181759912,25,5,15.246,77.676853207444,19.028872,6.5766036,39.198163984,0.894776,0.447388,0,301.1, 0.2, 25.1,0,0,1024,1024,1024,1024,0,0,0,0,296.3,0,0,51,3.806,3.818,3.819,3.813,0,0,8.722,108.5,77.676853207444,19.028872,6,P-GPS,
570900,2022-07-09 12:59:39,52.1654307726345,0.0998447438700091,19.028872,19.028872,58.647981207444,77.676853207444,15.419948,2.6172198,39.231956636,43.732612948,25,5,15.246,77.676853207444,19.028872,6.5766036,39.231956636,2.23694,1.342164,0,299.5, 0.2, 25.4,0,0,1024,1024,1024,1024,0,0,0,0,296.3,0,0,51,3.806,3.818,3.819,3.813,0,0,8.722,108.5,77.676853207444,19.028872,6,P-GPS,
571100,2022-07-09 12:59:39,52.1654331977145,0.0998471734488921,19.356956,19.356956,58.647981207444,78.004937207444,15.419948,4.2278166,39.390749292,44.770998808,25,5,15.246,78.004937207444,19.356956,6.5766036,39.390749292,3.579104,2.23694,0,299.6, -0.6, 20.4,0,0,1024,1024,1024,1024,0,0,0,0,296.3,0,0,51,3.806,3.818,3.819,3.813,0,0,8.722,108.5,78.004937207444,19.356956,6,P-GPS,
571300,2022-07-09 12:59:39,52.1654364463751,0.0998503553821363,19.356956,19.356956,58.647981207444,78.004937207444,15.419948,4.7199434,39.656825416,46.153872868,25,5,15.246,78.004937207444,19.356956,6.5766036,39.656825416,4.026492,2.460634,0,301.5, -0.4, -2.3,0,0,1024,1024,1024,1024,0,0,0,0,296.3,0,0,51,3.806,3.818,3.819,3.813,0,0,8.722,108.5,78.004937207444,19.356956,6,P-GPS,
571500,2022-07-09 12:59:40,52.1654393711548,0.0998531681494476,19.356956,19.356956,58.647981207444,78.004937207444,15.419948,3.1093466,39.944227,47.392718052,25,5,15.215,78.004937207444,19.356956,6.5766036,39.944227,2.684328,1.565858,0,301.1, -0.5, -27.4,0,0,1024,1024,1024,1024,0,0,0,0,296.3,0,0,51,3.81,3.805,3.811,3.812,0,0,9.012,108.68,78.004937207444,19.356956,6,P-GPS,
571700,2022-07-09 12:59:40,52.1654407411932,0.0998543989586123,19.356956,19.356956,58.647981207444,78.004937207444,17.060368,1.006623,40.104660076,47.963584212,25,5,15.215,78.004937207444,19.356956,6.5766036,40.104660076,0.894776,0.447388,0,300.4, 0.3, -11.8,0,0,1024,1024,1024,1024,0,0,0,0,296.3,0,0,51,3.81,3.805,3.811,3.812,0,0,9.012,108.68,78.004937207444,19.356956,6,P-GPS,
571900,2022-07-09 12:59:40,52.165441120682,0.0998547117133315,19.68504,19.68504,58.647981207444,78.333021207444,16.732284,0,40.154856928,48.118767944,25,5,15.215,78.333021207444,19.68504,6.5766036,40.154856928,0,0,0,299.8, 0.6, -2.1,0,0,1024,1024,1024,1024,0,0,0,0,296.3,0,0,51,3.81,3.805,3.811,3.812,0,0,9.012,108.68,78.333021207444,19.68504,6,P-GPS,
572100,2022-07-09 12:59:40,52.1654410102801,0.0998546899533238,19.68504,19.68504,58.647981207444,78.333021207444,17.060368,0.223694,40.12959446,48.159122276,25,5,15.215,78.333021207444,19.68504,6.5766036,40.154856928,-0.223694,0,0,300.4, 0.6, 4.5,0,0,1024,1024,1024,1024,0,0,0,0,296.3,0,0,51,3.81,3.805,3.811,3.812,0,0,9.012,108.68,78.333021207444,19.68504,6,P-GPS,
572300,2022-07-09 12:59:40,52.1654407941882,0.099854650246198,19.68504,19.68504,58.647981207444,78.333021207444,17.388452,0.223694,40.079397608,48.238518604,25,5,15.215,78.333021207444,19.68504,6.5766036,40.154856928,-0.223694,0,0,300.7, -1, 2.9,0,0,1024,1024,1024,1024,0,0,0,0,296.3,0,0,51,3.81,3.805,3.811,3.812,0,0,9.012,108.68,78.333021207444,19.68504,6,P-GPS,
572500,2022-07-09 12:59:41,52.1654405146154,0.0998545210967813,19.68504,19.68504,58.647981207444,78.333021207444,18.04462,0.223694,40.026576084,48.344489736,25,5,15.237,78.333021207444,19.68504,6.5766036,40.154856928,-0.223694,0,0,300.8, -0.9, 2,0,0,1024,1024,1024,1024,0,0,0,0,296.3,0,0,51,3.809,3.813,3.813,3.809,0,0,8.524,108.86,78.333021207444,19.68504,6,P-GPS,
572700,2022-07-09 12:59:41,52.1654401336361,0.0998543435110958,19.68504,19.68504,58.647981207444,78.333021207444,18.372704,0.447388,39.974082644,48.450788952,25,5,15.237,78.333021207444,19.68504,6.5766036,40.154856928,-0.447388,0,0,300.5, 0.3, 3.9,0,0,1024,1024,1024,1024,0,0,0,0,296.3,0,0,51,3.809,3.813,3.813,3.809,0,0,8.524,108.86,78.333021207444,19.68504,6,P-GPS,
572900,2022-07-09 12:59:41,52.1654397526567,0.0998541659254104,19.68504,19.68504,58.647981207444,78.333021207444,18.372704,0.447388,39.884515712,48.633859824,25,5,15.237,78.333021207444,19.68504,6.5766036,40.154856928,-0.447388,0,0,300.5, -3.8, 3.8,0,0,1024,1024,1024,1024,0,0,0,0,296.3,0,0,51,3.809,3.813,3.813,3.809,0,0,8.524,108.86,78.333021207444,19.68504,6,P-GPS,
573100,2022-07-09 12:59:41,52.1654394109995,0.0998538287430575,20.013124,20.013124,58.647981207444,78.661105207444,18.700788,0.3131716,39.849738808,48.77952912,25,5,15.237,78.661105207444,20.013124,6.5766036,40.154856928,-0.223694,-0.223694,0,300.4, -2.1, 3.9,0,0,1024,1024,1024,1024,0,0,0,0,296.3,0,0,51,3.809,3.813,3.813,3.809,0,0,8.524,108.86,78.661105207444,20.013124,6,P-GPS,
573300,2022-07-09 12:59:41,52.1654390710642,0.0998534088084288,20.013124,20.013124,58.647981207444,78.661105207444,19.028872,0.3131716,39.828741432,48.935040936,25,5,15.237,78.661105207444,20.013124,6.5766036,40.154856928,-0.223694,-0.223694,0,300.5, 0.9, 7.2,0,0,1024,1024,1024,1024,0,0,0,0,296.3,0,0,51,3.809,3.813,3.813,3.809,0,0,8.524,108.86,78.661105207444,20.013124,6,P-GPS,
573500,2022-07-09 12:59:42,52.1654388043161,0.099853172800335,20.013124,20.013124,58.647981207444,78.661105207444,19.028872,0.223694,39.797901536,49.045933328,25,5,15.24,78.661105207444,20.013124,6.5766036,40.154856928,-0.223694,0,0,300.9, -1.1, 7.4,0,0,1024,1024,1024,1024,0,0,0,0,296.3,0,0,51,3.805,3.807,3.812,3.808,0,0,8.243,108.86,78.661105207444,20.013124,6,P-GPS,
573700,2022-07-09 12:59:42,52.1654386970155,0.0998531146013927,20.013124,20.013124,58.647981207444,78.661105207444,19.028872,0,39.779856916,49.086943828,25,5,15.24,78.661105207444,20.013124,6.5766036,40.154856928,0,0,0,300.7, -0.7, 5.9,0,0,1024,1024,1024,1024,0,0,0,0,296.3,0,0,51,3.805,3.807,3.812,3.808,0,0,8.243,108.86,78.661105207444,20.013124,6,P-GPS,
573900,2022-07-09 12:59:42,52.1654386863497,0.0998531354256362,20.013124,20.013124,58.647981207444,78.661105207444,19.356956,0,39.77362332,49.093177424,25,5,15.24,78.661105207444,20.013124,6.5766036,40.154856928,0,0,0,300.6, -0.7, 5.2,0,0,1024,1024,1024,1024,0,0,0,0,296.3,0,0,51,3.805,3.807,3.812,3.808,0,0,8.243,108.86,78.661105207444,20.013124,6,P-GPS,
574100,2022-07-09 12:59:42,52.165438688243,0.0998531376742635,20.013124,20.013124,58.647981207444,78.661105207444,19.356956,0,39.773951404,49.094161676,25,5,15.24,78.661105207444,20.013124,6.5766036,40.154856928,0,0,0,300.7, 0, 5.1,0,0,1024,1024,1024,1024,0,0,0,0,296.3,0,0,51,3.805,3.807,3.812,3.808,0,0,8.243,108.86,78.661105207444,20.013124,6,P-GPS,
574300,2022-07-09 12:59:42,52.1654386910358,0.0998532180941122,20.013124,20.013124,58.647981207444,78.661105207444,19.356956,0,39.761812296,49.111878212,25,5,15.24,78.661105207444,20.013124,6.5766036,40.154856928,0,0,0,300.5, -0.4, 5,0,0,1024,1024,1024,1024,0,0,0,0,296.3,0,0,51,3.805,3.807,3.812,3.808,0,0,8.243,108.86,78.661105207444,20.013124,6,P-GPS,
574500,2022-07-09 12:59:43,52.1654387111852,0.0998533370897898,20.013124,20.013124,58.647981207444,78.661105207444,19.028872,0,39.748032768,49.139765352,25,5,15.246,78.661105207444,20.013124,6.5766036,40.154856928,0,0,0,300.6, -0.8, 4.8,0,0,1024,1024,1024,1024,0,0,0,0,296.3,0,0,51,3.808,3.813,3.814,3.81,0,0,7.944,108.86,78.661105207444,20.013124,6,P-GPS,
574700,2022-07-09 12:59:43,52.1654387458641,0.0998534585994605,20.013124,20.013124,58.647981207444,78.661105207444,19.028872,0,39.73425324,49.167324408,25,5,15.246,78.661105207444,20.013124,6.5766036,40.154856928,0,0,0,300.6, -0.4, 4.6,0,0,1024,1024,1024,1024,0,0,0,0,296.3,0,0,51,3.808,3.813,3.814,3.81,0,0,7.944,108.86,78.661105207444,20.013124,6,P-GPS,
574900,2022-07-09 12:59:43,52.1654387805429,0.0998535801091312,19.68504,19.68504,58.647981207444,78.333021207444,19.028872,0,39.727035392,49.200460892,25,5,15.246,78.661105207444,20.013124,6.5766036,40.154856928,0,0,0,300.4, -0.8, 3.9,0,0,1024,1024,1024,1024,0,0,0,0,296.3,0,0,51,3.808,3.813,3.814,3.81,0,0,7.944,108.86,78.333021207444,19.68504,6,P-GPS,
575100,2022-07-09 12:59:43,52.1654387941386,0.0998536876242399,19.68504,19.68504,58.647981207444,78.333021207444,19.028872,0,39.713255864,49.225067192,25,5,15.246,78.661105207444,20.013124,6.5766036,40.154856928,0,0,0,300.5, -1.2, 4.3,0,0,1024,1024,1024,1024,0,0,0,0,296.5,0,0,51,3.808,3.813,3.814,3.81,0,0,7.944,108.86,78.333021207444,19.68504,6,P-GPS,
575300,2022-07-09 12:59:43,52.1654388018831,0.0998537543009259,19.68504,19.68504,58.647981207444,78.333021207444,19.028872,0,39.70472568,49.240159056,25,5,15.246,78.661105207444,20.013124,6.5766036,40.154856928,0,0,0,300.8, -0.7, 4,0,0,1024,1024,1024,1024,0,0,0,0,296.7,0,0,51,3.808,3.813,3.814,3.81,0,0,7.944,108.86,78.333021207444,19.68504,6,P-GPS,
575500,2022-07-09 12:59:44,52.1654388193425,0.0998538081702132,19.68504,19.68504,58.647981207444,78.333021207444,19.028872,0,39.700788672,49.2536105,25,5,15.243,78.661105207444,20.013124,6.5766036,40.154856928,0,0,0,300.9, -0.8, 4.1,0,0,1024,1024,1024,1024,0,0,0,0,296.7,0,0,51,3.809,3.813,3.812,3.809,0,0,7.818,108.86,78.333021207444,19.68504,6,P-GPS,
575700,2022-07-09 12:59:44,52.1654387564913,0.0998538620953671,19.68504,19.68504,58.647981207444,78.333021207444,19.028872,0,39.69652358,49.267390028,25,5,15.243,78.661105207444,20.013124,6.5766036,40.154856928,0,0,0,300.9, -0.2, 2.9,0,0,1024,1024,1024,1024,0,0,0,0,296.7,0,0,51,3.809,3.813,3.812,3.809,0,0,7.818,108.86,78.333021207444,19.68504,6,P-GPS,
575900,2022-07-09 12:59:44,52.1654386936401,0.099853916020521,19.68504,19.68504,58.647981207444,78.333021207444,19.028872,0,39.651247988,49.32086772,25,5,15.243,78.661105207444,20.013124,6.5766036,40.154856928,0,0,0,300.7, -1.1, 4.6,0,0,1024,1024,1024,1024,0,0,0,0,296.7,0,0,51,3.809,3.813,3.812,3.809,0,0,7.818,108.86,78.333021207444,19.68504,6,P-GPS,
576100,2022-07-09 12:59:44,52.1654385855685,0.0998539358950338,19.68504,19.68504,58.647981207444,78.333021207444,19.028872,0,39.620408092,49.360565884,25,5,15.243,78.661105207444,20.013124,6.5766036,40.154856928,0,0,0,301, -1.4, 2.4,0,0,1024,1024,1024,1024,0,0,0,0,296.7,0,0,51,3.809,3.813,3.812,3.809,0,0,7.818,108.86,78.333021207444,19.68504,6,P-GPS,
576300,2022-07-09 12:59:44,52.1654384311755,0.0998538148322952,19.68504,19.68504,58.647981207444,78.333021207444,18.700788,0,39.600066884,49.423229928,25,5,15.243,78.661105207444,20.013124,6.5766036,40.154856928,0,0,0,300.7, -1.4, 5.7,0,0,1024,1024,1024,1024,0,0,0,0,297.2,0,0,51,3.809,3.813,3.812,3.809,0,0,7.818,108.86,78.333021207444,19.68504,6,P-GPS,
576500,2022-07-09 12:59:45,52.1654383747624,0.0998536858784113,19.68504,19.68504,58.647981207444,78.333021207444,19.028872,0,39.60630048,49.458663,25,5,15.239,78.661105207444,20.013124,6.5766036,40.154856928,0,0,0,301.8, -0.9, 5.5,0,0,1024,1024,1024,1024,0,0,0,0,298.9,0,0,51,3.807,3.811,3.811,3.808,0,0,7.96,109.04,78.333021207444,19.68504,6,P-GPS,
576700,2022-07-09 12:59:45,52.1654384092356,0.0998536320649905,19.68504,19.68504,58.647981207444,78.333021207444,19.028872,0,39.612205992,49.494096072,25,5,15.239,78.661105207444,20.013124,6.5766036,40.154856928,0,0,0,304.2, -0.2, 4.5,0,0,1024,1024,1024,1024,0,0,0,0,304.2,0,0,51,3.807,3.811,3.811,3.808,0,0,7.96,109.04,78.333021207444,19.68504,6,P-GPS,
576900,2022-07-09 12:59:45,52.1654384437089,0.0998535782515696,19.68504,19.68504,58.647981207444,78.333021207444,19.028872,0,39.641077384,49.540027832,25,5,15.239,78.661105207444,20.013124,6.5766036,40.154856928,0,0,0,310.7, -0.1, 4.2,0,0,1024,1024,1024,1024,0,0,0,0,311.6,0,0,51,3.807,3.811,3.811,3.808,0,0,7.96,109.04,78.333021207444,19.68504,6,P-GPS,
577100,2022-07-09 12:59:45,52.1654384604058,0.0998536299141296,19.68504,19.68504,58.647981207444,78.333021207444,18.700788,0,39.637140376,49.553151192,25,5,15.239,78.661105207444,20.013124,6.5766036,40.154856928,0,0,0,318.5, -0.4, 3.9,0,0,1024,1024,1024,1024,0,0,0,0,317.8,0,0,51,3.807,3.811,3.811,3.808,0,0,7.96,109.04,78.333021207444,19.68504,6,P-GPS,
577300,2022-07-09 12:59:45,52.165438468296,0.0998537508651352,19.68504,19.68504,58.647981207444,78.333021207444,18.700788,0,39.619751924,49.580382164,25,5,15.239,78.661105207444,20.013124,6.5766036,40.154856928,0,0,0,323.6, -1.4, 3.9,0,0,1024,1024,1024,1024,0,0,0,0,321.4,0,0,51,3.807,3.811,3.811,3.808,0,0,7.96,109.04,78.333021207444,19.68504,6,P-GPS,
577500,2022-07-09 12:59:46,52.1654384836564,0.0998538646652268,19.68504,19.68504,58.647981207444,78.333021207444,18.700788,0,39.605644312,49.6063008,25,5,15.238,78.661105207444,20.013124,6.5766036,40.154856928,0,0,0,326.2, -1.4, 3.2,0,0,1024,1024,1024,1024,0,0,0,0,321.8,0,0,51,3.807,3.811,3.811,3.808,0,0,7.937,109.04,78.333021207444,19.68504,6,P-GPS,
577700,2022-07-09 12:59:46,52.1654385211666,0.0998539725644177,19.68504,19.68504,58.647981207444,78.333021207444,19.028872,0,39.5915367,49.63254752,25,5,15.238,78.661105207444,20.013124,6.5766036,40.154856928,0,0,0,326, -1.7, 3.3,0,0,1024,1024,1024,1024,0,0,0,0,322.9,0,0,51,3.807,3.811,3.811,3.808,0,0,7.937,109.04,78.333021207444,19.68504,6,P-GPS,
577900,2022-07-09 12:59:46,52.1654385586769,0.0998540804636087,19.68504,19.68504,58.647981207444,78.333021207444,18.700788,0,39.590552448,49.664043584,25,5,15.238,78.661105207444,20.013124,6.5766036,40.154856928,0,0,0,328.5, -1.9, 2.1,0,0,1024,1024,1024,1024,0,0,0,0,332.6,0,0,51,3.807,3.811,3.811,3.808,0,0,7.937,109.04,78.333021207444,19.68504,6,P-GPS,
578100,2022-07-09 12:59:46,52.1654385739175,0.0998541052404082,19.68504,19.68504,58.647981207444,78.333021207444,18.700788,0,39.590552448,49.6719176,25,5,15.238,78.661105207444,20.013124,6.5766036,40.154856928,0,0,0,341.1, -1.2, 2.9,0,0,1024,1024,1024,1024,0,0,0,0,343.9,0,0,51,3.807,3.811,3.811,3.808,0,0,7.937,109.04,78.333021207444,19.68504,6,P-GPS,
578300,2022-07-09 12:59:46,52.1654385679378,0.0998541282574125,19.356956,19.356956,58.647981207444,78.004937207444,18.700788,0,39.585303104,49.677495028,25,5,15.238,78.661105207444,20.013124,6.5766036,40.154856928,0,0,0,351.2, -1.5, 2.9,0,0,1024,1024,1024,1024,0,0,0,0,347,0,0,51,3.807,3.811,3.811,3.808,0,0,7.937,109.04,78.004937207444,19.356956,6,P-GPS,
578500,2022-07-09 12:59:47,52.1654385256515,0.0998542503536817,19.356956,19.356956,58.647981207444,78.004937207444,18.700788,0,39.555119376,49.708991092,25,5,15.238,78.661105207444,20.013124,6.5766036,40.154856928,0,0,0,351.1, -2.3, 1.6,0,0,1024,1024,1024,1024,0,0,0,0,347,0,0,51,3.807,3.811,3.812,3.808,0,0,7.796,109.04,78.004937207444,19.356956,6,P-GPS,
578700,2022-07-09 12:59:47,52.165438511756,0.0998543636160581,19.356956,19.356956,58.647981207444,78.004937207444,18.700788,0,39.524607564,49.740159072,25,5,15.238,78.661105207444,20.013124,6.5766036,40.154856928,0,0,0,351.1, -3, 1.1,0,0,1024,1024,1024,1024,0,0,0,0,344.4,0,0,51,3.807,3.811,3.812,3.808,0,0,7.796,109.04,78.004937207444,19.356956,6,P-GPS,
578900,2022-07-09 12:59:47,52.1654384978604,0.0998544768784345,19.356956,19.356956,58.647981207444,78.004937207444,18.700788,0,39.511812288,49.764109204,25,5,15.238,78.661105207444,20.013124,6.5766036,40.154856928,0,0,0,346.7, -3, 0.7,0,0,1024,1024,1024,1024,0,0,0,0,340.2,0,0,51,3.807,3.811,3.812,3.808,0,0,7.796,109.04,78.004937207444,19.356956,6,P-GPS,
579100,2022-07-09 12:59:47,52.1654385225074,0.0998544713616161,19.028872,19.028872,58.647981207444,77.676853207444,18.700788,0,39.519030136,49.773295556,25,5,15.238,78.661105207444,20.013124,6.5766036,40.154856928,0,0,0,343.6, -2.8, 0.5,0,0,1024,1024,1024,1024,0,0,0,0,339.9,0,0,51,3.807,3.811,3.812,3.808,0,0,7.796,109.04,77.676853207444,19.028872,6,P-GPS,
579300,2022-07-09 12:59:47,52.1654385746028,0.0998542814433974,19.028872,19.028872,58.647981207444,77.676853207444,18.700788,0,39.562665308,49.819883484,25,5,15.238,78.661105207444,20.013124,6.5766036,40.154856928,0,0,0,344.2, -2, 1.9,0,0,1024,1024,1024,1024,0,0,0,0,339.9,-0.2,0,51,3.807,3.811,3.812,3.808,0,0,7.796,109.04,77.676853207444,19.028872,6,P-GPS,
579500,2022-07-09 12:59:48,52.1654386098129,0.0998540445693726,19.028872,19.028872,58.647981207444,77.676853207444,18.700788,0,39.609253236,49.874345428,25,5,15.236,78.661105207444,20.013124,6.5766036,40.154856928,0,0,0,344.1, -2.1, 2.1,0,0,1024,1024,1024,1024,0,0,0,0,339.9,-2,0,51,3.807,3.811,3.813,3.808,0,0,7.722,109.04,77.676853207444,19.028872,6,P-GPS,
579700,2022-07-09 12:59:48,52.1654386268482,0.0998538545603709,19.028872,19.028872,58.647981207444,77.676853207444,18.700788,0,39.656169248,49.928807372,25,5,15.236,78.661105207444,20.013124,6.5766036,40.154856928,0,0,0,344.1, -1.8, 1.4,0,0,1024,1024,1024,1024,0,0,0,0,339.9,-4.5,0,51,3.807,3.811,3.813,3.808,0,0,7.722,109.04,77.676853207444,19.028872,6,P-GPS,
579900,2022-07-09 12:59:48,52.1654386438835,0.0998536645513691,19.028872,19.028872,58.647981207444,77.676853207444,18.700788,0,39.67847896,49.960959604,25,5,15.236,78.661105207444,20.013124,6.5766036,40.154856928,0,0,0,344.1, -1.9, 1.8,0,0,1024,1024,1024,1024,0,0,0,0,339.9,-7.2,0,51,3.807,3.811,3.813,3.808,0,0,7.722,109.04,77.676853207444,19.028872,6,P-GPS,
580100,2022-07-09 12:59:48,52.165438659184,0.0998534674682698,19.028872,19.028872,58.647981207444,77.676853207444,18.700788,0,39.713912032,50.005250944,25,5,15.236,78.661105207444,20.013124,6.5766036,40.154856928,0,0,0,344.2, -1.8, 1.9,0,0,1024,1024,1024,1024,0,0,0,0,339.9,-9.9,0,51,3.807,3.811,3.813,3.808,0,0,7.722,109.04,77.676853207444,19.028872,6,P-GPS,
580300,2022-07-09 12:59:48,52.1654386791364,0.099853289896551,18.700788,18.700788,58.647981207444,77.348769207444,18.700788,0,39.7473766,50.04593336,25,5,15.236,78.661105207444,20.013124,6.5766036,40.154856928,0,0,0,344.2, -1.8, 1.7,0,0,1024,1024,1024,1024,0,0,0,0,339.9,-12.6,0,51,3.807,3.811,3.813,3.808,0,0,7.722,109.04,77.348769207444,18.700788,6,P-GPS,
580500,2022-07-09 12:59:49,52.1654386941542,0.0998531341267398,18.700788,18.700788,58.647981207444,77.348769207444,18.700788,0,39.775919908,50.081038348,25,5,15.237,78.661105207444,20.013124,6.5766036,40.154856928,0,0,0,344.2, -1.7, 1.4,0,0,1024,1024,1024,1024,0,0,0,0,339.9,-15.3,0,50,3.807,3.811,3.811,3.807,0,0,7.627,109.04,77.348769207444,18.700788,6,P-GPS,
580700,2022-07-09 12:59:49,52.1654386666886,0.0998529658428292,18.700788,18.700788,58.647981207444,77.348769207444,18.700788,0,39.804463216,50.11647142,25,5,15.237,78.661105207444,20.013124,6.5766036,40.154856928,0,0,0,344.4, -1.9, 1.5,0,0,1024,1024,1024,1024,0,0,0,0,339.9,-16.9,0,50,3.807,3.811,3.811,3.807,0,0,7.627,109.04,77.348769207444,18.700788,6,P-GPS,
580900,2022-07-09 12:59:49,52.1654386392231,0.0998527975589185,18.700788,18.700788,58.647981207444,77.348769207444,18.700788,0,39.815618072,50.164371684,25,5,15.237,78.661105207444,20.013124,6.5766036,40.154856928,0,0,0,344.3, -1.9, 1.8,0,0,1024,1024,1024,1024,0,0,0,0,339.9,-17.2,0,50,3.807,3.811,3.811,3.807,0,0,7.627,109.04,77.348769207444,18.700788,6,P-GPS,
581100,2022-07-09 12:59:49,52.1654386057093,0.0998526014953831,18.700788,18.700788,58.647981207444,77.348769207444,18.700788,0,39.838255868,50.209647276,25,5,15.237,78.661105207444,20.013124,6.5766036,40.154856928,0,0,0,344.3, -1.9, 2,0,0,1024,1024,1024,1024,0,0,0,0,339.9,-17.2,0,50,3.807,3.811,3.811,3.807,0,0,7.627,109.04,77.348769207444,18.700788,6,P-GPS,
581300,2022-07-09 12:59:49,52.1654385712874,0.0998524254041269,18.700788,18.700788,58.647981207444,77.348769207444,18.700788,0,39.857612824,50.25098586,25,5,15.237,78.661105207444,20.013124,6.5766036,40.154856928,0,0,0,344.2, -1.7, 2.3,0,0,1024,1024,1024,1024,0,0,0,0,339.9,-17.2,0,50,3.807,3.811,3.811,3.807,0,0,7.627,109.04,77.348769207444,18.700788,6,P-GPS,
581500,2022-07-09 12:59:50,52.1654385034117,0.0998523315483813,18.700788,18.700788,58.647981207444,77.348769207444,18.700788,0,39.855316236,50.283466176,25,5,15.235,78.661105207444,20.013124,6.5766036,40.154856928,0,0,0,344, -2.1, 1.3,1,0,1024,1024,1024,1024,0,0,0,0,339.9,-17.2,0,50,3.809,3.812,3.812,3.808,0,0,7.588,109.04,77.348769207444,18.700788,6,P-GPS,
581700,2022-07-09 12:59:50,52.1654384540962,0.0998521553803086,18.372704,18.372704,58.647981207444,77.020685207444,18.700788,0,39.853347732,50.315946492,25,5,15.235,78.661105207444,20.013124,6.5766036,40.154856928,0,0,0,344.4, -2.5, 1.4,0,0,1024,1024,1024,1024,0,0,0,0,339.9,-17.2,0,50,3.809,3.812,3.812,3.808,0,0,7.588,109.04,77.020685207444,18.372704,6,P-GPS,
581900,2022-07-09 12:59:50,52.1654384047808,0.099851979212236,18.372704,18.372704,58.647981207444,77.020685207444,18.700788,0,39.8868123,50.375001612,25,5,15.235,78.661105207444,20.013124,6.5766036,40.154856928,0,0,0,344.3, -2.2, 2.2,0,0,1024,1024,1024,1024,0,0,0,0,339.9,-17.2,0,50,3.809,3.812,3.812,3.808,0,0,7.588,109.04,77.020685207444,18.372704,6,P-GPS,
582100,2022-07-09 12:59:50,52.1654383867046,0.0998517080361709,18.372704,18.372704,58.647981207444,77.020685207444,18.700788,0,39.925854296,50.436025236,25,5,15.235,78.661105207444,20.013124,6.5766036,40.154856928,0,0,0,343.9, -1.7, 3,0,0,1024,1024,1024,1024,0,0,0,0,339.9,-17.2,0,50,3.809,3.812,3.812,3.808,0,0,7.588,109.04,77.020685207444,18.372704,6,P-GPS,
582300,2022-07-09 12:59:50,52.1654383796541,0.0998515086625445,18.372704,18.372704,58.647981207444,77.020685207444,18.700788,0,39.956038024,50.48064466,25,5,15.235,78.661105207444,20.013124,6.5766036,40.154856928,0,0,0,343.7, -1.9, 2.7,0,0,1024,1024,1024,1024,0,0,0,0,339.9,-17.2,0,50,3.809,3.812,3.812,3.808,0,0,7.588,109.04,77.020685207444,18.372704,6,P-GPS,
582500,2022-07-09 12:59:51,52.1654383782662,0.099851365881698,18.372704,18.372704,58.647981207444,77.020685207444,18.700788,0,39.97867582,50.512796892,25,5,15.234,78.661105207444,20.013124,6.5766036,40.154856928,0,0,0,343.8, -1.8, 2.6,0,0,1024,1024,1024,1024,0,0,0,0,339.9,-17.2,0,50,3.807,3.81,3.81,3.806,0,0,7.413,109.22,77.020685207444,18.372704,6,P-GPS,
582700,2022-07-09 12:59:51,52.1654383804593,0.0998512738625641,18.372704,18.372704,58.647981207444,77.020685207444,18.700788,0,40.001313616,50.54462104,25,5,15.234,78.661105207444,20.013124,6.5766036,40.154856928,0,0,0,343.8, -1.8, 2.7,0,0,1024,1024,1024,1024,0,0,0,0,339.9,-17.2,0,50,3.807,3.81,3.81,3.806,0,0,7.413,109.22,77.020685207444,18.372704,6,P-GPS,
582900,2022-07-09 12:59:51,52.1654383826525,0.0998511818434301,18.372704,18.372704,58.647981207444,77.020685207444,19.028872,0,40.009515716,50.554135476,25,5,15.234,78.661105207444,20.013124,6.5766036,40.154856928,0,0,0,343.9, -1.9, 2.6,0,0,1024,1024,1024,1024,0,0,0,0,339.9,-17.2,0,50,3.807,3.81,3.81,3.806,0,0,7.413,109.22,77.020685207444,18.372704,6,P-GPS,
583100,2022-07-09 12:59:51,52.1654383850255,0.099851111144355,18.372704,18.372704,58.647981207444,77.020685207444,19.028872,0,40.02132674,50.569883508,25,5,15.234,78.661105207444,20.013124,6.5766036,40.154856928,0,0,0,344, -1.6, 2.3,0,0,1024,1024,1024,1024,0,0,0,0,339.9,-17.2,0,50,3.807,3.81,3.81,3.806,0,0,7.413,109.22,77.020685207444,18.372704,6,P-GPS,
583300,2022-07-09 12:59:51,52.1654383758075,0.0998510248445555,18.372704,18.372704,58.647981207444,77.020685207444,19.028872,0,40.03280968,50.589568548,25,5,15.234,78.661105207444,20.013124,6.5766036,40.154856928,0,0,0,344, -1.8, 2.6,0,0,1024,1024,1024,1024,0,0,0,0,339.9,-17.2,0,50,3.807,3.81,3.81,3.806,0,0,7.413,109.22,77.020685207444,18.372704,6,P-GPS,
583500,2022-07-09 12:59:52,52.1654383781035,0.0998509761149876,18.372704,18.372704,58.647981207444,77.020685207444,19.028872,0,40.041339864,50.60039532,25,5,15.232,78.661105207444,20.013124,6.5766036,40.154856928,0,0,0,343.8, -1.8, 2.8,0,0,1024,1024,1024,1024,0,0,0,0,339.9,-17.2,0,50,3.807,3.809,3.809,3.806,0,0,7.606,109.22,77.020685207444,18.372704,6,P-GPS,
583700,2022-07-09 12:59:52,52.1654383696994,0.0998509536077652,18.372704,18.372704,58.647981207444,77.020685207444,19.028872,0,40.049870048,50.611550176,25,5,15.232,78.661105207444,20.013124,6.5766036,40.154856928,0,0,0,343.9, -2, 2.1,0,0,1024,1024,1024,1024,0,0,0,0,340.1,-17.2,0,50,3.807,3.809,3.809,3.806,0,0,7.606,109.22,77.020685207444,18.372704,6,P-GPS,
583900,2022-07-09 12:59:52,52.1654383612952,0.0998509311005429,18.372704,18.372704,58.647981207444,77.020685207444,19.028872,0,40.04429262,50.61843994,25,5,15.232,78.661105207444,20.013124,6.5766036,40.154856928,0,0,0,344.5, -2.3, 2.5,0,0,1024,1024,1024,1024,0,0,0,0,340.4,-17.2,0,50,3.807,3.809,3.809,3.806,0,0,7.606,109.22,77.020685207444,18.372704,6,P-GPS,
584100,2022-07-09 12:59:52,52.1654383647562,0.099850891435317,18.372704,18.372704,58.647981207444,77.020685207444,19.028872,0,40.051510468,50.627298208,25,5,15.232,78.661105207444,20.013124,6.5766036,40.154856928,0,0,0,344.3, -1.8, 2.8,0,0,1024,1024,1024,1024,0,0,0,0,340.5,-17.2,0,50,3.807,3.809,3.809,3.806,0,0,7.606,109.22,77.020685207444,18.372704,6,P-GPS,
584300,2022-07-09 12:59:52,52.1654383988354,0.0998508764211911,18.372704,18.372704,58.647981207444,77.020685207444,19.028872,0,40.062665324,50.640421568,25,5,15.232,78.661105207444,20.013124,6.5766036,40.154856928,0,0,0,344.5, -1.8, 2.2,0,0,1024,1024,1024,1024,0,0,0,0,345.6,-17.2,0,50,3.807,3.809,3.809,3.806,0,0,7.606,109.22,77.020685207444,18.372704,6,P-GPS,
584500,2022-07-09 12:59:53,52.1654384600546,0.0998508745356962,18.372704,18.372704,58.647981207444,77.020685207444,19.028872,0,40.078413356,50.66273128,25,5,15.23,78.661105207444,20.013124,6.5766036,40.154856928,0,0,0,353.2, -1.3, 1.8,0,0,1024,1024,1024,1024,0,0,0,0,356.9,-17.2,0,50,3.807,3.808,3.809,3.805,0,0,7.644,109.22,77.020685207444,18.372704,6,P-GPS,
584700,2022-07-09 12:59:53,52.1654384633271,0.0998509498367754,18.372704,18.372704,58.647981207444,77.020685207444,19.028872,0,40.094161388,50.685040992,25,5,15.23,78.661105207444,20.013124,6.5766036,40.154856928,0,0,0,5.6, -1.8, 2.8,0,0,1024,1024,1024,1024,0,0,0,0,7.5,-17.2,0,50,3.807,3.808,3.809,3.805,0,0,7.644,109.22,77.020685207444,18.372704,6,P-GPS,
584900,2022-07-09 12:59:53,52.1654384665997,0.0998510251378547,18.372704,18.372704,58.647981207444,77.020685207444,19.028872,0,40.05577556,50.724411072,25,5,15.23,78.661105207444,20.013124,6.5766036,40.154856928,0,0,0,14.3, -1.8, 1.5,0,0,1024,1024,1024,1024,0,0,0,0,9.9,-17.2,0,50,3.807,3.808,3.809,3.805,0,0,7.644,109.22,77.020685207444,18.372704,6,P-GPS,
