time(millisecond),datetime(utc),latitude,longitude,height_above_takeoff(feet),height_above_ground_at_drone_location(feet),ground_elevation_at_drone_location(feet),altitude_above_seaLevel(feet),height_sonar(feet),speed(mph),distance(feet),mileage(feet),satellites,gpslevel,voltage(v),max_altitude(feet),max_ascent(feet),max_speed(mph),max_distance(feet), xSpeed(mph), ySpeed(mph), zSpeed(mph), compass_heading(degrees), pitch(degrees), roll(degrees),isPhoto,isVideo,rc_elevator,rc_aileron,rc_throttle,rc_rudder,rc_elevator(percent),rc_aileron(percent),rc_throttle(percent),rc_rudder(percent),gimbal_heading(degrees),gimbal_pitch(degrees),gimbal_roll(degrees),battery_percent,voltageCell1,voltageCell2,voltageCell3,voltageCell4,voltageCell5,voltageCell6,current(A),battery_temperature(f),altitude(feet),ascent(feet),flycStateRaw,flycState,message
100,2023-07-10 17:54:15,0,0,0,,,60.485437631072,0.328084,0,0,0,14,2,0,60.485437631072,0,0,0,0,0,0,196, 6.7, -0.6,0,0,1024,1024,1024,1024,0,0,0,0,196.2,0,0,98,4.305,4.304,4.305,4.297,0,0,0,81.5,60.485437631072,0,41,Motors_Started,"GPS signal weak. Hovering unstable. Fly with caution (Code: 30002)"
300,2023-07-10 17:54:16,0,0,0,,,60.485437631072,0.328084,0,0,0,14,2,0,60.485437631072,0,0,0,0,0,0,196, 6.7, -0.6,0,0,1024,1024,1024,1024,0,0,0,0,196.2,0,0,98,4.305,4.304,4.305,4.297,0,0,0,81.5,60.485437631072,0,41,Motors_Started,
500,2023-07-10 17:54:16,0,0,0,,,60.485437631072,0,0,0,0,15,2,0,60.485437631072,0,0,0,0,0,0,196.1, 6.7, -0.6,0,0,1024,1024,1024,1024,0,0,0,0,196.2,0,0,98,4.305,4.304,4.305,4.297,0,0,0,81.5,60.485437631072,0,41,Motors_Started,"Setting new Return-To-Home altitude to 26m (85 ft). Data Recorder File Index is 55. Setting new Maximum Flight Altitude to 30m (98 ft)"
700,2023-07-10 17:54:16,0,0,0,,,60.485437631072,0,0,0,0,15,2,0,60.485437631072,0,0,0,0,0,0,196, 6.7, -0.6,0,0,1024,1024,1024,1024,0,0,0,0,196.2,0,0,98,4.305,4.304,4.305,4.297,0,0,0,81.5,60.485437631072,0,41,Motors_Started,
900,2023-07-10 17:54:16,0,0,0,,,60.485437631072,0,0,0,0,15,2,0,60.485437631072,0,0,0,0,0,0,196, 6.7, -0.6,0,0,1024,1024,1097,1024,0,0,11,0,196.2,0,0,98,4.305,4.304,4.305,4.297,0,0,0,81.5,60.485437631072,0,41,Motors_Started,
1100,2023-07-10 17:54:16,0,0,0,,,60.485437631072,0,0,0,0,15,2,17.32,60.485437631072,0,0,0,0,0,0,196.2, 6.7, -0.6,0,0,1024,1024,1684,1024,0,0,100,0,196.2,0,0,98,4.305,4.304,4.305,4.297,0,0,1.191,81.5,60.485437631072,0,41,Motors_Started,
1300,2023-07-10 17:54:17,0,0,0,,,60.485437631072,0,0,0,0,15,2,17.32,60.485437631072,0,0,0,0,0,0,196.2, 6.7, -0.6,0,0,1024,1024,1684,1024,0,0,100,0,196.2,0,0,98,4.305,4.304,4.305,4.297,0,0,1.191,81.5,60.485437631072,0,41,Motors_Started,
1500,2023-07-10 17:54:17,0,0,0,,,60.485437631072,0,0,0,0,15,2,17.32,60.485437631072,0,0,0,0,0,0,196.3, 6.7, -0.7,0,0,1024,1024,1684,1024,0,0,100,0,196.2,0,0,98,4.305,4.304,4.305,4.297,0,0,1.191,81.5,60.485437631072,0,11,AutoTakeoff,
1700,2023-07-10 17:54:17,0,0,0,,,60.485437631072,0,0,0,0,15,2,17.32,60.485437631072,0,0,0,0,0,0,196.2, 6.7, -0.6,0,0,1024,1024,1684,1024,0,0,100,0,196.2,0,0,98,4.305,4.304,4.305,4.297,0,0,1.191,81.5,60.485437631072,0,11,AutoTakeoff,
1900,2023-07-10 17:54:17,0,0,0,,,60.485437631072,0,0,0,0,15,2,17.32,60.485437631072,0,0,0,0,0,0,196, 4.9, -0.6,0,0,1024,1024,1684,1024,0,0,100,0,196.2,0,0,98,4.305,4.304,4.305,4.297,0,0,1.191,81.5,60.485437631072,0,11,AutoTakeoff,
2100,2023-07-10 17:54:18,0,0,0,,,60.485437631072,0,0,0,0,15,2,17.16,60.485437631072,0,0,0,0,0,-0.671082,196.6, -1.3, 0.4,0,0,1024,1024,1684,1024,0,0,100,0,196.2,0,0,98,4.31,4.31,4.31,4.308,0,0,4.145,81.32,60.485437631072,0,11,AutoTakeoff,
2300,2023-07-10 17:54:18,0,0,0.328084,,,60.813521631072,0.328084,0,0,0,15,2,17.16,60.813521631072,0.328084,0,0,0,0,-1.342164,196.4, -0.4, 1,0,0,1024,1024,1684,1024,0,0,100,0,196.2,0,0,98,4.31,4.31,4.31,4.308,0,0,4.145,81.32,60.813521631072,0.328084,11,AutoTakeoff,
2500,2023-07-10 17:54:18,0,0,0.656168,,,61.141605631072,0.656168,0,0,0,15,2,17.16,61.141605631072,0.656168,0,0,0,0,-1.789552,196.5, -0.3, 1,0,0,1024,1024,1684,1024,0,0,100,0,196.2,0,0,98,4.31,4.31,4.31,4.308,0,0,4.145,81.32,61.141605631072,0.656168,11,AutoTakeoff,
2700,2023-07-10 17:54:18,0,0,1.312336,,,61.797773631072,1.64042,0,0,0,15,2,17.16,61.797773631072,1.312336,0,0,0,0,-2.013246,196.3, -0.7, 0.8,0,0,1024,1024,1684,1024,0,0,100,0,196.2,0,0,98,4.31,4.31,4.31,4.308,0,0,4.145,81.32,61.797773631072,1.312336,11,AutoTakeoff,
2900,2023-07-10 17:54:18,0,0,1.968504,,,62.453941631072,2.296588,0,0,0,13,2,17.16,62.453941631072,1.968504,0,0,0,0,-2.684328,196.2, -1.2, 0.7,0,0,1024,1024,1684,1024,0,0,100,0,196.2,0,0,98,4.31,4.31,4.31,4.308,0,0,4.145,81.32,62.453941631072,1.968504,11,AutoTakeoff,
3100,2023-07-10 17:54:19,0,0,2.952756,,,63.438193631072,3.28084,0,0,0,13,2,17.184,63.438193631072,2.952756,0,0,0,0,-3.35541,197.1, -1, 0.2,0,0,1024,1024,1684,1024,0,0,100,0,196.2,0,0,98,4.251,4.254,4.257,4.253,0,0,3.561,81.5,63.438193631072,2.952756,11,AutoTakeoff,
3300,2023-07-10 17:54:19,0,0,4.265092,,,64.750529631072,4.593176,0,0,0,13,2,17.184,64.750529631072,4.265092,0,0,0,0,-4.47388,198.7, -0.2, 1,0,0,1024,1024,1684,1024,0,0,100,0,196.2,0,0,98,4.251,4.254,4.257,4.253,0,0,3.561,81.5,64.750529631072,4.265092,6,P-GPS,
3500,2023-07-10 17:54:19,0,0,5.905512,,,66.390949631072,6.233596,0,0,0,13,2,17.184,66.390949631072,5.905512,0,0,0,0,-6.263432,199.3, 0.5, 2.4,0,0,1024,1024,1684,1024,0,0,100,0,196.2,0,0,98,4.251,4.254,4.257,4.253,0,0,3.561,81.5,66.390949631072,5.905512,6,P-GPS,
3700,2023-07-10 17:54:19,52.2073306009571,0.0869822763789237,8.2021,8.2021,60.485437631072,68.687537631072,8.2021,0,0,0,13,2,17.184,68.687537631072,8.2021,0,0,0,0,-8.276678,199.5, 0, 3.7,0,0,1024,1024,1684,1024,0,0,100,0,196.2,0,0,98,4.251,4.254,4.257,4.253,0,0,3.561,81.5,68.687537631072,8.2021,6,P-GPS,"No GPS. Fly with caution GPS signal weak. Hovering unstable. Fly with caution (Code: 30002)"
3900,2023-07-10 17:54:19,52.2073306172987,0.0869821006153587,11.48294,11.48294,60.485437631072,71.968377631072,11.154856,0.223694,0.0397473766,0.0397473766,13,2,17.184,71.968377631072,11.48294,0.223694,0.0397473766,0,-0.223694,-10.513618,199.1, 0.2, 2.9,0,0,1024,1024,1684,1024,0,0,100,0,196.2,0,0,98,4.251,4.254,4.257,4.253,0,0,3.561,81.5,71.968377631072,11.48294,6,P-GPS,
4100,2023-07-10 17:54:20,52.2073308201822,0.08698177285191,15.091864,15.091864,60.485437631072,75.577301631072,14.435696,0.3131716,0.138100070036,0.143908141088,13,2,16.974,75.577301631072,15.091864,0.3131716,0.138100070036,0.223694,-0.223694,-12.526864,200.2, 0, -0.6,0,0,1024,1024,1684,1024,0,0,100,0,196.2,0,0,98,4.226,4.228,4.229,4.21,0,0,8.094,81.14,75.577301631072,15.091864,6,P-GPS,
4300,2023-07-10 17:54:20,52.2073311152521,0.0869818257594505,19.356956,19.356956,60.485437631072,79.842393631072,18.372704,0,0.212977697104,0.252212278412,14,2,16.974,79.842393631072,19.356956,0.3131716,0.212977697104,0,0,-13.42164,204.9, -1.7, -0.3,0,0,1024,1024,1684,1024,0,0,100,0,196.2,0,0,98,4.226,4.228,4.229,4.21,0,0,8.094,81.14,79.842393631072,19.356956,6,P-GPS,
4500,2023-07-10 17:54:20,52.2073315316762,0.0869822709660899,23.622048,23.622048,60.485437631072,84.107485631072,22.637796,0,0.33957350168,0.43384843908,14,2,16.974,84.107485631072,23.622048,0.3131716,0.33957350168,0,0,-13.42164,209.4, -2, 0.6,0,0,1024,1024,1684,1024,0,0,100,0,196.2,0,0,98,4.226,4.228,4.229,4.21,0,0,8.094,81.14,84.107485631072,23.622048,6,P-GPS,
4700,2023-07-10 17:54:20,52.2073322237814,0.0869830942443887,28.215224,28.215224,60.485437631072,88.700661631072,26.574804,0,0.61968177836,0.74633204488,14,5,16.974,88.700661631072,28.215224,0.3131716,0.61968177836,0,0,-13.197946,210, -1.8, 0.4,0,0,1024,1024,1684,1024,0,0,100,0,196.2,0,0,98,4.226,4.228,4.229,4.21,0,0,8.094,81.14,88.700661631072,28.215224,6,P-GPS,
4900,2023-07-10 17:54:20,52.2073332766106,0.086984360299433,32.152232,32.152232,60.485437631072,92.637669631072,30.511812,0,1.08169950968,1.22348757196,14,5,16.974,92.637669631072,32.152232,0.3131716,1.08169950968,0,0,-13.197946,210, -2.3, -0.1,0,0,1024,1024,1684,1024,0,0,100,0,196.2,0,0,98,4.226,4.228,4.229,4.21,0,0,8.094,81.14,92.637669631072,32.152232,6,P-GPS,
5100,2023-07-10 17:54:21,52.2073345970543,0.0869861330263174,36.417324,36.3845156,60.518246031072,96.902761631072,34.44882,0,1.69387472612,1.84733601712,15,5,16.7,96.902761631072,36.417324,0.3131716,1.69387472612,0,0,-13.197946,209.3, -2.7, 0,0,0,1081,1024,1684,1024,9,0,100,0,196.2,0,0,98,4.16,4.166,4.173,4.175,0,0,12.562,81.14,96.902761631072,36.417324,6,P-GPS,
5300,2023-07-10 17:54:21,52.2073360440011,0.0869882951615943,40.354332,40.3215236,60.518246031072,100.83976963107,37.72966,0,2.3988845912,2.56314968832,16,5,16.7,100.83976963107,40.354332,0.3131716,2.3988845912,0,0,-13.42164,209.6, -0.3, 0.2,0,0,1373,1024,854,1024,53,0,-26,0,196.2,0,0,98,4.16,4.166,4.173,4.175,0,0,12.562,81.14,100.83976963107,40.354332,6,P-GPS,
5500,2023-07-10 17:54:21,52.2073374804396,0.086990692422055,43.635172,43.635172,60.485437631072,104.12060963107,41.666668,0,3.13698500852,3.3127625732,17,5,16.7,104.12060963107,43.635172,0.3131716,3.13698500852,0,0,-13.42164,209.4, -2.7, 2.1,0,0,1684,1024,1024,1024,100,0,0,0,196.2,0,0,98,4.16,4.166,4.173,4.175,0,0,12.562,81.14,104.12060963107,43.635172,6,P-GPS,"Setting new Maximum Flight Altitude to 120m (394 ft)"
5700,2023-07-10 17:54:21,52.2073386526781,0.0869928922340317,46.916012,46.8832036,60.518246031072,107.40144963107,45.275592,0.223694,3.7767061576,3.964567056,16,5,16.7,107.40144963107,46.916012,0.3131716,3.7767061576,-0.223694,0,-11.408394,209.6, -23, 2.1,0,0,1684,1024,1024,1024,100,0,0,0,196.2,0,0,98,4.16,4.166,4.173,4.175,0,0,12.562,81.14,107.40144963107,46.916012,6,P-GPS,
5900,2023-07-10 17:54:21,52.2073391175725,0.0869944988805574,49.868768,49.8359596,60.518246031072,110.35420563107,47.57218,1.006623,4.1379922584,4.3618111632,16,5,16.7,110.35420563107,49.868768,1.006623,4.1379922584,-0.894776,-0.447388,-8.94776,210.7, -29.9, 1.8,0,0,1684,1024,1024,1024,100,0,0,0,196.2,0,0,98,4.16,4.166,4.173,4.175,0,0,12.562,81.14,110.35420563107,49.868768,6,P-GPS,
6100,2023-07-10 17:54:22,52.2073386906427,0.0869951742634584,51.837272,51.837272,60.485437631072,112.32270963107,48.884516,1.9908766,4.1264108932,4.578740304,17,5,16.838,112.32270963107,51.837272,1.9908766,4.1379922584,-1.789552,-0.894776,-6.487126,210.8, -29.6, 0.6,0,0,1684,1024,1024,1024,100,0,0,0,196.2,0,0,98,4.207,4.211,4.215,4.208,0,0,11.283,81.32,112.32270963107,51.837272,6,P-GPS,
6300,2023-07-10 17:54:22,52.2073375580913,0.086995090489889,52.821524,52.821524,60.485437631072,113.30696163107,48.884516,2.908022,3.8276904112,4.9923886112,17,5,16.838,113.30696163107,52.821524,2.908022,4.1379922584,-2.460634,-1.565858,-4.026492,211, -29.6, 0.7,0,0,1684,1024,1024,1024,100,0,0,0,196.2,0,0,98,4.207,4.211,4.215,4.208,0,0,11.283,81.32,113.30696163107,52.821524,6,P-GPS,
6500,2023-07-10 17:54:22,52.2073357179816,0.0869944621741387,53.477692,53.477692,60.485437631072,113.96312963107,48.884516,3.914645,3.3027888196,5.6782810216,17,5,16.838,113.96312963107,53.477692,3.914645,4.1379922584,-3.35541,-2.013246,-1.565858,210.1, -29.7, 1.4,0,0,1684,1024,1024,1024,100,0,0,0,196.2,0,0,98,4.207,4.211,4.215,4.208,0,0,11.283,81.32,113.96312963107,53.477692,6,P-GPS,"Home Point updated (Code: 3000001)"
6700,2023-07-10 17:54:22,52.2073330862519,0.0869932267245595,53.477692,53.5105004,60.452629231072,113.96312963107,39.041996,5.5028724,2.61082029352,6.6774280352,17,5,16.838,113.96312963107,53.477692,5.5028724,4.1379922584,-4.921268,-2.460634,-0.223694,208.4, -28.4, 1.3,0,0,1684,1024,1024,1024,100,0,0,0,196.2,0,0,98,4.207,4.211,4.215,4.208,0,0,11.283,81.32,113.96312963107,53.477692,6,P-GPS,
6900,2023-07-10 17:54:22,52.2073293796275,0.0869911621778895,53.477692,53.5433088,60.419820831072,113.96312963107,39.041996,7.0016222,2.03606305728,8.1063978972,19,5,16.838,113.96312963107,53.477692,7.0016222,4.1379922584,-6.263432,-3.131716,0,207.7, -28.4, 1.1,0,0,1684,1024,1024,1024,100,0,0,0,196.2,0,0,98,4.207,4.211,4.215,4.208,0,0,11.283,81.32,113.96312963107,53.477692,6,P-GPS,
7100,2023-07-10 17:54:23,52.2073243685969,0.0869885250334553,53.805776,53.9042012,60.387012431072,114.29121363107,38.713912,8.9030212,2.66877305128,10.027395334,19,5,17.03,114.29121363107,53.805776,8.9030212,4.1379922584,-8.052984,-3.802798,0,205.5, -29, 0.8,0,0,1684,1024,1024,1024,100,0,0,0,196.2,0,0,98,4.265,4.268,4.27,4.268,0,0,8.04,81.68,114.29121363107,53.805776,6,P-GPS,
7300,2023-07-10 17:54:23,52.207317819574,0.0869850516314657,53.805776,53.969818,60.321395631072,114.29121363107,38.713912,10.625465,4.704396476,12.5398297976,19,5,17.03,114.29121363107,53.805776,10.625465,4.704396476,-9.842536,-4.026492,0,202, -29.4, 1.1,0,0,1684,1024,1024,1024,100,0,0,0,196.2,0,0,98,4.265,4.268,4.27,4.268,0,0,8.04,81.68,114.29121363107,53.805776,6,P-GPS,
7500,2023-07-10 17:54:23,52.2073096505011,0.0869810469301463,53.805776,54.0354348,60.255778831072,114.29121363107,39.37008,12.1018454,7.6486879088,15.651903388,19,5,17.03,114.29121363107,53.805776,12.1018454,7.6486879088,-11.408394,-4.026492,0,200, -30, 1.7,0,0,1684,1024,1024,1024,100,0,0,0,196.2,0,0,98,4.265,4.268,4.27,4.268,0,0,8.04,81.68,114.29121363107,53.805776,6,P-GPS,
7700,2023-07-10 17:54:23,52.2072999614488,0.0869764275634153,53.805776,54.1010516,60.190162031072,114.29121363107,40.354332,13.8019198,11.2550200452,19.3347119048,19,5,17.03,114.29121363107,53.805776,13.8019198,11.2550200452,-13.197946,-4.026492,0,197.7, -29.1, 2.5,0,0,1684,1024,1024,1024,100,0,0,0,196.2,0,0,98,4.265,4.268,4.27,4.268,0,0,8.04,81.68,114.29121363107,53.805776,6,P-GPS,
7900,2023-07-10 17:54:23,52.2072887884762,0.0869711746089351,54.13386,54.5275608,60.091736831072,114.61929763107,41.0105,15.211192,15.455873198,23.5770020668,19,5,17.03,114.61929763107,54.13386,15.211192,15.455873198,-14.54011,-4.47388,0,196.9, -29.4, 2.1,0,0,1684,1024,1024,1024,100,0,0,0,196.2,0,0,98,4.265,4.268,4.27,4.268,0,0,8.04,81.68,114.61929763107,54.13386,6,P-GPS,
8100,2023-07-10 17:54:23,52.2072762427769,0.0869654011596046,54.13386,54.6587944,59.960503231072,114.61929763107,44.947508,16.8441582,20.1882552392,28.3328093056,19,5,16.967,114.61929763107,54.13386,16.8441582,20.1882552392,-16.105968,-4.921268,0,196.9, -29.4, 2.3,0,0,1684,1024,1024,1024,100,0,0,0,196.2,0,0,98,4.221,4.22,4.225,4.218,0,0,6.132,81.5,114.61929763107,54.13386,6,P-GPS,
8300,2023-07-10 17:54:24,52.2072622973846,0.0869589596623659,54.461944,55.118112,59.829269631072,114.94738163107,45.603676,18.4771244,25.459974568,33.620735984,17,5,16.967,114.94738163107,54.461944,18.4771244,25.459974568,-17.671826,-5.368656,-0.223694,196.5, -29.5, 2,0,0,1684,1024,1024,1024,100,0,0,0,196.2,0,0,98,4.221,4.22,4.225,4.218,0,0,6.132,81.5,114.94738163107,54.461944,6,P-GPS,
8500,2023-07-10 17:54:24,52.2072471064856,0.0869518600271045,54.790028,55.610238,59.665227631072,115.27546563107,46.587928,19.6627026,31.212763466,39.385828032,17,5,16.967,115.27546563107,54.790028,19.6627026,31.212763466,-18.790296,-5.816044,0,196.6, -29.9, 1.5,0,0,1684,1024,1024,1024,100,0,0,0,196.2,0,0,98,4.221,4.22,4.225,4.218,0,0,6.132,81.5,115.27546563107,54.790028,6,P-GPS,
8700,2023-07-10 17:54:24,52.2072309849295,0.0869444077896932,55.118112,56.1351724,59.468377231072,115.60354963107,51.181104,20.8706502,37.31791458,45.499345288,17,5,16.967,115.60354963107,55.118112,20.8706502,37.31791458,-19.908766,-6.263432,0,196.9, -29.5, 1,0,0,1684,1024,1024,1024,100,0,0,0,196.2,0,0,98,4.221,4.22,4.225,4.218,0,0,6.132,81.5,115.60354963107,55.118112,6,P-GPS,
8900,2023-07-10 17:54:24,52.2072139448768,0.0869366745281291,55.446196,56.5616816,59.369952031072,115.93163363107,52.49344,22.2799224,43.766077516,51.952429484,17,5,16.967,115.93163363107,55.446196,22.2799224,43.766077516,-21.25093,-6.71082,-0.223694,196.8, -29.3, 0.9,0,0,1684,1024,1024,1024,100,0,0,0,196.2,0,0,98,4.221,4.22,4.225,4.218,0,0,6.132,81.5,115.93163363107,55.446196,6,P-GPS,
9100,2023-07-10 17:54:24,52.207196064843,0.0869287720768072,55.446196,56.5616816,59.369952031072,115.93163363107,53.477692,23.4207618,50.521983244,58.710959884,17,5,16.808,115.93163363107,55.446196,23.4207618,50.521983244,-22.3694,-6.934514,-0.223694,196.8, -27.5, 1.4,0,0,1684,1024,1024,1024,100,0,0,0,196.2,0,0,98,4.184,4.186,4.186,4.189,0,0,10.203,81.68,115.93163363107,55.446196,6,P-GPS,
9300,2023-07-10 17:54:25,52.2071774839282,0.0869207074186057,55.446196,56.5616816,59.369952031072,115.93163363107,59.711288,24.3379072,57.535762996,65.725723888,17,5,16.808,115.93163363107,55.446196,24.3379072,57.535762996,-23.264176,-7.158208,-0.223694,197.1, -26.4, 0.8,0,0,1684,1024,1024,1024,100,0,0,0,196.2,0,0,98,4.184,4.186,4.186,4.189,0,0,10.203,81.68,115.93163363107,55.446196,6,P-GPS,
9500,2023-07-10 17:54:25,52.2071584015948,0.0869125302095477,55.446196,56.5616816,59.369952031072,115.93163363107,60.367456,24.830034,64.733269788,72.923886848,18,5,16.808,115.93163363107,55.446196,24.830034,64.733269788,-23.711564,-7.381902,0,197, -26.2, 0.5,0,0,1071,1024,1050,1024,7,0,4,0,196.2,0,0,98,4.184,4.186,4.186,4.189,0,0,10.203,81.68,115.93163363107,55.446196,6,P-GPS,
9700,2023-07-10 17:54:25,52.2071390289302,0.0869044385984147,55.446196,56.5616816,59.369952031072,115.93163363107,60.69554,25.2550526,72.028873696,80.21981884,18,5,16.808,115.93163363107,55.446196,25.2550526,72.028873696,-24.158952,-7.381902,0,197, -15.6, 0,0,0,1024,1024,1036,1024,0,0,2,0,196.2,0,0,98,4.184,4.186,4.186,4.189,0,0,10.203,81.68,115.93163363107,55.446196,6,P-GPS,
9900,2023-07-10 17:54:25,52.2071197990411,0.0868966513750687,55.118112,56.2335976,59.369952031072,115.60354963107,62.33596,24.270799,79.257876552,87.448821696,19,5,16.808,115.93163363107,55.446196,25.2550526,79.257876552,-23.264176,-6.934514,-0.894776,197.4, 14.2, 0.6,0,0,1024,1024,1147,1024,0,0,19,0,196.2,0,0,98,4.184,4.186,4.186,4.189,0,0,10.203,81.68,115.60354963107,55.118112,6,P-GPS,
10100,2023-07-10 17:54:26,52.2071023118238,0.0868898743903723,54.790028,55.9055136,59.369952031072,115.27546563107,62.664044,21.2285606,85.814963376,94.006564688,19,5,16.748,115.93163363107,55.446196,25.2550526,85.814963376,-20.356154,-6.039738,-1.342164,197.4, 24.4, 1.2,0,0,1024,1024,1684,1024,0,0,100,0,196.2,0,0,98,4.183,4.198,4.204,4.202,0,0,11.923,81.68,115.27546563107,54.790028,6,P-GPS,
10300,2023-07-10 17:54:26,52.2070872968497,0.0868842673977612,54.790028,55.9055136,59.369952031072,115.27546563107,45.93176,17.7613036,91.434058044,99.626315524,19,5,16.748,115.93163363107,55.446196,25.2550526,91.434058044,-17.000744,-5.144962,-1.11847,198.2, 27.8, 3.3,0,0,1024,1024,1684,1024,0,0,100,0,196.2,0,0,98,4.183,4.198,4.204,4.202,0,0,11.923,81.68,115.27546563107,54.790028,6,P-GPS,
10500,2023-07-10 17:54:26,52.2070750978729,0.0868796778363739,54.790028,55.9055136,59.369952031072,115.27546563107,46.916012,13.5782258,96.000987324,104.193900972,19,5,16.748,115.93163363107,55.446196,25.2550526,96.000987324,-12.974252,-4.026492,-2.908022,198.2, 26.7, 2.9,0,0,1024,1024,1684,1024,0,0,100,0,196.2,0,0,98,4.183,4.198,4.204,4.202,0,0,11.923,81.68,115.27546563107,54.790028,6,P-GPS,
10700,2023-07-10 17:54:26,52.2070659732528,0.0868761376778672,55.77428,56.8897656,59.369952031072,116.25971763107,48.228348,9.842536,99.422903444,107.615817092,19,5,16.748,116.25971763107,55.77428,25.2550526,99.422903444,-9.395148,-2.908022,-4.921268,198.2, 25.1, 3.6,0,0,1024,1024,1684,1024,0,0,100,0,196.2,0,0,98,4.183,4.198,4.204,4.202,0,0,11.923,81.68,116.25971763107,55.77428,6,P-GPS,
10900,2023-07-10 17:54:26,52.2070597414064,0.0868735690551103,56.758532,57.8740176,59.369952031072,117.24396963107,57.742784,6.375279,101.768047876,109.960961524,18,5,16.748,117.24396963107,56.758532,25.2550526,101.768047876,-6.039738,-2.013246,-7.158208,197.4, 17, 1,0,0,1024,1024,1145,1024,0,0,18,0,196.2,0,0,98,4.183,4.198,4.204,4.202,0,0,11.923,81.68,117.24396963107,56.758532,6,P-GPS,
11100,2023-07-10 17:54:27,52.2070557680427,0.0868719061724744,57.4147,58.5301856,59.369952031072,117.90013763107,60.367456,4.250186,103.264439,111.457352648,18,5,16.85,117.90013763107,57.4147,25.2550526,103.264439,-4.026492,-1.342164,-8.276678,197, 10.6, 1.2,0,0,1024,1024,1024,1024,0,0,0,0,196.2,0,0,98,4.245,4.204,4.255,4.24,0,0,9.232,82.04,117.90013763107,57.4147,6,P-GPS,
11300,2023-07-10 17:54:27,52.2070529537588,0.0868704919753665,61.351708,62.4671936,59.369952031072,121.83714563107,62.664044,3.5119958,104.336945596,112.531827748,18,5,16.85,121.83714563107,61.351708,25.2550526,104.336945596,-3.131716,-1.565858,-6.039738,196.9, 5.8, -2,0,0,1024,1024,1024,1024,0,0,0,0,196.2,0,0,98,4.245,4.204,4.255,4.24,0,0,9.232,82.04,121.83714563107,61.351708,6,P-GPS,
11500,2023-07-10 17:54:27,52.2070507425651,0.0868693887085622,62.992128,64.1076136,59.369952031072,123.47756563107,63.648296,2.7066974,105.179465308,113.375331712,18,5,16.85,123.47756563107,62.992128,25.2550526,105.179465308,-2.460634,-1.11847,-3.802798,197, 5.7, -3,0,0,1024,1024,1024,1024,0,0,0,0,196.2,0,0,98,4.245,4.204,4.255,4.24,0,0,9.232,82.04,123.47756563107,62.992128,6,P-GPS,
11700,2023-07-10 17:54:27,52.2070491899406,0.0868685555791911,63.648296,64.7637816,59.369952031072,124.13373363107,63.648296,1.9908766,105.773953516,113.971788424,18,5,16.85,124.13373363107,63.648296,25.2550526,105.773953516,-1.789552,-0.894776,-1.565858,197, 4.7, -2.7,0,0,1024,1024,1024,1024,0,0,0,0,196.2,0,0,98,4.245,4.204,4.255,4.24,0,0,9.232,82.04,124.13373363107,63.648296,6,P-GPS,
11900,2023-07-10 17:54:27,52.2070481881485,0.0868680434035945,63.648296,64.7637816,59.369952031072,124.13373363107,62.992128,1.2079476,106.15649946,114.354662452,17,5,16.85,124.13373363107,63.648296,25.2550526,106.15649946,-1.11847,-0.447388,-0.223694,196.9, 3.4, -1.2,0,0,1024,1024,1024,1024,0,0,0,0,196.2,0,0,98,4.245,4.204,4.255,4.24,0,0,9.232,82.04,124.13373363107,63.648296,6,P-GPS,
12100,2023-07-10 17:54:28,52.2070476871753,0.0868679342707835,63.648296,64.7637816,59.369952031072,124.13373363107,62.664044,0.671082,106.339570332,114.53904566,18,5,16.727,124.13373363107,63.648296,25.2550526,106.339570332,-0.671082,0,0,197, 0.4, 0.2,0,0,1024,1024,1024,1024,0,0,0,0,196.2,0,0,98,4.161,4.182,4.251,4.254,0,0,9.883,81.86,124.13373363107,63.648296,6,P-GPS,
12300,2023-07-10 17:54:28,52.2070475797639,0.0868680101667716,63.320212,64.4356976,59.369952031072,123.80564963107,62.33596,0.223694,106.373691068,114.58169658,18,5,16.727,124.13373363107,63.648296,25.2550526,106.373691068,-0.223694,0,0,197.1, -3.1, 1.2,0,0,1024,1024,1024,1024,0,0,0,0,196.2,0,0,98,4.161,4.182,4.251,4.254,0,0,9.883,81.86,123.80564963107,63.320212,6,P-GPS,
12500,2023-07-10 17:54:28,52.2070475895644,0.0868680604029538,63.320212,64.4356976,59.369952031072,123.80564963107,61.679792,0,106.367457472,114.593507604,18,5,16.727,124.13373363107,63.648296,25.2550526,106.373691068,0,0,0,197.2, -4.8, 1.4,0,0,1024,1024,1024,1024,0,0,0,0,196.2,0,0,98,4.161,4.182,4.251,4.254,0,0,9.883,81.86,123.80564963107,63.320212,6,P-GPS,
12700,2023-07-10 17:54:28,52.2070476054645,0.0868679438329231,62.992128,64.1076136,59.369952031072,123.47756563107,61.351708,0,106.36811364,114.620410492,18,5,16.727,124.13373363107,63.648296,25.2550526,106.373691068,0,0,0,197.1, -5, 1.4,0,0,1024,1024,1024,1024,0,0,0,0,196.2,-0.1,0,98,4.161,4.182,4.251,4.254,0,0,9.883,81.86,123.47756563107,62.992128,6,P-GPS,
12900,2023-07-10 17:54:28,52.2070476606694,0.0868676418846001,62.992128,64.1076136,59.369952031072,123.47756563107,61.023624,0,106.3648328,114.690948552,18,5,16.727,124.13373363107,63.648296,25.2550526,106.373691068,0,0,0,197.2, -5.4, 1,0,0,1024,1024,1024,1024,0,0,0,0,196.2,-2,0,98,4.161,4.182,4.251,4.254,0,0,9.883,81.86,123.47756563107,62.992128,6,P-GPS,
13100,2023-07-10 17:54:29,52.2070477095691,0.0868671769535221,62.992128,64.1076136,59.369952031072,123.47756563107,60.69554,0,106.372706816,114.796263516,19,5,17.033,124.13373363107,63.648296,25.2550526,106.373691068,0,0,-0.223694,197.2, -5.5, 0,0,0,1024,1024,1024,1024,0,0,0,0,196.2,-4.7,0,98,4.244,4.24,4.246,4.243,0,0,4.831,82.22,123.47756563107,62.992128,6,P-GPS,
13300,2023-07-10 17:54:29,52.2070476939431,0.0868666444234295,62.992128,64.1076136,59.369952031072,123.47756563107,60.367456,0,106.406827552,114.915358008,19,5,17.033,124.13373363107,63.648296,25.2550526,106.406827552,0,0,-0.223694,197.2, -4.6, -0.6,0,0,1024,1024,1024,1024,0,0,0,0,196.2,-7.6,0,98,4.244,4.24,4.246,4.243,0,0,4.831,82.22,123.47756563107,62.992128,6,P-GPS,
13500,2023-07-10 17:54:29,52.2070476495667,0.0868662054457318,62.992128,64.1076136,59.369952031072,123.47756563107,60.367456,0,106.446525716,115.015095544,18,5,17.033,124.13373363107,63.648296,25.2550526,106.446525716,0,0,-0.223694,197, -4.3, 0.1,0,0,1024,1024,1024,1024,0,0,0,0,196.2,-10.5,0,98,4.244,4.24,4.246,4.243,0,0,4.831,82.22,123.47756563107,62.992128,6,P-GPS,
13700,2023-07-10 17:54:29,52.2070476486073,0.0868658311732433,62.992128,64.1076136,59.369952031072,123.47756563107,60.367456,0,106.467195008,115.098756964,18,5,17.033,124.13373363107,63.648296,25.2550526,106.467195008,0,0,-0.223694,197, -4.5, 0.4,0,0,1024,1024,1024,1024,0,0,0,0,196.2,-13.4,0,98,4.244,4.24,4.246,4.243,0,0,4.831,82.22,123.47756563107,62.992128,6,P-GPS,
13900,2023-07-10 17:54:29,52.2070476876722,0.0868655240873672,63.320212,64.4356976,59.369952031072,123.80564963107,60.69554,0,106.470475848,115.168638856,18,5,17.033,124.13373363107,63.648296,25.2550526,106.470475848,0,0,-0.223694,197.2, -4.7, 0.7,0,0,1024,1024,1024,1024,0,0,0,0,196.2,-16.3,0,98,4.244,4.24,4.246,4.243,0,0,4.831,82.22,123.80564963107,63.320212,6,P-GPS,
14100,2023-07-10 17:54:30,52.2070477578691,0.086865243297375,63.320212,64.4356976,59.369952031072,123.80564963107,61.023624,0,106.460961412,115.236552244,18,5,16.944,124.13373363107,63.648296,25.2550526,106.470475848,0,0,-0.223694,197.3, -5.1, 1,0,0,1024,1024,1024,1024,0,0,0,0,196.2,-19.2,0,98,4.235,4.238,4.237,4.234,0,0,6.781,82.22,123.80564963107,63.320212,6,P-GPS,
14300,2023-07-10 17:54:30,52.2070478387917,0.0868648957401625,63.320212,64.4356976,59.369952031072,123.80564963107,61.023624,0,106.451446976,115.319557496,19,5,16.944,124.13373363107,63.648296,25.2550526,106.470475848,0,0,-0.223694,197.4, -4.8, 0.7,0,0,1024,1024,1024,1024,0,0,0,0,196.2,-22.1,0,98,4.235,4.238,4.237,4.234,0,0,6.781,82.22,123.80564963107,63.320212,6,P-GPS,
14500,2023-07-10 17:54:30,52.2070479266192,0.0868645233549384,63.320212,64.4356976,59.369952031072,123.80564963107,61.023624,0,106.440948288,115.408796344,20,5,16.944,124.13373363107,63.648296,25.2550526,106.470475848,0,0,-0.223694,197.7, -4.6, 0.5,0,0,1024,1024,1024,1024,0,0,0,0,196.2,-25,0,98,4.235,4.238,4.237,4.234,0,0,6.781,82.22,123.80564963107,63.320212,6,P-GPS,
14700,2023-07-10 17:54:30,52.2070479951884,0.0868641779436154,63.320212,64.4356976,59.369952031072,123.80564963107,61.351708,0,106.435698944,115.490161176,19,5,16.944,124.13373363107,63.648296,25.2550526,106.470475848,0,0,0,197.6, -4.5, 0.6,0,0,1024,1024,1024,1024,0,0,0,0,196.2,-28,0,98,4.235,4.238,4.237,4.234,0,0,6.781,82.22,123.80564963107,63.320212,6,P-GPS,
14900,2023-07-10 17:54:30,52.2070480552421,0.0868638468894815,63.648296,64.7637816,59.369952031072,124.13373363107,61.351708,0,106.433074272,115.567260916,19,5,16.944,124.13373363107,63.648296,25.2550526,106.470475848,0,0,0,197.2, -4.5, 0.6,0,0,1024,1024,1024,1024,0,0,0,0,196.2,-30.9,0,98,4.235,4.238,4.237,4.234,0,0,6.781,82.22,124.13373363107,63.648296,6,P-GPS,
15100,2023-07-10 17:54:31,52.2070481133255,0.0868635266137242,63.648296,64.7637816,59.369952031072,124.13373363107,61.679792,0,106.4304496,115.642064068,20,5,16.938,124.13373363107,63.648296,25.2550526,106.470475848,0,0,0,197.1, -4.5, 0.7,0,0,1024,1024,1024,1387,0,0,0,55,196.2,-33.8,0,98,4.234,4.235,4.237,4.234,0,0,6.908,82.22,124.13373363107,63.648296,6,P-GPS,
15300,2023-07-10 17:54:31,52.2070481373984,0.0868632399033137,63.648296,64.7637816,59.369952031072,124.13373363107,61.679792,0,106.437667448,115.706696616,20,5,16.938,124.13373363107,63.648296,25.2550526,106.470475848,0,0,0,197.2, -3.6, 0.7,0,0,1024,1024,1024,1684,0,0,0,100,197.3,-36.7,0,98,4.234,4.235,4.237,4.234,0,0,6.908,82.22,124.13373363107,63.648296,6,P-GPS,
15500,2023-07-10 17:54:31,52.2070482676832,0.0868630525049494,63.648296,64.7637816,59.369952031072,124.13373363107,62.007876,0,106.402234376,115.770016828,20,5,16.938,124.13373363107,63.648296,25.2550526,106.470475848,0,0,0,199.2, -3.5, 0.7,0,0,1024,1024,1024,1684,0,0,0,100,207.3,-39.6,0,98,4.234,4.235,4.237,4.234,0,0,6.908,82.22,124.13373363107,63.648296,6,P-GPS,
15700,2023-07-10 17:54:31,52.2070485459008,0.0868630072106039,63.648296,64.7637816,59.369952031072,124.13373363107,62.007876,0,106.306433848,115.872050952,20,5,16.938,124.13373363107,63.648296,25.2550526,106.470475848,0,0,0,211.1, -3.7, 0.8,0,0,1024,1024,1024,1680,0,0,0,99,219.3,-42.5,0,98,4.234,4.235,4.237,4.234,0,0,6.908,82.22,124.13373363107,63.648296,6,P-GPS,
15900,2023-07-10 17:54:31,52.2070489481151,0.0868629655929292,63.648296,64.7637816,59.369952031072,124.13373363107,62.33596,0,106.166670064,116.019032584,21,5,16.938,124.13373363107,63.648296,25.2550526,106.470475848,0,0,0,223.3, -3.9, -0.3,0,0,1024,1024,1024,1655,0,0,0,96,231.1,-45.5,0,98,4.234,4.235,4.237,4.234,0,0,6.908,82.22,124.13373363107,63.648296,6,P-GPS,
16100,2023-07-10 17:54:31,52.2070494363922,0.0868628660851666,63.648296,64.7637816,59.369952031072,124.13373363107,62.33596,0,106.000003392,116.198494532,21,5,16.945,124.13373363107,63.648296,25.2550526,106.470475848,0,0,0,235, -3.7, -1.4,0,0,1024,1024,1024,1668,0,0,0,98,242.3,-48.4,0,98,4.234,4.237,4.237,4.236,0,0,6.699,82.22,124.13373363107,63.648296,6,P-GPS,
16300,2023-07-10 17:54:32,52.2070499924674,0.0868627108681551,63.648296,64.7637816,59.369952031072,124.13373363107,62.33596,0.223694,105.812339344,116.404531284,21,5,16.945,124.13373363107,63.648296,25.2550526,106.470475848,0.223694,0,0,246.2, -3, -3,0,0,1024,1024,1024,1650,0,0,0,95,253.8,-51.3,0,98,4.234,4.237,4.237,4.236,0,0,6.699,82.22,124.13373363107,63.648296,6,P-GPS,
16500,2023-07-10 17:54:32,52.2070505964657,0.0868625638852083,63.97638,65.0918656,59.369952031072,124.46181763107,62.33596,0.223694,105.607614928,116.62730032,21,5,16.945,124.46181763107,63.97638,25.2550526,106.470475848,0.223694,0,0,257.8, -1.3, -4.6,0,0,1024,1024,1057,1542,0,0,5,78,264.8,-54.2,0,98,4.234,4.237,4.237,4.236,0,0,6.699,82.22,124.46181763107,63.97638,6,P-GPS,
16700,2023-07-10 17:54:32,52.2070512400772,0.0868625204361881,63.97638,65.0918656,59.369952031072,124.46181763107,62.33596,0.223694,105.382877388,116.862208464,21,5,16.945,124.46181763107,63.97638,25.2550526,106.470475848,0.223694,0,0,268.4, -0.4, -5.7,0,0,1024,1024,1047,1225,0,0,3,30,273.3,-57.1,0,98,4.234,4.237,4.237,4.236,0,0,6.699,82.22,124.46181763107,63.97638,6,P-GPS,
16900,2023-07-10 17:54:32,52.2070518958879,0.0868626293103739,64.304464,65.4199496,59.369952031072,124.78990163107,62.007876,0.223694,105.145344572,117.102694036,21,5,16.945,124.78990163107,64.304464,25.2550526,106.470475848,0.223694,0,0,276.3, -0.6, -7.2,0,0,1024,1024,1024,1024,0,0,0,0,277.5,-60,0,98,4.234,4.237,4.237,4.236,0,0,6.699,82.22,124.78990163107,64.304464,6,P-GPS,
17100,2023-07-10 17:54:32,52.2070524648649,0.0868628022117517,64.632548,65.7480336,59.369952031072,125.11798563107,62.33596,0,104.934714644,117.313980132,21,5,16.951,125.11798563107,64.632548,25.2550526,106.470475848,0,0,0,279.1, -0.3, -8.7,0,0,1024,1024,1024,1024,0,0,0,0,277.8,-63,0,98,4.237,4.238,4.24,4.237,0,0,6.55,82.4,125.11798563107,64.632548,6,P-GPS,
17300,2023-07-10 17:54:33,52.207052887554,0.086862967242538,64.960632,66.0761176,59.369952031072,125.44606963107,62.664044,0,104.776250072,117.472444704,20,5,16.951,125.44606963107,64.960632,25.2550526,106.470475848,0,0,0,278.7, 0.1, -8.6,0,0,1024,1024,1024,1557,0,0,0,81,277.9,-65.9,0,98,4.237,4.238,4.24,4.237,0,0,6.55,82.4,125.44606963107,64.960632,6,P-GPS,
17500,2023-07-10 17:54:33,52.2070531669195,0.0868631613232163,64.960632,66.0761176,59.369952031072,125.44606963107,62.664044,0,104.666670016,117.583337096,20,5,16.951,125.44606963107,64.960632,25.2550526,106.470475848,0,0,0,279.2, 0, -7.3,0,0,1024,1024,1024,1024,0,0,0,0,281.2,-68.8,0,98,4.237,4.238,4.24,4.237,0,0,6.55,82.4,125.44606963107,64.960632,6,P-GPS,
17700,2023-07-10 17:54:33,52.2070534073914,0.0868634293706789,65.288716,66.4042016,59.369952031072,125.77415363107,62.664044,0.223694,104.566604396,117.689636312,20,5,16.951,125.77415363107,65.288716,25.2550526,106.470475848,-0.223694,0,0,283, -0.8, -6.2,0,0,1024,1024,1024,1024,0,0,0,0,281.5,-71.7,0,98,4.237,4.238,4.24,4.237,0,0,6.55,82.4,125.77415363107,65.288716,6,P-GPS,
17900,2023-07-10 17:54:33,52.2070536645002,0.0868636704512304,65.288716,66.4042016,59.369952031072,125.77415363107,62.992128,0.223694,104.4619456,117.797575948,20,5,16.951,125.77415363107,65.288716,25.2550526,106.470475848,-0.223694,0,0,282.7, -1, -6.4,0,0,1024,1024,1024,1024,0,0,0,0,281.5,-74.6,0,98,4.237,4.238,4.24,4.237,0,0,6.55,82.4,125.77415363107,65.288716,6,P-GPS,
18100,2023-07-10 17:54:34,52.2070539331742,0.086863781030944,65.288716,66.4042016,59.369952031072,125.77415363107,62.992128,0.223694,104.360895728,117.898953904,20,5,16.908,125.77415363107,65.288716,25.2550526,106.470475848,-0.223694,0,0.223694,282.6, -0.8, -5.7,0,0,1024,1024,1024,1534,0,0,0,77,281.5,-77.5,0,97,4.23,4.229,4.232,4.229,0,0,6.798,82.4,125.77415363107,65.288716,6,P-GPS,
18300,2023-07-10 17:54:34,52.207054226281,0.0868638068235574,65.6168,66.7322856,59.369952031072,126.10223763107,62.992128,0.223694,104.255908848,118.005909288,20,5,16.908,126.10223763107,65.6168,25.2550526,106.470475848,-0.223694,0,0.223694,282.6, -0.3, -5,0,0,1024,1024,1024,1024,0,0,0,0,283.6,-80.4,0,97,4.23,4.229,4.232,4.229,0,0,6.798,82.4,126.10223763107,65.6168,6,P-GPS,
18500,2023-07-10 17:54:34,52.2070546204596,0.0868638225926999,65.6168,66.7322856,59.369952031072,126.10223763107,62.992128,0,104.116145064,118.14961008,21,5,16.908,126.10223763107,65.6168,25.2550526,106.470475848,0,0,0.223694,285.6, 0.2, -4.9,0,0,1024,1024,1024,1024,0,0,0,0,288,-83.3,0,97,4.23,4.229,4.232,4.229,0,0,6.798,82.4,126.10223763107,65.6168,6,P-GPS,
18700,2023-07-10 17:54:34,52.2070551415135,0.0868638825937278,65.6168,66.7322856,59.369952031072,126.10223763107,62.664044,0,103.9288091,118.340226884,21,5,16.908,126.10223763107,65.6168,25.2550526,106.470475848,0,0,0.671082,289.6, 0, -7,0,0,1024,1024,1024,1024,0,0,0,0,288.1,-86.3,0,97,4.23,4.229,4.232,4.229,0,0,6.798,82.4,126.10223763107,65.6168,6,P-GPS,
18900,2023-07-10 17:54:34,52.2070556547202,0.0868639141040533,65.288716,66.4042016,59.369952031072,125.77415363107,62.33596,0,103.746066312,118.527562848,21,5,16.908,126.10223763107,65.6168,25.2550526,106.470475848,0,0,0.671082,289, 0.7, -6.5,0,0,1024,1024,1024,1024,0,0,0,0,288.1,-89.2,0,97,4.23,4.229,4.232,4.229,0,0,6.798,82.4,125.77415363107,65.288716,6,P-GPS,
19100,2023-07-10 17:54:35,52.2070561347216,0.0868639683034907,64.960632,66.0761176,59.369952031072,125.44606963107,61.679792,0.223694,103.573494128,118.703415872,21,5,16.934,126.10223763107,65.6168,25.2550526,106.470475848,-0.223694,0,1.11847,288.8, 1.4, -5.7,0,0,1024,1024,1024,1024,0,0,0,0,288.1,-89.9,0,97,4.231,4.232,4.235,4.233,0,0,6.818,82.4,125.44606963107,64.960632,6,P-GPS,
19300,2023-07-10 17:54:35,52.2070565623967,0.0868641514520152,64.632548,65.7480336,59.369952031072,125.11798563107,61.351708,0.223694,103.4120768,118.864505116,21,5,16.934,126.10223763107,65.6168,25.2550526,106.470475848,-0.223694,0,0.671082,289, -0.4, -3.9,0,0,1024,1024,1024,1024,0,0,0,0,288.1,-89.9,0,97,4.231,4.232,4.235,4.233,0,0,6.818,82.4,125.11798563107,64.632548,6,P-GPS,
19500,2023-07-10 17:54:35,52.2070570863462,0.0868643858991818,64.304464,65.4199496,59.369952031072,124.78990163107,61.023624,0,103.213914064,119.062667852,20,5,16.934,126.10223763107,65.6168,25.2550526,106.470475848,0,0,0.447388,289.1, -0.9, -4.4,0,0,1024,1024,1024,1024,0,0,0,0,288.1,-90,0,97,4.231,4.232,4.235,4.233,0,0,6.818,82.4,124.78990163107,64.304464,6,P-GPS,
19700,2023-07-10 17:54:35,52.2070576986715,0.0868645103817431,64.304464,65.4199496,59.369952031072,124.78990163107,60.69554,0,102.990816944,119.28806156,20,5,16.934,126.10223763107,65.6168,25.2550526,106.470475848,0,0,0.223694,288.8, 0.1, -4.2,0,0,1024,1024,1024,1024,0,0,0,0,288.1,-89.9,0,97,4.231,4.232,4.235,4.233,0,0,6.818,82.4,124.78990163107,64.304464,6,P-GPS,
19900,2023-07-10 17:54:35,52.2070584243193,0.0868645697676627,63.97638,65.0918656,59.369952031072,124.46181763107,60.367456,0,102.731630584,119.553153432,20,5,16.934,126.10223763107,65.6168,25.2550526,106.470475848,0,0,0,288.7, 1.2, -4,0,0,1024,1024,1024,1024,0,0,0,0,288.1,-89.9,0,97,4.231,4.232,4.235,4.233,0,0,6.818,82.4,124.46181763107,63.97638,6,P-GPS,
20100,2023-07-10 17:54:36,52.2070592205752,0.0868647389714003,63.97638,65.0918656,59.369952031072,124.46181763107,60.367456,0,102.44094816,119.846132444,20,5,16.937,126.10223763107,65.6168,25.2550526,106.470475848,0,0,0,288.9, 0.6, -3.8,0,0,1024,1024,1024,1024,0,0,0,0,288.1,-89.9,0,97,4.231,4.229,4.224,4.217,0,0,6.442,82.4,124.46181763107,63.97638,6,P-GPS,
20300,2023-07-10 17:54:36,52.2070600361237,0.0868649769204908,63.97638,65.0918656,59.369952031072,124.46181763107,60.367456,0,102.139767048,120.148297808,20,5,16.937,126.10223763107,65.6168,25.2550526,106.470475848,0,0,0,288.9, 0.5, -3.4,0,0,1024,1024,1563,1024,0,0,82,0,288.1,-90,0,97,4.231,4.229,4.224,4.217,0,0,6.442,82.4,124.46181763107,63.97638,6,P-GPS,
20500,2023-07-10 17:54:36,52.2070609037244,0.0868652480365056,63.97638,65.0918656,59.369952031072,124.46181763107,60.039372,0,101.818244728,120.470476296,20,5,16.937,126.10223763107,65.6168,25.2550526,106.470475848,0,0,-0.223694,288.8, 0.7, -3.7,0,0,1024,1024,1684,1024,0,0,100,0,288.1,-89.9,0,97,4.231,4.229,4.224,4.217,0,0,6.442,82.4,124.46181763107,63.97638,6,P-GPS,
20700,2023-07-10 17:54:36,52.207061779241,0.0868655086467486,64.632548,65.7480336,59.369952031072,125.11798563107,60.367456,0,101.494753904,120.795279456,20,5,16.937,126.10223763107,65.6168,25.2550526,106.470475848,0,0,-2.013246,288.9, 0.8, -2.9,0,0,1024,1024,1684,1024,0,0,100,0,288.1,-90,0,97,4.231,4.229,4.224,4.217,0,0,6.442,82.4,125.11798563107,64.632548,6,P-GPS,
20900,2023-07-10 17:54:36,52.207062632912,0.0868657955948146,65.6168,66.7322856,59.369952031072,126.10223763107,61.351708,0,101.177168592,121.113192852,21,5,16.937,126.10223763107,65.6168,25.2550526,106.470475848,0,0,-4.47388,288.8, 1.6, -3.5,0,0,1024,1024,1684,1024,0,0,100,0,288.1,-89.9,0,97,4.231,4.229,4.224,4.217,0,0,6.442,82.4,126.10223763107,65.6168,6,P-GPS,
21100,2023-07-10 17:54:37,52.2070633771841,0.0868661806037405,67.25722,68.3727056,59.369952031072,127.74265763107,63.320212,0,100.892719764,121.397969764,21,5,16.886,127.74265763107,67.25722,25.2550526,106.470475848,0,0,-6.934514,288.8, 0.2, -3,0,0,1024,1024,1684,1024,0,0,100,0,288.1,-89.9,0,97,4.222,4.223,4.225,4.223,0,0,7.928,82.4,127.74265763107,67.25722,6,P-GPS,
21300,2023-07-10 17:54:37,52.2070640305276,0.0868666080062166,69.553808,70.6692936,59.369952031072,130.03924563107,65.6168,0,100.637798496,121.654859536,21,5,16.886,130.03924563107,69.553808,25.2550526,106.470475848,0,0,-9.171454,288.9, -1.1, -1.7,0,0,1024,1024,1684,1024,0,0,100,0,288.1,-89.9,0,97,4.222,4.223,4.225,4.223,0,0,7.928,82.4,130.03924563107,69.553808,6,P-GPS,
21500,2023-07-10 17:54:37,52.2070647118675,0.0868669891567353,72.834648,73.9501336,59.369952031072,133.32008563107,68.89764,0,100.37565938,121.91765482,21,5,16.886,133.32008563107,72.834648,25.2550526,106.470475848,0,0,-11.632088,288.9, -1.2, -1.3,0,0,1024,1024,1684,1024,0,0,100,0,288.1,-90,0,97,4.222,4.223,4.225,4.223,0,0,7.928,82.4,133.32008563107,72.834648,6,P-GPS,
21700,2023-07-10 17:54:37,52.2070654828512,0.0868672775447142,77.427824,78.5433096,59.369952031072,137.91326163107,72.834648,0,100.087273544,122.20636874,21,5,16.886,137.91326163107,77.427824,25.2550526,106.470475848,0,0,-12.974252,288.9, -1.2, -2,0,0,1024,1024,1684,1024,0,0,100,0,288.1,-89.9,0,97,4.222,4.223,4.225,4.223,0,0,7.928,82.4,137.91326163107,77.427824,6,P-GPS,
21900,2023-07-10 17:54:37,52.2070662586837,0.086867564982071,81.364832,82.4803176,59.369952031072,141.85026963107,76.771656,0.223694,99.796919204,122.49672308,19,5,16.886,141.85026963107,81.364832,25.2550526,106.470475848,0.223694,0,-13.42164,288.8, -0.9, -2.5,0,0,1024,1024,1684,1024,0,0,100,0,288.1,-90,0,97,4.222,4.223,4.225,4.223,0,0,7.928,82.4,141.85026963107,81.364832,6,P-GPS,
22100,2023-07-10 17:54:38,52.2070670069308,0.0868679090792988,85.30184,86.4173256,59.369952031072,145.78727763107,80.708664,0.223694,99.513454628,122.780187656,19,5,16.64,145.78727763107,85.30184,25.2550526,106.470475848,0.223694,0,-13.42164,289.1, -1.4, -4.6,0,0,1024,1024,1684,1024,0,0,100,0,288.1,-90,0,97,4.143,4.147,4.15,4.142,0,0,10.548,82.22,145.78727763107,85.30184,6,P-GPS,
22300,2023-07-10 17:54:38,52.2070676813831,0.086868284162612,89.566932,90.6824176,59.369952031072,150.05236963107,83.66142,0,99.254268268,123.040030184,19,5,16.64,150.05236963107,89.566932,25.2550526,106.470475848,0,0,-13.197946,288.7, -1.2, -2.6,0,0,1024,1024,1675,1024,0,0,99,0,288.1,-89.9,0,97,4.143,4.147,4.15,4.142,0,0,10.548,82.22,150.05236963107,89.566932,6,P-GPS,
22500,2023-07-10 17:54:38,52.2070682855527,0.0868686632650994,93.175856,94.2913416,59.369952031072,153.66129363107,83.66142,0,99.019360124,123.276250664,20,5,16.64,153.66129363107,93.175856,25.2550526,106.470475848,0,0,-13.197946,288.8, -1.2, -1.9,0,0,1024,1024,1024,1024,0,0,0,0,288.1,-90,0,97,4.143,4.147,4.15,4.142,0,0,10.548,82.22,153.66129363107,93.175856,6,P-GPS,
22700,2023-07-10 17:54:38,52.20706894503,0.0868690716481443,96.456696,97.5721816,59.369952031072,156.94213363107,83.66142,0.223694,98.763454604,123.533796604,20,5,16.64,156.94213363107,96.456696,25.2550526,106.470475848,0.223694,0,-12.30317,288.9, -2.3, -2.9,0,0,1024,1024,1024,1024,0,0,0,0,288.1,-89.9,0,97,4.143,4.147,4.15,4.142,0,0,10.548,82.22,156.94213363107,96.456696,6,P-GPS,
22900,2023-07-10 17:54:38,52.2070696682105,0.0868694978623427,99.409452,100.5249376,59.369952031072,159.89488963107,83.66142,0.223694,98.483927036,123.814308424,20,5,16.64,159.89488963107,99.409452,25.2550526,106.470475848,0.223694,0,-10.289924,288.9, -3.8, -3.3,0,0,1024,1024,1024,1024,0,0,0,0,288.1,-89.9,0,97,4.143,4.147,4.15,4.142,0,0,10.548,82.22,159.89488963107,99.409452,6,P-GPS,
23100,2023-07-10 17:54:38,52.2070704594462,0.0868698392405119,101.049872,102.1653576,59.369952031072,161.53530963107,83.66142,0.223694,98.185370596,124.112864864,21,5,16.66,161.53530963107,101.049872,25.2550526,106.470475848,0.223694,0,-7.82929,288.9, -4, -4.1,0,0,1024,1024,1684,1024,0,0,100,0,288.1,-90,0,97,4.178,4.184,4.184,4.172,0,0,13.899,82.58,161.53530963107,101.049872,6,P-GPS,
23300,2023-07-10 17:54:39,52.2070713150877,0.0868701164447018,102.690292,103.8057776,59.369952031072,163.17572963107,83.66142,0.223694,97.867785284,124.431106344,21,5,16.66,163.17572963107,102.690292,25.2550526,106.470475848,0.223694,0,-6.487126,289.1, -3.1, -5.1,0,0,1024,1024,1684,1024,0,0,100,0,288.1,-89.9,0,97,4.178,4.184,4.184,4.172,0,0,13.899,82.58,163.17572963107,102.690292,6,P-GPS,
23500,2023-07-10 17:54:39,52.207072122926,0.0868701934171295,104.330712,105.4461976,59.369952031072,164.81614963107,83.66142,0.223694,97.578415196,124.726381944,21,5,16.66,164.81614963107,104.330712,25.2550526,106.470475848,0.223694,0,-8.500372,289.3, -0.8, -5.6,0,0,1024,1024,1684,1024,0,0,100,0,288.1,-90,0,97,4.178,4.184,4.184,4.172,0,0,13.899,82.58,164.81614963107,104.330712,6,P-GPS,
23700,2023-07-10 17:54:39,52.2070727081285,0.0868701529667627,106.955384,108.0708696,59.369952031072,167.44082163107,83.66142,0,97.374346948,124.939964628,21,5,16.66,167.44082163107,106.955384,25.2550526,106.470475848,0,0,-10.737312,289, 0, -6.7,0,0,1024,1024,1684,1024,0,0,100,0,288.1,-89.9,0,97,4.178,4.184,4.184,4.172,0,0,13.899,82.58,167.44082163107,106.955384,6,P-GPS,
23900,2023-07-10 17:54:39,52.2070729640208,0.0868701439218733,110.236224,111.3517096,59.369952031072,170.72166163107,83.66142,0,97.284780016,125.033468568,20,5,16.66,170.72166163107,110.236224,25.2550526,106.470475848,0,0,-12.526864,289.3, -1.3, -6.7,0,0,1024,1024,1684,1024,0,0,100,0,288.1,-90,0,97,4.178,4.184,4.184,4.172,0,0,13.899,82.58,170.72166163107,110.236224,6,P-GPS,
24100,2023-07-10 17:54:39,52.2070730267817,0.0868700187682847,114.501316,115.6168016,59.369952031072,174.98675363107,83.66142,0.223694,97.269688152,125.069557808,20,5,16.917,174.98675363107,114.501316,25.2550526,106.470475848,-0.223694,0,-12.974252,288.8, -1.2, -5,0,0,1024,1024,1669,1024,0,0,98,0,288.1,-90,0,97,4.144,4.156,4.163,4.165,0,0,8.34,82.76,174.98675363107,114.501316,6,P-GPS,
24300,2023-07-10 17:54:40,52.2070731578547,0.0868697589758562,118.438324,119.5538096,59.369952031072,178.92376163107,83.66142,0.223694,97.238520172,125.144689044,20,5,16.917,178.92376163107,118.438324,25.2550526,106.470475848,-0.223694,0,-13.197946,288.6, -0.3, -2.9,0,0,1024,1024,1024,1024,0,0,0,0,288.1,-90,0,97,4.144,4.156,4.163,4.165,0,0,8.34,82.76,178.92376163107,118.438324,6,P-GPS,
24500,2023-07-10 17:54:40,52.2070736239094,0.0868695352581372,122.375332,123.4908176,59.369952031072,182.86076963107,83.66142,0,97.087273448,125.322182488,19,5,16.917,182.86076963107,122.375332,25.2550526,106.470475848,0,0,-12.526864,288.8, 0.4, -6.4,0,0,1024,1024,1024,1024,0,0,0,0,288.1,-90,0,97,4.144,4.156,4.163,4.165,0,0,8.34,82.76,182.86076963107,122.375332,6,P-GPS,
24700,2023-07-10 17:54:40,52.2070743461133,0.086869406420888,125.656172,126.7716576,59.369952031072,186.14160963107,83.66142,0,96.840226196,125.58727436,20,5,16.917,186.14160963107,125.656172,25.2550526,106.470475848,0,0,-10.513618,288.7, 0.8, -9.7,0,0,1024,1024,1024,1024,0,0,0,0,288.1,-89.9,0,97,4.144,4.156,4.163,4.165,0,0,8.34,82.76,186.14160963107,125.656172,6,P-GPS,
24900,2023-07-10 17:54:40,52.2070749705864,0.0868694600261866,127.95276,129.0682456,59.369952031072,188.43819763107,83.66142,0.223694,96.617129076,125.81529274,19,5,16.917,188.43819763107,127.95276,25.2550526,106.470475848,0,0.223694,-8.276678,289, -2.7, -7.2,0,0,1024,1024,1024,1024,0,0,0,0,288.1,-90,0,97,4.144,4.156,4.163,4.165,0,0,8.34,82.76,188.43819763107,127.95276,6,P-GPS,
25100,2023-07-10 17:54:40,52.2070755235433,0.0868696236659892,129.59318,130.7086656,59.369952031072,190.07861763107,83.66142,0.223694,96.413060828,126.02034524,21,5,16.578,190.07861763107,129.59318,25.2550526,106.470475848,0,0.223694,-5.816044,289.1, -4.1, -6.9,0,0,1024,1024,1024,1024,0,0,0,0,288.1,-90,0,97,4.174,4.18,4.183,4.178,0,0,12.261,82.58,190.07861763107,129.59318,6,P-GPS,
25300,2023-07-10 17:54:41,52.2070760668539,0.0868698666827341,130.905516,132.0210016,59.369952031072,191.39095363107,83.66142,0.223694,96.20735216,126.225725824,21,5,16.578,191.39095363107,130.905516,25.2550526,106.470475848,0,0.223694,-3.131716,289.2, -4.5, -8.1,0,0,1024,1024,1024,1024,0,0,0,0,288.1,-89.9,0,97,4.174,4.18,4.183,4.178,0,0,12.261,82.58,191.39095363107,130.905516,6,P-GPS,
25500,2023-07-10 17:54:41,52.2070765332169,0.0868701593275427,131.2336,132.3490856,59.369952031072,191.71903763107,83.66142,0.223694,96.026249792,126.408140528,21,5,16.578,191.71903763107,131.2336,25.2550526,106.470475848,0,0.223694,-0.894776,289.4, -4.8, -10.2,0,0,1024,707,1024,1024,0,-48,0,0,288.1,-89.9,0,97,4.174,4.18,4.183,4.178,0,0,12.261,82.58,191.71903763107,131.2336,6,P-GPS,
25700,2023-07-10 17:54:41,52.2070768370323,0.0868702869974839,131.561684,132.6771696,59.369952031072,192.04712163107,83.66142,0,95.911748476,126.522641844,21,5,16.578,192.04712163107,131.561684,25.2550526,106.470475848,0,0,0,289.6, -2.9, -9.9,0,0,1186,414,1024,1024,25,-92,0,0,288.1,-89.9,0,97,4.174,4.18,4.183,4.178,0,0,12.261,82.58,192.04712163107,131.561684,6,P-GPS,
25900,2023-07-10 17:54:41,52.2070769818637,0.0868702441286227,131.561684,132.6771696,59.369952031072,192.04712163107,83.66142,0.223694,95.863192044,126.57644762,20,5,16.578,192.04712163107,131.561684,25.2550526,106.470475848,0.223694,0,0,289.2, 0.6, -16.3,0,0,1297,398,1024,1024,41,-95,0,0,288.1,-90,0,97,4.174,4.18,4.183,4.178,0,0,12.261,82.58,192.04712163107,131.561684,6,P-GPS,
26100,2023-07-10 17:54:42,52.2070765532805,0.0868701893000972,131.561684,132.6771696,59.369952031072,192.04712163107,83.66142,0.671082,96.017391524,126.733271772,20,5,16.957,192.04712163107,131.561684,25.2550526,106.470475848,-0.671082,0,0,289.5, -1.3, -28.6,0,0,1351,397,1024,1024,50,-95,0,0,288.1,-89.9,0,97,4.253,4.256,4.257,4.255,0,0,7.438,82.94,192.04712163107,131.561684,6,P-GPS,
26300,2023-07-10 17:54:42,52.20707478412,0.0868696313688238,131.889768,133.0052536,59.369952031072,192.37520563107,83.66142,2.5501116,96.672903356,127.390752108,20,5,16.957,192.37520563107,131.889768,25.2550526,106.470475848,-2.460634,-0.671082,0,290.3, -5.4, -29.5,0,0,1285,387,1024,1024,40,-97,0,0,288.1,-90,0,97,4.253,4.256,4.257,4.255,0,0,7.438,82.94,192.37520563107,131.889768,6,P-GPS,
26500,2023-07-10 17:54:42,52.2070715806605,0.0868680956738283,131.889768,133.0052536,59.369952031072,192.37520563107,83.66142,4.3172942,97.890751164,128.608928,20,5,16.957,192.37520563107,131.889768,25.2550526,106.470475848,-4.026492,-1.565858,0,291, -8, -29.8,0,0,1285,377,1024,1024,40,-98,0,0,288.1,-90,0,97,4.253,4.256,4.257,4.255,0,0,7.438,82.94,192.37520563107,131.889768,6,P-GPS,
26700,2023-07-10 17:54:42,52.2070671347314,0.0868654657499279,132.217852,133.3333376,59.369952031072,192.70328963107,83.66142,5.9055216,99.610239408,130.333993672,20,5,16.957,192.70328963107,132.217852,25.2550526,106.470475848,-5.368656,-2.460634,0,290.8, -8.2, -28.7,0,0,1284,373,1024,1024,39,-99,0,0,288.1,-89.9,0,97,4.253,4.256,4.257,4.255,0,0,7.438,82.94,192.70328963107,132.217852,6,P-GPS,
26900,2023-07-10 17:54:42,52.2070615177974,0.0868617480977,132.545936,133.6614216,59.369952031072,193.03137363107,83.66142,7.2029468,101.80610562,132.545607916,20,5,16.957,193.03137363107,132.545936,25.2550526,106.470475848,-6.487126,-3.131716,0,290.2, -7, -29.8,0,0,1334,376,1024,1024,47,-98,0,0,288.1,-89.9,0,97,4.253,4.256,4.257,4.255,0,0,7.438,82.94,193.03137363107,132.545936,6,P-GPS,
27100,2023-07-10 17:54:43,52.207054925303,0.0868571690211149,132.87402,133.9895056,59.369952031072,193.35945763107,83.66142,8.500372,104.397313052,135.159781228,20,5,16.91,193.35945763107,132.87402,25.2550526,106.470475848,-7.605596,-3.802798,0.223694,291, -8.5, -29.4,0,0,1434,403,1024,1024,62,-94,0,0,288.1,-89.9,0,97,4.186,4.194,4.198,4.198,0,0,5.866,82.94,193.35945763107,132.87402,6,P-GPS,
27300,2023-07-10 17:54:43,52.2070474984986,0.086851581208702,133.202104,134.3175896,59.369952031072,193.68754163107,83.66142,9.7083196,107.343507372,138.143705208,21,5,16.91,193.68754163107,133.202104,25.2550526,107.343507372,-8.500372,-4.697574,0.223694,292.2, -13.5, -27.3,0,0,1468,429,1024,1024,67,-90,0,0,288.1,-89.9,0,97,4.186,4.194,4.198,4.198,0,0,5.866,82.94,193.68754163107,133.202104,6,P-GPS,
27500,2023-07-10 17:54:43,52.207039728026,0.0868448337352287,133.858272,134.9737576,59.369952031072,194.34370963107,83.66142,10.5583568,110.484255504,141.3549914,21,5,16.91,194.34370963107,133.858272,25.2550526,110.484255504,-8.94776,-5.59235,0.447388,292.5, -18.4, -25,0,0,1442,444,1024,1024,63,-88,0,0,288.1,-89.9,0,97,4.186,4.194,4.198,4.198,0,0,5.866,82.94,194.34370963107,133.858272,6,P-GPS,
27700,2023-07-10 17:54:43,52.2070320017069,0.0868367290111031,134.186356,135.3018416,59.369952031072,194.67179363107,83.66142,11.3189164,113.700134872,144.706041376,20,5,16.91,194.67179363107,134.186356,25.2550526,113.700134872,-8.94776,-6.934514,0.447388,292.5, -17.7, -24,0,0,1355,446,1024,1024,50,-88,0,0,288.1,-89.9,0,97,4.186,4.194,4.198,4.198,0,0,5.866,82.94,194.67179363107,134.186356,6,P-GPS,
27900,2023-07-10 17:54:43,52.2070242629145,0.0868270682025367,134.51444,135.6299256,59.369952031072,194.99987763107,83.66142,12.3702782,117.030515556,148.2611596,20,5,16.91,194.99987763107,134.51444,25.2550526,117.030515556,-9.395148,-8.052984,0,291.7, -12.9, -26.4,0,0,1267,431,1024,1024,37,-90,0,0,288.1,-89.9,0,97,4.186,4.194,4.198,4.198,0,0,5.866,82.94,194.99987763107,134.51444,6,P-GPS,
28100,2023-07-10 17:54:44,52.2070161986839,0.0868163459265773,134.842524,135.9580096,59.369952031072,195.32796163107,83.66142,13.1755766,120.559715144,152.056435312,20,5,16.768,195.32796163107,134.842524,25.2550526,120.559715144,-10.06623,-8.500372,0,290, -3, -29.7,0,0,1134,390,1024,1024,17,-96,0,0,288.1,-89.9,0,97,4.173,4.179,4.184,4.178,0,0,9.484,82.94,195.32796163107,134.842524,6,P-GPS,
28300,2023-07-10 17:54:44,52.2070075106485,0.086805631171716,135.170608,136.2860936,59.369952031072,195.65604563107,83.66142,13.7348116,124.319557784,156.029532552,20,5,16.768,195.65604563107,135.170608,25.2550526,124.319557784,-10.961006,-8.276678,0,287, 7.8, -29.2,0,0,1088,364,1024,1024,10,-100,0,0,288.1,-89.9,0,97,4.173,4.179,4.184,4.178,0,0,9.484,82.94,195.65604563107,135.170608,6,P-GPS,
28500,2023-07-10 17:54:44,52.2069981355848,0.0867959514905056,135.498692,136.6141776,59.369952031072,195.98412963107,83.66142,13.8466586,128.254269196,160.07710486,20,5,16.768,195.98412963107,135.498692,25.2550526,128.254269196,-11.855782,-7.158208,0.447388,286.3, 10, -28.9,0,0,1067,364,1024,1024,7,-100,0,0,288.1,-89.9,0,97,4.173,4.179,4.184,4.178,0,0,9.484,82.94,195.98412963107,135.498692,6,P-GPS,
28700,2023-07-10 17:54:44,52.2069880433373,0.0867877114145738,135.498692,136.6141776,59.369952031072,195.98412963107,83.66142,14.316416,132.336290324,164.19455906,20,5,16.768,195.98412963107,135.498692,25.2550526,132.336290324,-12.974252,-6.039738,0.447388,286.8, 8.5, -28.8,0,0,1041,372,1024,1024,3,-99,0,0,288.1,-89.9,0,97,4.173,4.179,4.184,4.178,0,0,9.484,82.94,195.98412963107,135.498692,6,P-GPS,
28900,2023-07-10 17:54:44,52.2069771750688,0.0867807231261641,135.826776,136.9422616,59.369952031072,196.31221363107,83.66142,14.7861734,136.594820644,168.456698304,21,5,16.768,196.31221363107,135.826776,25.2550526,136.594820644,-13.869028,-5.144962,0.223694,287.8, 4.9, -29.1,0,0,1029,377,1024,1024,1,-98,0,0,288.1,-89.9,0,97,4.173,4.179,4.184,4.178,0,0,9.484,82.94,196.31221363107,135.826776,6,P-GPS,
29100,2023-07-10 17:54:45,52.2069656005822,0.0867745226238509,135.826776,136.9422616,59.369952031072,196.31221363107,83.66142,15.5691024,141.038718424,172.901252252,21,5,16.612,196.31221363107,135.826776,25.2550526,141.038718424,-14.763804,-4.921268,0.447388,288.1, 3.4, -29.6,0,0,1145,753,1024,1024,18,-41,0,0,288.1,-90,0,97,4.199,4.189,4.189,4.195,0,0,11.541,83.12,196.31221363107,135.826776,6,P-GPS,
29300,2023-07-10 17:54:45,52.2069534323776,0.086768697044084,135.826776,136.9422616,59.369952031072,196.31221363107,83.66142,16.1283374,145.659781564,177.52789282,21,5,16.612,196.31221363107,135.826776,25.2550526,145.659781564,-15.434886,-4.697574,0.447388,289.2, -5.7, -26.1,0,0,1024,1024,1024,1024,0,0,0,0,288.1,-89.9,0,97,4.199,4.189,4.189,4.195,0,0,11.541,83.12,196.31221363107,135.826776,6,P-GPS,
29500,2023-07-10 17:54:45,52.206940963476,0.0867625000506846,135.826776,136.97507,59.337143631072,196.31221363107,83.66142,16.3520314,150.412078304,182.2834704,20,5,16.612,196.31221363107,135.826776,25.2550526,150.412078304,-15.434886,-5.368656,0.447388,292.1, -15.1, -25.5,0,0,1024,1024,1024,1024,0,0,0,0,288.1,-89.9,0,97,4.199,4.189,4.189,4.195,0,0,11.541,83.12,196.31221363107,135.826776,6,P-GPS,
29700,2023-07-10 17:54:45,52.2069286886653,0.0867550057936812,136.15486,137.467196,59.173101631072,196.64029763107,83.66142,16.0388598,155.192262184,187.0652947,20,5,16.612,196.64029763107,136.15486,25.2550526,155.192262184,-14.763804,-6.263432,-0.447388,287.6, -7.1, 5.6,0,0,1024,1008,1024,1024,0,-2,0,0,288.1,-90,0,97,4.199,4.189,4.189,4.195,0,0,11.541,83.12,196.64029763107,136.15486,6,P-GPS,
29900,2023-07-10 17:54:45,52.2069177051896,0.0867475607872885,135.826776,137.2703456,59.041868031072,196.31221363107,83.66142,13.8242892,159.523627152,191.404533684,20,5,16.612,196.64029763107,136.15486,25.2550526,159.523627152,-12.750558,-5.368656,-0.447388,288.9, 3.9, 25.3,0,0,1024,748,1024,1024,0,-42,0,0,288.1,-89.9,0,97,4.199,4.189,4.189,4.195,0,0,11.541,83.12,196.31221363107,135.826776,6,P-GPS,
30100,2023-07-10 17:54:46,52.2069088866294,0.0867417989551188,135.826776,137.3687708,58.943442831072,196.31221363107,83.66142,10.625465,162.985897604,194.87041306,20,5,16.792,196.64029763107,136.15486,25.2550526,162.985897604,-9.842536,-4.026492,0,289.2, 3.7, 27,0,0,1024,655,1024,1024,0,-56,0,0,288.1,-89.9,0,97,4.163,4.183,4.207,4.199,0,0,8.789,83.12,196.31221363107,135.826776,6,P-GPS,
30300,2023-07-10 17:54:46,52.2069022011503,0.0867377433497572,135.170608,136.7782196,58.877826031072,195.65604563107,83.66142,7.8516594,165.587931808,197.472447264,20,5,16.792,196.64029763107,136.15486,25.2550526,165.587931808,-7.381902,-2.684328,0.447388,288.9, 2.6, 27.5,0,0,1024,384,1024,1024,0,-97,0,0,288.1,-89.9,0,97,4.163,4.183,4.207,4.199,0,0,8.789,83.12,195.65604563107,135.170608,6,P-GPS,
30500,2023-07-10 17:54:46,52.2068977736228,0.0867353924893517,134.842524,136.5157524,58.812209231072,195.32796163107,83.66142,4.6752046,167.286094592,199.171266216,20,5,16.792,196.64029763107,136.15486,25.2550526,167.286094592,-4.47388,-1.342164,0.223694,288.3, 0.4, 20.9,0,0,1293,434,1024,1024,41,-89,0,0,288.1,-90,0,97,4.163,4.183,4.207,4.199,0,0,8.789,83.12,195.32796163107,134.842524,6,P-GPS,
30700,2023-07-10 17:54:46,52.2068950517239,0.0867341225141927,134.842524,136.5485608,58.779400831072,195.32796163107,83.66142,3.467257,168.317262604,200.204074648,21,5,16.792,196.64029763107,136.15486,25.2550526,168.317262604,-3.35541,-0.894776,0.447388,290.1, -0.9, -9.4,0,0,1330,494,1024,1024,46,-80,0,0,288.1,-89.9,0,97,4.163,4.183,4.207,4.199,0,0,8.789,83.12,195.32796163107,134.842524,6,P-GPS,
30900,2023-07-10 17:54:46,52.2068926845961,0.0867330189258544,134.842524,136.5813692,58.746592431072,195.32796163107,83.66142,3.5343652,169.213916176,201.10236864,21,5,16.792,196.64029763107,136.15486,25.2550526,169.213916176,-3.35541,-1.11847,0.447388,290.4, -5.7, -21,0,0,1024,1024,1024,1024,0,0,0,0,288.1,-89.9,0,97,4.163,4.183,4.207,4.199,0,0,8.789,83.12,195.32796163107,134.842524,6,P-GPS,
31100,2023-07-10 17:54:47,52.206890105901,0.0867313353182596,134.842524,136.6141776,58.713784031072,195.32796163107,83.66142,4.3172942,170.2263834,202.115820116,20,5,16.852,196.64029763107,136.15486,25.2550526,170.2263834,-4.026492,-1.565858,0.223694,289.8, -4.9, -21.7,0,0,1024,1024,1024,1024,0,0,0,0,288.1,-89.9,0,97,4.241,4.24,4.227,4.22,0,0,8.115,83.3,195.32796163107,134.842524,6,P-GPS,
31300,2023-07-10 17:54:47,52.2068873453828,0.0867291343206265,135.170608,136.97507,58.680975631072,195.65604563107,83.66142,3.914645,171.339572412,203.23655506,20,5,16.852,196.64029763107,136.15486,25.2550526,171.339572412,-3.579104,-1.565858,-0.447388,288.3, 1.4, 17.6,0,0,1024,1024,1024,1024,0,0,0,0,288.1,-89.9,0,97,4.241,4.24,4.227,4.22,0,0,8.115,83.3,195.65604563107,135.170608,6,P-GPS,
31500,2023-07-10 17:54:47,52.2068858363123,0.0867277738406551,135.170608,136.97507,58.680975631072,195.65604563107,83.66142,1.7000744,171.959651172,203.865820172,20,5,16.852,196.64029763107,136.15486,25.2550526,171.959651172,-1.565858,-0.671082,-0.671082,288.5, 0.5, 12.2,0,0,1024,1024,1024,1005,0,0,0,-3,288.1,-90,0,97,4.241,4.24,4.227,4.22,0,0,8.115,83.3,195.65604563107,135.170608,6,P-GPS,
31700,2023-07-10 17:54:47,52.2068854684168,0.0867271758434577,135.170608,136.97507,58.680975631072,195.65604563107,83.66142,0.4921268,172.130582936,204.05512464,20,5,16.852,196.64029763107,136.15486,25.2550526,172.130582936,-0.447388,-0.223694,0,289, 2.6, 2.1,0,0,1024,1024,1024,1024,0,0,0,0,287.8,-90,0,97,4.241,4.24,4.227,4.22,0,0,8.115,83.3,195.65604563107,135.170608,6,P-GPS,
31900,2023-07-10 17:54:47,52.2068856727194,0.0867271304372744,134.842524,136.646986,58.680975631072,195.32796163107,83.66142,0,172.0636538,204.130255876,20,5,16.852,196.64029763107,136.15486,25.2550526,172.130582936,0,0,0.447388,288.7, 1.5, -4.1,0,0,1024,1024,1024,1024,0,0,0,0,287.8,-90,0,97,4.241,4.24,4.227,4.22,0,0,8.115,83.3,195.32796163107,134.842524,6,P-GPS,
32100,2023-07-10 17:54:47,52.2068862276124,0.0867275529049036,134.842524,136.646986,58.680975631072,195.32796163107,83.66142,0.3131716,171.841212848,204.35368108,20,5,16.821,196.64029763107,136.15486,25.2550526,172.130582936,0.223694,0.223694,0.223694,288.8, -1.4, -7.6,0,0,1024,1024,1024,983,0,0,0,-6,287.8,-89.9,0,97,4.184,4.184,4.179,4.2,0,0,6.878,83.3,195.32796163107,134.842524,6,P-GPS,
