time(millisecond),datetime(utc),latitude,longitude,height_above_takeoff(feet),height_above_ground_at_drone_location(feet),ground_elevation_at_drone_location(feet),altitude_above_seaLevel(feet),height_sonar(feet),speed(mph),distance(feet),mileage(feet),satellites,gpslevel,voltage(v),max_altitude(feet),max_ascent(feet),max_speed(mph),max_distance(feet), xSpeed(mph), ySpeed(mph), zSpeed(mph), compass_heading(degrees), pitch(degrees), roll(degrees),isPhoto,isVideo,rc_elevator,rc_aileron,rc_throttle,rc_rudder,rc_elevator(percent),rc_aileron(percent),rc_throttle(percent),rc_rudder(percent),gimbal_heading(degrees),gimbal_pitch(degrees),gimbal_roll(degrees),battery_percent,voltageCell1,voltageCell2,voltageCell3,voltageCell4,voltageCell5,voltageCell6,current(A),battery_temperature(f),altitude(feet),ascent(feet),flycStateRaw,flycState,message
0,2023-07-24 17:19:32,0,0,0,,,60.810907129676,0,0,0,0,8,2,0,60.810907129676,0,0,0,0,0,0,186.3, 6.1, -1.9,0,0,1024,1024,1024,1024,0,0,0,0,186.7,0,0,73,4.028,4.025,4.025,4.019,0,0,0,74.66,60.810907129676,0,41,Motors_Started,"Aircraft not in flight. Vision systems and obstacle avoidance disabled (Code: 180059). No GPS signal. Aircraft unable to hover. Fly with caution (Code: 30008). GPS signal weak. Hovering unstable. Fly with caution (Code: 30002)"
200,2023-07-24 17:19:32,0,0,0,,,60.810907129676,0,0,0,0,8,2,0,60.810907129676,0,0,0,0,0,0,186.3, 6.1, -1.9,0,0,1024,1024,1024,1024,0,0,0,0,186.6,0,0,73,4.028,4.025,4.025,4.019,0,0,0,74.66,60.810907129676,0,41,Motors_Started,
400,2023-07-24 17:19:32,0,0,0,,,60.810907129676,0,0,0,0,8,2,0,60.810907129676,0,0,0,0,0,0,186.4, 6.1, -1.8,0,0,1024,1024,1024,1024,0,0,0,0,186.6,0,0,73,4.028,4.025,4.025,4.019,0,0,0,74.66,60.810907129676,0,41,Motors_Started,
600,2023-07-24 17:19:33,0,0,0,,,60.810907129676,0,0,0,0,8,2,0,60.810907129676,0,0,0,0,0,0,186.3, 6.1, -1.8,0,0,1024,1024,1024,1024,0,0,0,0,186.6,0,0,73,4.028,4.025,4.025,4.019,0,0,0,74.66,60.810907129676,0,41,Motors_Started,
800,2023-07-24 17:19:33,0,0,0,,,60.810907129676,0,0,0,0,8,2,0,60.810907129676,0,0,0,0,0,0,186.2, 6.1, -1.8,0,0,1024,1024,1024,1024,0,0,0,0,186.6,0,0,73,4.028,4.025,4.025,4.019,0,0,0,74.66,60.810907129676,0,41,Motors_Started,"Setting new Return-To-Home altitude to 26m (85 ft). Data Recorder File Index is 71. Setting new Maximum Flight Altitude to 30m (98 ft)"
1000,2023-07-24 17:19:33,0,0,0,,,60.810907129676,0,0,0,0,8,2,0,60.810907129676,0,0,0,0,0,0,185.8, 6.1, -1.8,0,0,1024,1024,1024,1024,0,0,0,0,186.6,0,0,73,4.028,4.025,4.025,4.019,0,0,0,74.66,60.810907129676,0,41,Motors_Started,
1200,2023-07-24 17:19:33,0,0,0,,,60.810907129676,0,0,0,0,8,2,0,60.810907129676,0,0,0,0,0,0,186, 6.1, -1.8,0,0,1024,1024,1024,1024,0,0,0,0,186.6,0,0,73,4.028,4.025,4.025,4.019,0,0,0,74.66,60.810907129676,0,41,Motors_Started,
1400,2023-07-24 17:19:33,0,0,0,,,60.810907129676,0,0,0,0,8,2,16.27,60.810907129676,0,0,0,0,0,0,186.2, 6.1, -1.8,0,0,1024,1024,1024,1024,0,0,0,0,186.6,0,0,73,4.028,4.025,4.025,4.019,0,0,1.471,74.66,60.810907129676,0,41,Motors_Started,"GPS signal weak. Hovering unstable. Fly with caution (Code: 30002)"
1600,2023-07-24 17:19:34,0,0,0,,,60.810907129676,0,0,0,0,8,2,16.27,60.810907129676,0,0,0,0,0,0,186.3, 6.1, -1.8,0,0,1024,1024,1024,1024,0,0,0,0,186.6,0,0,73,4.028,4.025,4.025,4.019,0,0,1.471,74.66,60.810907129676,0,11,AutoTakeoff,
1800,2023-07-24 17:19:34,0,0,0,,,60.810907129676,0,0,0,0,8,2,16.27,60.810907129676,0,0,0,0,0,0,186.4, 6.1, -1.8,0,0,1024,1024,1024,1024,0,0,0,0,186.6,0,0,73,4.028,4.025,4.025,4.019,0,0,1.471,74.66,60.810907129676,0,11,AutoTakeoff,
2000,2023-07-24 17:19:34,0,0,0,,,60.810907129676,0,0,0,0,8,2,16.27,60.810907129676,0,0,0,0,0,0,187.5, 3.7, -1.6,0,0,1024,1024,1684,1024,0,0,100,0,186.6,0,0,73,4.028,4.025,4.025,4.019,0,0,1.471,74.66,60.810907129676,0,11,AutoTakeoff,
2200,2023-07-24 17:19:34,0,0,0,,,60.810907129676,0,0,0,0,8,2,16.27,60.810907129676,0,0,0,0,0,-0.671082,188.1, -1.7, -0.3,0,0,1024,1024,1684,1033,0,0,100,1,186.7,0,0,73,4.028,4.025,4.025,4.019,0,0,1.471,74.66,60.810907129676,0,11,AutoTakeoff,
2400,2023-07-24 17:19:34,0,0,0.328084,,,61.138991129676,0.328084,0,0,0,8,2,16.063,61.138991129676,0.328084,0,0,0,0,-1.342164,188, 0, 1.3,0,0,1024,1024,1684,1033,0,0,100,1,186.8,0,0,73,4.053,4.05,4.051,4.048,0,0,4.823,74.48,61.138991129676,0.328084,11,AutoTakeoff,
2600,2023-07-24 17:19:35,0,0,0.984252,,,61.795159129676,0.984252,0,0,0,8,2,16.063,61.795159129676,0.984252,0,0,0,0,-2.013246,188, 0, 1.1,0,0,1024,1024,1684,1026,0,0,100,0,186.9,0,0,73,4.053,4.05,4.051,4.048,0,0,4.823,74.48,61.795159129676,0.984252,11,AutoTakeoff,
2800,2023-07-24 17:19:35,0,0,1.64042,,,62.451327129676,1.64042,0,0,0,8,2,16.063,62.451327129676,1.64042,0,0,0,0,-2.460634,188, 0.1, 0.6,0,0,1024,1024,1684,1024,0,0,100,0,187,0,0,73,4.053,4.05,4.051,4.048,0,0,4.823,74.48,62.451327129676,1.64042,11,AutoTakeoff,
3000,2023-07-24 17:19:35,0,0,2.624672,,,63.435579129676,2.624672,0,0,0,8,2,16.063,63.435579129676,2.624672,0,0,0,0,-3.35541,188.1, 0.6, 0.1,0,0,1024,1024,1684,1024,0,0,100,0,187,0,0,73,4.053,4.05,4.051,4.048,0,0,4.823,74.48,63.435579129676,2.624672,11,AutoTakeoff,
3200,2023-07-24 17:19:35,52.2073987182374,0.0869929696626554,3.608924,3.608924,60.810907129676,64.419831129676,3.937008,0,0,0,8,2,16.063,64.419831129676,3.608924,0,0,0,0,-4.026492,187.9, 0.4, 0.1,0,0,1024,1024,1684,1024,0,0,100,0,187.1,0,0,73,4.053,4.05,4.051,4.048,0,0,4.823,74.48,64.419831129676,3.608924,11,AutoTakeoff,"No GPS. Fly with caution GPS signal weak. Hovering unstable. Fly with caution (Code: 30002)"
3400,2023-07-24 17:19:35,52.2073990620987,0.0869927931764985,4.92126,4.92126,60.810907129676,65.732167129676,5.249344,0,0.131516736492,0.131516736492,8,2,16.043,65.732167129676,4.92126,0,0.131516736492,0,0,-5.368656,188, 0.8, 0.1,0,0,1024,1024,1684,1024,0,0,100,0,187.1,0,0,73,3.97,3.969,3.971,3.963,0,0,3.945,74.48,65.732167129676,4.92126,6,P-GPS,
3600,2023-07-24 17:19:36,52.2073993006388,0.0869927705405144,6.889764,6.889764,60.810907129676,67.700671129676,7.217848,0,0.217102697236,0.218694888888,8,2,16.043,67.700671129676,6.889764,0,0.217102697236,0,0,-7.158208,187.6, 1, 0,0,0,1024,1024,1684,1024,0,0,100,0,187.1,0,0,73,3.97,3.969,3.971,3.963,0,0,3.945,74.48,67.700671129676,6.889764,6,P-GPS,
3800,2023-07-24 17:19:36,52.207399595915,0.0869928022337428,10.170604,10.170604,60.810907129676,70.981511129676,9.514436,0,0.322400928952,0.326659131188,8,2,16.043,70.981511129676,10.170604,0,0.322400928952,0,0,-9.395148,187.2, 0.8, 0,0,0,1024,1024,1684,1024,0,0,100,0,187.1,0,0,73,3.97,3.969,3.971,3.963,0,0,3.945,74.48,70.981511129676,10.170604,6,P-GPS,
4000,2023-07-24 17:19:36,52.2073998998623,0.0869928646580477,14.435696,14.435696,60.810907129676,75.246603129676,12.467192,0,0.43175526316,0.43842849172,8,2,16.043,75.246603129676,14.435696,0,0.43175526316,0,0,-11.408394,187.1, 0.8, 0.3,0,0,1024,1024,1684,1024,0,0,100,0,187.1,0,0,73,3.97,3.969,3.971,3.963,0,0,3.945,74.48,75.246603129676,14.435696,6,P-GPS,
4200,2023-07-24 17:19:36,52.2074002511363,0.08699303644949,19.028872,19.028872,60.810907129676,79.839779129676,16.076116,0,0.55947508352,0.57222114692,8,3,16.043,79.839779129676,19.028872,0,0.55947508352,0,0,-12.974252,187.1, 0.8, 0.5,0,0,1024,1024,1684,1024,0,0,100,0,187.1,0,0,73,3.97,3.969,3.971,3.963,0,0,3.945,74.48,79.839779129676,19.028872,6,P-GPS,
4400,2023-07-24 17:19:36,52.2074007642415,0.0869931590902407,22.96588,22.96588,60.810907129676,83.776787129676,20.013124,0,0.74768375096,0.76142718972,8,3,15.802,83.776787129676,22.96588,0,0.74768375096,0,0,-13.42164,187, 0.4, 0.5,0,0,1314,1024,1684,1024,44,0,100,0,187.1,0,0,73,3.912,3.91,3.909,3.903,0,0,9.335,74.48,83.776787129676,22.96588,6,P-GPS,
4600,2023-07-24 17:19:37,52.2074013307229,0.086993382793748,27.230972,27.230972,60.810907129676,88.041879129676,24.278216,0,0.9576279834,0.97407155348,8,3,15.802,88.041879129676,27.230972,0,0.9576279834,0,0,-13.645334,187.2, -2.2, 0.7,0,0,1684,1024,1684,1024,100,0,100,0,187.1,0,0,73,3.912,3.91,3.909,3.903,0,0,9.335,74.48,88.041879129676,27.230972,6,P-GPS,
4800,2023-07-24 17:19:37,52.2074016186784,0.0869936560115388,31.16798,31.16798,60.810907129676,91.978887129676,28.215224,1.11847,1.0692913728,1.09560042876,8,3,15.802,91.978887129676,31.16798,1.11847,1.0692913728,-1.11847,0,-13.645334,186.6, -25.8, 0.8,0,0,1684,1024,1684,1024,100,0,100,0,187.1,0,0,73,3.912,3.91,3.909,3.903,0,0,9.335,74.48,91.978887129676,31.16798,6,P-GPS,"Setting new Maximum Flight Altitude to 120m (394 ft)"
5000,2023-07-24 17:19:37,52.2074003187691,0.0869937008222405,35.433072,35.433072,60.810907129676,96.243979129676,32.152232,3.579104,0.60640421888,1.56997708436,8,3,15.802,96.243979129676,35.433072,3.579104,1.0692913728,-3.579104,-0.223694,-13.42164,187.1, -25.7, -0.1,0,0,1684,1024,1684,1024,100,0,100,0,187.1,0,0,73,3.912,3.91,3.909,3.903,0,0,9.335,74.48,96.243979129676,35.433072,6,P-GPS,
5200,2023-07-24 17:19:37,52.2073971582375,0.0869934775841977,39.698164,39.7309724,60.778098729676,100.50907112968,32.152232,5.8607828,0.58038387684,2.72417659636,8,3,15.802,100.50907112968,39.698164,5.8607828,1.0692913728,-5.816044,-0.671082,-13.197946,187.1, -22.8, 0,0,0,1684,1024,1684,1024,100,0,100,0,187.1,0,0,73,3.912,3.91,3.909,3.903,0,0,9.335,74.48,100.50907112968,39.698164,6,P-GPS,
5400,2023-07-24 17:19:37,52.2073922787512,0.0869932101626962,43.307088,43.4055132,60.712481929676,104.11799512968,36.417324,7.6279654,2.35005913032,4.5054463384,8,3,15.453,104.11799512968,43.307088,7.6279654,2.35005913032,-7.605596,-0.671082,-13.197946,186.6, -22.4, 1.2,0,0,1684,1024,1684,1024,100,0,100,0,187.1,0,0,73,3.905,3.908,3.912,3.91,0,0,14.591,74.3,104.11799512968,43.307088,6,P-GPS,
5600,2023-07-24 17:19:38,52.2073857445892,0.0869926519588052,47.244096,47.3753296,60.679673529676,108.05500312968,40.354332,9.6859502,4.7339568444,6.892716756,8,3,15.453,108.05500312968,47.244096,9.6859502,4.7339568444,-9.618842,-1.11847,-13.197946,187, -22.9, 1.4,0,0,1684,1024,1684,1024,100,0,100,0,187.1,0,0,73,3.905,3.908,3.912,3.91,0,0,14.591,74.3,108.05500312968,47.244096,6,P-GPS,
5800,2023-07-24 17:19:38,52.2073776095081,0.0869916884283954,51.181104,51.4107628,60.581248329676,111.99201112968,44.29134,11.4978716,7.7068243936,9.868602678,9,3,15.453,111.99201112968,51.181104,11.4978716,7.7068243936,-11.408394,-1.342164,-13.197946,186.9, -21, 0.3,0,0,1684,1024,1684,1024,100,0,100,0,187.1,0,0,73,3.905,3.908,3.912,3.91,0,0,14.591,74.3,111.99201112968,51.181104,6,P-GPS,
6000,2023-07-24 17:19:38,52.2073679568459,0.0869903611195824,55.446196,55.7414716,60.515631529676,116.25710312968,47.57218,13.2874236,11.2384189948,13.4028547596,9,3,15.453,116.25710312968,55.446196,13.2874236,11.2384189948,-13.197946,-1.565858,-13.197946,187.2, -20.8, -0.1,0,0,1684,1024,1684,1024,100,0,100,0,187.1,0,0,73,3.905,3.908,3.912,3.91,0,0,14.591,74.3,116.25710312968,55.446196,6,P-GPS,
6200,2023-07-24 17:19:38,52.2073568429975,0.0869886815229217,60.039372,60.4330728,60.417206329676,120.85027912968,51.181104,14.875651,15.3082025896,17.475066176,9,3,15.453,120.85027912968,60.039372,14.875651,15.3082025896,-14.763804,-1.789552,-13.197946,186.6, -20.8, 0.9,0,0,1684,1024,1684,1024,100,0,100,0,187.1,0,0,73,3.905,3.908,3.912,3.91,0,0,14.591,74.3,120.85027912968,60.039372,6,P-GPS,
6400,2023-07-24 17:19:39,52.2073443181093,0.0869866028039796,64.304464,64.8293984,60.285972729676,125.11537112968,55.118112,16.4638784,19.8988523428,22.0683406012,9,3,15.602,125.11537112968,64.304464,16.4638784,19.8988523428,-16.329662,-2.013246,-13.197946,187.2, -17.9, 0.1,0,0,1684,1024,1684,1024,100,0,100,0,187.1,0,0,72,3.895,3.89,3.898,3.889,0,0,12.309,74.48,125.11537112968,64.304464,6,P-GPS,
6600,2023-07-24 17:19:39,52.2073305858341,0.0869841658970415,68.569556,69.1929156,60.187547529676,129.38046312968,58.727036,17.783673,24.935860378,27.108104542,9,3,15.602,129.38046312968,68.569556,17.783673,24.935860378,-17.671826,-2.013246,-13.197946,187, -17.5, 0.1,0,0,1664,1024,1684,1024,97,0,100,0,187.1,0,0,72,3.895,3.89,3.898,3.889,0,0,12.309,74.48,129.38046312968,68.569556,6,P-GPS,
6800,2023-07-24 17:19:39,52.2073157249919,0.0869814351220462,73.162732,73.9501336,60.023505529676,133.97363912968,62.664044,18.9245124,30.3896663268,32.5643383124,9,3,15.602,133.97363912968,73.162732,18.9245124,30.3896663268,-18.790296,-2.23694,-13.197946,186.8, -16.7, 1,0,0,1024,1024,1024,1024,0,0,0,0,187.1,0,0,72,3.895,3.89,3.898,3.889,0,0,12.309,74.48,133.97363912968,73.162732,6,P-GPS,
7000,2023-07-24 17:19:39,52.2072998790913,0.086978351399748,77.755908,78.6745432,59.892271929676,138.56681512968,66.272968,20.0429824,36.209318744,38.386812252,9,3,15.602,138.56681512968,77.755908,20.0429824,36.209318744,-19.908766,-2.23694,-13.197946,186.9, -2.8, 1.4,0,0,1024,1024,1024,1024,0,0,0,0,187.1,0,0,72,3.895,3.89,3.898,3.889,0,0,12.309,74.48,138.56681512968,77.755908,6,P-GPS,
7200,2023-07-24 17:19:39,52.2072839921038,0.0869750668447987,80.38058,81.4632572,59.728229929676,141.19148712968,70.209976,18.9245124,42.048557776,44.229332124,9,3,15.602,141.19148712968,80.38058,20.0429824,42.048557776,-18.790296,-2.23694,-11.855782,187.3, 27.6, 0.3,0,0,1024,1024,1024,1024,0,0,0,0,187.1,0,0,72,3.895,3.89,3.898,3.889,0,0,12.309,74.48,141.19148712968,80.38058,6,P-GPS,
7400,2023-07-24 17:19:39,52.2072693302367,0.0869719417264433,82.021,83.2677192,59.564187929676,142.83190712968,73.162732,17.336285,47.440618316,49.624017336,9,3,15.535,142.83190712968,82.021,20.0429824,47.440618316,-17.224438,-2.013246,-9.842536,187.3, 29.1, 0.4,0,0,1024,1024,1024,1024,0,0,0,0,187.1,0,0,72,3.87,3.875,3.875,3.871,0,0,13.41,74.66,142.83190712968,82.021,6,P-GPS,
7600,2023-07-24 17:19:40,52.2072558549734,0.0869689136963374,83.005252,84.3832048,59.432954329676,143.81615912968,69.553808,15.9717516,52.400264144,54.586944004,9,3,15.535,143.81615912968,83.005252,20.0429824,52.400264144,-15.882274,-1.789552,-7.381902,187.3, 28.9, 0.5,0,0,1024,1024,1024,1024,0,0,0,0,187.1,0,0,72,3.87,3.875,3.875,3.871,0,0,13.41,74.66,143.81615912968,83.005252,6,P-GPS,
7800,2023-07-24 17:19:40,52.2072434228692,0.0869659818457914,83.333336,84.8425224,59.301720729676,144.14424312968,70.866144,14.875651,56.979660616,59.1699494,9,3,15.535,144.14424312968,83.333336,20.0429824,56.979660616,-14.763804,-1.789552,-4.697574,187.2, 29.4, 0.6,0,0,1024,1024,1024,1024,0,0,0,0,187.1,0,0,72,3.87,3.875,3.875,3.871,0,0,13.41,74.66,144.14424312968,83.333336,6,P-GPS,
8000,2023-07-24 17:19:40,52.2072318911309,0.0869631385627817,83.333336,84.973756,59.170487129676,144.14424312968,71.194228,13.7348116,61.230973088,63.42519888,8,3,15.535,144.14424312968,83.333336,20.0429824,61.230973088,-13.645334,-1.565858,-2.23694,187.2, 29.6, 0.6,0,0,1024,1024,1024,1024,0,0,0,0,187.1,0,0,72,3.87,3.875,3.875,3.871,0,0,13.41,74.66,144.14424312968,83.333336,6,P-GPS,
8200,2023-07-24 17:19:40,52.2072213509104,0.0869604340541605,84.317588,86.0564332,59.072061929676,145.12849512968,76.115488,12.1465842,65.120080824,67.31791554,8,3,15.535,145.12849512968,84.317588,20.0429824,65.120080824,-12.079476,-1.342164,-0.447388,186.8, 29.9, 0,0,0,1024,1024,1024,1024,0,0,0,0,187.1,0,0,72,3.87,3.875,3.875,3.871,0,0,13.41,74.66,145.12849512968,84.317588,6,P-GPS,
8400,2023-07-24 17:19:40,52.207212273885,0.0869579911468124,84.317588,86.0564332,59.072061929676,145.12849512968,76.771656,9.9096442,68.472115052,70.674542944,9,3,15.612,145.12849512968,84.317588,20.0429824,68.472115052,-9.842536,-1.11847,0,186.6, 29.8, 0,0,0,1024,1024,1024,1024,0,0,0,0,187.1,0,0,72,3.981,3.983,3.988,3.985,0,0,13.165,74.84,145.12849512968,84.317588,6,P-GPS,
8600,2023-07-24 17:19:41,52.2072050200709,0.0869559423836119,84.317588,86.0564332,59.072061929676,145.12849512968,76.771656,7.4266408,71.153873668,73.360238568,9,3,15.612,145.12849512968,84.317588,20.0429824,71.153873668,-7.381902,-0.894776,0,186.7, 29, 0.5,0,0,1024,1024,1024,1024,0,0,0,0,187.1,0,0,72,3.981,3.983,3.988,3.985,0,0,13.165,74.84,145.12849512968,84.317588,6,P-GPS,
8800,2023-07-24 17:19:41,52.2071996879361,0.0869541642491669,83.989504,85.7283492,59.072061929676,144.80041112968,76.443572,5.1897008,73.132548272,75.345802936,9,3,15.612,145.12849512968,84.317588,20.0429824,73.132548272,-5.144962,-0.671082,0,186.9, 28.5, -0.6,0,0,1024,1024,1024,1024,0,0,0,0,187.1,0,0,72,3.981,3.983,3.988,3.985,0,0,13.165,74.84,144.80041112968,83.989504,6,P-GPS,
9000,2023-07-24 17:19:41,52.2071960660321,0.0869527759286135,83.989504,85.7283492,59.072061929676,144.80041112968,76.771656,3.3777794,74.48162968,76.703414528,9,3,15.612,145.12849512968,84.317588,20.0429824,74.48162968,-3.35541,-0.447388,0,187, 28.7, -1.6,0,0,1024,1024,1024,1024,0,0,0,0,187.1,0,0,72,3.981,3.983,3.988,3.985,0,0,13.165,74.84,144.80041112968,83.989504,6,P-GPS,
9200,2023-07-24 17:19:41,52.2071942302961,0.0869519703472551,83.989504,85.7283492,59.072061929676,144.80041112968,83.66142,2.0356154,75.168309492,77.396984104,9,3,15.612,145.12849512968,84.317588,20.0429824,75.168309492,-2.013246,-0.223694,0,187.1, 23.4, -0.7,0,0,1024,1024,1024,1024,0,0,0,0,187.1,0,0,72,3.981,3.983,3.988,3.985,0,0,13.165,74.84,144.80041112968,83.989504,6,P-GPS,
9400,2023-07-24 17:19:41,52.207193641766,0.0869515374090483,83.989504,85.7283492,59.072061929676,144.80041112968,83.66142,0.671082,75.393375116,77.632548416,9,3,15.996,145.12849512968,84.317588,20.0429824,75.393375116,-0.671082,0,0,187.9, 14.1, -0.5,0,0,1024,1024,1684,1024,0,0,100,0,187.1,0,0,72,3.94,3.937,3.938,3.933,0,0,4.458,75.2,144.80041112968,83.989504,6,P-GPS,
9600,2023-07-24 17:19:42,52.2071936353751,0.086951229258399,83.989504,85.7283492,59.072061929676,144.80041112968,83.66142,0.223694,75.404201888,77.701446056,9,3,15.996,145.12849512968,84.317588,20.0429824,75.404201888,-0.223694,0,-0.223694,188.2, 9.2, -0.8,0,0,1024,1024,1684,1024,0,0,100,0,187.1,0,0,72,3.94,3.937,3.938,3.933,0,0,4.458,75.2,144.80041112968,83.989504,6,P-GPS,
9800,2023-07-24 17:19:42,52.2071939477934,0.0869510110295831,84.645672,86.3845172,59.072061929676,145.45657912968,83.66142,0,75.29691842,77.825461808,9,3,15.996,145.45657912968,84.645672,20.0429824,75.404201888,0,0,-1.789552,187.5, 4.9, -1.7,0,0,1024,1024,1684,1024,0,0,100,0,187.1,0,0,72,3.94,3.937,3.938,3.933,0,0,4.458,75.2,145.45657912968,84.645672,6,P-GPS,
10000,2023-07-24 17:19:42,52.2071943088376,0.0869509891476367,85.629924,87.3687692,59.072061929676,146.44083112968,83.66142,0,75.166997156,77.957351576,9,3,15.996,146.44083112968,85.629924,20.0429824,75.404201888,0,0,-4.250186,186.9, 4.9, -1.5,0,0,1024,1024,1684,1024,0,0,100,0,187.1,0,0,72,3.94,3.937,3.938,3.933,0,0,4.458,75.2,146.44083112968,85.629924,6,P-GPS,
10200,2023-07-24 17:19:42,52.2071946387495,0.086950992027484,87.270344,89.0091892,59.072061929676,148.08125112968,83.66142,0,75.04757458,78.07743032,9,3,15.996,148.08125112968,87.270344,20.0429824,75.404201888,0,0,-6.71082,186.8, 4.6, -1.4,0,0,1024,1024,1684,1024,0,0,100,0,187.1,0,0,72,3.94,3.937,3.938,3.933,0,0,4.458,75.2,148.08125112968,87.270344,6,P-GPS,
10400,2023-07-24 17:19:42,52.2071949920149,0.0869512035914106,90.551184,92.2900292,59.072061929676,151.36209112968,83.66142,0,74.913716308,78.214897516,13,3,15.7,151.36209112968,90.551184,20.0429824,75.404201888,0,0,-9.171454,186.3, 4.6, -2.2,0,0,1024,1024,1684,1024,0,0,100,0,187.1,0,0,72,3.949,3.947,3.95,3.945,0,0,9.307,75.2,151.36209112968,90.551184,6,P-GPS,
10600,2023-07-24 17:19:43,52.2071954823167,0.0869514783477143,93.832024,95.5708692,59.072061929676,154.64293112968,83.66142,0,74.728676932,78.4038739,12,3,15.7,154.64293112968,93.832024,20.0429824,75.404201888,0,0,-11.408394,186.6, 3.7, -2.6,0,0,1024,1024,1613,1024,0,0,89,0,187.1,0,0,72,3.949,3.947,3.95,3.945,0,0,9.307,75.2,154.64293112968,93.832024,6,P-GPS,
10800,2023-07-24 17:19:43,52.2071956529868,0.0869518324291318,97.769032,99.5078772,59.072061929676,158.57993912968,83.66142,0,74.656826536,78.504595688,12,3,15.7,158.57993912968,97.769032,20.0429824,75.404201888,0,0,-12.750558,186.3, 1.9, -2.3,0,0,1024,1024,1024,1024,0,0,0,0,187.1,0,0,72,3.949,3.947,3.95,3.945,0,0,9.307,75.2,158.57993912968,97.769032,6,P-GPS,
11000,2023-07-24 17:19:43,52.2071956264465,0.0869522485391048,101.049872,102.7887172,59.072061929676,161.86077912968,83.66142,0,74.655186116,78.598427712,12,3,15.7,161.86077912968,101.049872,20.0429824,75.404201888,0,0,-12.30317,186.9, 1.2, -2.4,0,0,1024,1024,1024,1024,0,0,0,0,187.1,0,0,72,3.949,3.947,3.95,3.945,0,0,9.307,75.2,161.86077912968,101.049872,6,P-GPS,
11200,2023-07-24 17:19:43,52.2071952990189,0.0869527867909501,103.674544,105.4133892,59.072061929676,164.48545112968,83.66142,0.223694,74.759188744,78.767719056,12,3,15.7,164.48545112968,103.674544,20.0429824,75.404201888,-0.223694,0,-10.289924,186.8, 2.1, -4.6,0,0,1024,1024,1024,1024,0,0,0,0,187.1,0,0,72,3.949,3.947,3.95,3.945,0,0,9.307,75.2,164.48545112968,103.674544,6,P-GPS,
11400,2023-07-24 17:19:43,52.207194784113,0.0869535984465495,105.314964,107.0538092,59.072061929676,166.12587112968,83.66142,0.223694,74.924214996,79.02887392,13,3,15.492,166.12587112968,105.314964,20.0429824,75.404201888,-0.223694,0,-7.82929,186.6, 0, -1.6,0,0,1024,1024,1024,1024,0,0,0,0,187.1,-0.1,0,72,3.837,3.839,3.839,3.836,0,0,11.398,75.2,166.12587112968,105.314964,6,P-GPS,
11600,2023-07-24 17:19:44,52.2071940714997,0.0869544455550262,106.299216,108.0380612,59.072061929676,167.11012312968,83.66142,0.223694,75.160435476,79.350724324,13,3,15.492,167.11012312968,106.299216,20.0429824,75.404201888,-0.223694,0,-5.816044,187, -10.7, 0.5,0,0,1024,1024,1024,1024,0,0,0,0,187.1,-2,0,72,3.837,3.839,3.839,3.836,0,0,11.398,75.2,167.11012312968,106.299216,6,P-GPS,
11800,2023-07-24 17:19:44,52.2071930715178,0.0869550833118861,106.955384,108.6942292,59.072061929676,167.76629112968,83.66142,0.671082,75.50689218,79.74245662,13,3,15.492,167.76629112968,106.955384,20.0429824,75.50689218,-0.671082,0,-3.579104,186.9, -7.2, 1.2,0,0,1024,1024,1024,1024,0,0,0,0,187.1,-4.7,0,72,3.837,3.839,3.839,3.836,0,0,11.398,75.2,167.76629112968,106.955384,6,P-GPS,
12000,2023-07-24 17:19:44,52.2071918969078,0.0869554439743139,107.611552,109.3503972,59.072061929676,168.42245912968,83.66142,1.11847,75.92355886,80.178480256,13,3,15.492,168.42245912968,107.611552,20.0429824,75.92355886,-1.11847,0,-1.342164,187, 1, 0.9,0,0,1024,1024,1024,1024,0,0,0,0,187.1,-7.6,0,72,3.837,3.839,3.839,3.836,0,0,11.398,75.2,168.42245912968,107.611552,6,P-GPS,
12200,2023-07-24 17:19:44,52.2071908538,0.0869556580336421,107.611552,109.3503972,59.072061929676,168.42245912968,83.66142,1.1408394,76.296590368,80.562010452,13,3,15.492,168.42245912968,107.611552,20.0429824,76.296590368,-1.11847,-0.223694,0,187.2, 5.8, 1.2,0,0,1024,1024,1024,1024,0,0,0,0,187.1,-10.5,0,72,3.837,3.839,3.839,3.836,0,0,11.398,75.2,168.42245912968,107.611552,6,P-GPS,
12400,2023-07-24 17:19:44,52.2071901541741,0.0869556163597356,107.611552,109.3503972,59.072061929676,168.42245912968,83.66142,0.9171454,76.551511636,80.817587888,13,3,15.777,168.42245912968,107.611552,20.0429824,76.551511636,-0.894776,-0.223694,0.223694,188.4, 7.1, -1.2,0,0,1024,1024,1024,1024,0,0,0,0,187.1,-13.5,0,72,3.987,3.99,3.991,3.989,0,0,12.075,75.56,168.42245912968,107.611552,6,P-GPS,
12600,2023-07-24 17:19:45,52.2071898305674,0.0869554777775699,107.611552,109.3503972,59.072061929676,168.42245912968,83.66142,0.7158208,76.672246548,80.939635136,13,3,15.777,168.42245912968,107.611552,20.0429824,76.672246548,-0.671082,-0.223694,0,188.1, 11.4, -0.8,0,0,1024,1024,1024,1024,0,0,0,0,187.1,-16.4,0,72,3.987,3.99,3.991,3.989,0,0,12.075,75.56,168.42245912968,107.611552,6,P-GPS,
12800,2023-07-24 17:19:45,52.2071900670829,0.0869553131789198,107.611552,109.3503972,59.072061929676,168.42245912968,83.66142,0.223694,76.590553632,81.03346716,13,3,15.777,168.42245912968,107.611552,20.0429824,76.672246548,-0.223694,0,0,187.1, 13.1, -2.7,0,0,1024,1024,1024,1024,0,0,0,0,187.1,-19.3,0,72,3.987,3.99,3.991,3.989,0,0,12.075,75.56,168.42245912968,107.611552,6,P-GPS,
13000,2023-07-24 17:19:45,52.2071907454456,0.0869552908181638,107.939636,109.6784812,59.072061929676,168.75054312968,83.66142,0,76.344818716,81.280842496,13,3,15.777,168.75054312968,107.939636,20.0429824,76.672246548,0,0,0,187, 9.4, -0.7,0,0,1024,1024,1024,1024,0,0,0,0,187.1,-22.2,0,72,3.987,3.99,3.991,3.989,0,0,12.075,75.56,168.75054312968,107.939636,6,P-GPS,
13200,2023-07-24 17:19:45,52.2071917152035,0.0869552148482118,107.939636,109.6784812,59.072061929676,168.75054312968,83.66142,0,75.995081172,81.635173216,17,3,15.777,168.75054312968,107.939636,20.0429824,76.672246548,0,0,-0.223694,187.2, 5.9, -0.8,0,0,1024,1024,1024,1024,0,0,0,0,187.1,-25.1,0,72,3.987,3.99,3.991,3.989,0,0,12.075,75.56,168.75054312968,107.939636,6,P-GPS,
13400,2023-07-24 17:19:46,52.2071927067213,0.0869550169041455,107.939636,109.6784812,59.072061929676,168.75054312968,83.66142,0,75.640750452,81.99967454,17,3,15.983,168.75054312968,107.939636,20.0429824,76.672246548,0,0,0,187.3, 5.9, -1.7,0,0,1024,1024,1024,1684,0,0,0,100,187.1,-28,0,72,3.94,3.94,3.936,3.93,0,0,4.018,75.74,168.75054312968,107.939636,6,P-GPS,
13600,2023-07-24 17:19:46,52.2071937148418,0.0869547799703021,107.939636,109.6784812,59.072061929676,168.75054312968,83.66142,0,75.281170388,82.371065628,17,4,15.983,168.75054312968,107.939636,20.0429824,76.672246548,0,0,0,187.1, 4.4, -1.9,0,0,1024,1024,1024,1684,0,0,0,100,189.6,-31,0,72,3.94,3.94,3.936,3.93,0,0,4.018,75.74,168.75054312968,107.939636,6,P-GPS,
13800,2023-07-24 17:19:46,52.2071946806417,0.0869544852158356,108.26772,110.0065652,59.072061929676,169.07862712968,83.66142,0,74.938650692,82.72966144,17,4,15.983,169.07862712968,108.26772,20.0429824,76.672246548,0,0,-0.223694,191, 3.6, -2.9,0,0,1024,1024,1024,1684,0,0,0,100,200.6,-33.9,0,72,3.94,3.94,3.936,3.93,0,0,4.018,75.74,169.07862712968,108.26772,6,P-GPS,
14000,2023-07-24 17:19:46,52.2071954720193,0.0869542206892807,108.26772,110.0065652,59.072061929676,169.07862712968,83.66142,0,74.65879504,83.024280872,17,4,15.983,169.07862712968,108.26772,20.0429824,76.672246548,0,0,-0.223694,203.8, 3.3, -2.9,0,0,1024,1024,1024,1684,0,0,0,100,212.6,-36.8,0,72,3.94,3.94,3.936,3.93,0,0,4.018,75.74,169.07862712968,108.26772,6,P-GPS,
14200,2023-07-24 17:19:46,52.2071960158129,0.0869541427132215,108.26772,110.0065652,59.072061929676,169.07862712968,83.66142,0,74.46358506,83.22342786,18,4,15.983,169.07862712968,108.26772,20.0429824,76.672246548,0,0,-0.223694,215.3, 4.2, -2,0,0,1024,1024,1024,1684,0,0,0,100,224.6,-39.7,0,72,3.94,3.94,3.936,3.93,0,0,4.018,75.74,169.07862712968,108.26772,6,P-GPS,
14400,2023-07-24 17:19:46,52.2071963064712,0.0869542979733377,108.595804,110.3346492,59.072061929676,169.40671112968,83.66142,0.3131716,74.354333088,83.335304504,18,4,15.738,169.40671112968,108.595804,20.0429824,76.672246548,-0.223694,0.223694,-0.223694,227.2, 2.6, 0.5,0,0,1024,1024,1024,1684,0,0,0,100,236.6,-42.7,0,72,3.938,3.937,3.943,3.939,0,0,8.13,75.74,169.40671112968,108.595804,6,P-GPS,
14600,2023-07-24 17:19:47,52.2071962753562,0.0869546189714611,108.595804,110.3346492,59.072061929676,169.40671112968,83.66142,0.3131716,74.357285844,83.407811068,18,4,15.738,169.40671112968,108.595804,20.0429824,76.672246548,-0.223694,0.223694,0,239.1, 2.6, 2.5,0,0,1024,1024,1024,1684,0,0,0,100,248.6,-45.6,0,72,3.938,3.937,3.943,3.939,0,0,8.13,75.74,169.40671112968,108.595804,6,P-GPS,
14800,2023-07-24 17:19:47,52.2071959613444,0.0869550088762217,108.923888,110.6627332,59.072061929676,169.73479512968,83.66142,0.3131716,74.460960388,83.551839944,18,4,15.738,169.73479512968,108.923888,20.0429824,76.672246548,-0.223694,0.223694,0,251.2, 1.6, 4.3,0,0,1024,1024,1024,1684,0,0,0,100,260.6,-48.5,0,72,3.938,3.937,3.943,3.939,0,0,8.13,75.74,169.73479512968,108.923888,6,P-GPS,"Home Point updated (Code: 3000001)"
15000,2023-07-24 17:19:47,52.2071954870628,0.086955362454365,108.923888,110.6627332,59.072061929676,169.73479512968,83.66142,0.447388,74.624018136,83.742128664,18,4,15.738,169.73479512968,108.923888,20.0429824,76.672246548,-0.447388,0,0,263.8, 1.6, 4,0,0,1024,1024,1024,1024,0,0,0,0,272.6,-51.4,0,72,3.938,3.937,3.943,3.939,0,0,8.13,75.74,169.73479512968,108.923888,6,P-GPS,
15200,2023-07-24 17:19:47,52.2071948608554,0.0869557668037965,108.923888,110.6627332,59.072061929676,169.73479512968,83.66142,0.447388,74.84088166,83.98786358,18,4,15.738,169.73479512968,108.923888,20.0429824,76.672246548,-0.447388,0,0,275.2, -1.2, 6,0,0,1267,1024,1024,1024,37,0,0,0,280.4,-54.4,0,72,3.938,3.937,3.943,3.939,0,0,8.13,75.74,169.73479512968,108.923888,6,P-GPS,
15400,2023-07-24 17:19:47,52.2071941344151,0.0869561227235632,108.923888,110.6627332,59.072061929676,169.73479512968,83.66142,0.447388,75.095474844,84.264438392,18,5,15.761,169.73479512968,108.923888,20.0429824,76.672246548,-0.447388,0,0,281.1, -3.3, 4.4,0,0,1684,1024,1024,1024,100,0,0,0,280.9,-57.3,0,72,3.946,3.945,3.939,3.931,0,0,7.466,75.92,169.73479512968,108.923888,6,P-GPS,
15600,2023-07-24 17:19:48,52.2071934167131,0.0869559673026788,108.923888,110.6627332,59.072061929676,169.73479512968,83.66142,1.006623,75.359582464,84.528546012,18,5,15.761,169.73479512968,108.923888,20.0429824,76.672246548,-0.447388,-0.894776,-0.223694,279.4, -26.2, 4.6,0,0,1684,1024,1024,1024,100,0,0,0,280.9,-60.2,0,72,3.946,3.945,3.939,3.931,0,0,7.466,75.92,169.73479512968,108.923888,6,P-GPS,
15800,2023-07-24 17:19:48,52.2071928396456,0.0869535283236661,109.251972,110.9908172,59.072061929676,170.06287912968,83.66142,2.908022,75.630579848,85.1131917,18,5,15.761,170.06287912968,109.251972,20.0429824,76.672246548,0,-2.908022,0,278.9, -27, 6.7,0,0,1684,1024,1024,1024,100,0,0,0,280.9,-63.1,0,72,3.946,3.945,3.939,3.931,0,0,7.466,75.92,170.06287912968,109.251972,6,P-GPS,
16000,2023-07-24 17:19:48,52.2071925730089,0.0869483871357161,108.923888,110.6627332,59.072061929676,169.73479512968,83.66142,5.144962,75.869753084,86.266735044,18,5,15.761,170.06287912968,109.251972,20.0429824,76.672246548,0.223694,-5.144962,0,279.9, -26.9, 5.3,0,0,1684,1024,1024,1024,100,0,0,0,280.9,-66,0,72,3.946,3.945,3.939,3.931,0,0,7.466,75.92,169.73479512968,108.923888,6,P-GPS,
16200,2023-07-24 17:19:48,52.2071926208637,0.0869404247878552,108.923888,110.6627332,59.072061929676,169.73479512968,83.66142,7.1805774,76.106629732,88.047246912,18,5,15.761,170.06287912968,109.251972,20.0429824,76.672246548,0.671082,-7.158208,0,279.5, -26.2, 5.7,0,0,1684,1024,1024,1024,100,0,0,0,280.9,-68.9,0,72,3.946,3.945,3.939,3.931,0,0,7.466,75.92,169.73479512968,108.923888,6,P-GPS,
16400,2023-07-24 17:19:48,52.2071930456971,0.0869298515998039,108.923888,110.6627332,59.072061929676,169.73479512968,83.66142,9.0148682,76.35498932,90.416013392,18,5,15.728,170.06287912968,109.251972,20.0429824,76.672246548,1.11847,-8.94776,-0.223694,279.3, -25.7, 5.3,0,0,1684,1024,1024,1024,100,0,0,0,280.9,-71.9,0,72,3.924,3.928,3.922,3.934,0,0,7.754,75.92,169.73479512968,108.923888,6,P-GPS,
16600,2023-07-24 17:19:49,52.2071938744606,0.0869168777130402,108.923888,110.6627332,59.072061929676,169.73479512968,83.66142,10.849159,76.648952584,93.332680152,18,5,15.728,170.06287912968,109.251972,20.0429824,76.672246548,1.565858,-10.737312,-0.223694,279.3, -26.2, 5.9,0,0,1311,1024,1024,1024,43,0,0,0,280.9,-74.8,0,72,3.924,3.928,3.922,3.934,0,0,7.754,75.92,169.73479512968,108.923888,6,P-GPS,
16800,2023-07-24 17:19:49,52.2071950774099,0.08690164738904,108.923888,110.6627332,59.072061929676,169.73479512968,83.66142,12.4597558,77.052823988,96.766079212,18,5,15.728,170.06287912968,109.251972,20.0429824,77.052823988,2.013246,-12.30317,-0.223694,279.9, -25.7, 4.9,0,0,1024,1024,1024,417,0,0,0,-92,280.9,-77.7,0,72,3.924,3.928,3.922,3.934,0,0,7.754,75.92,169.73479512968,108.923888,6,P-GPS,
17000,2023-07-24 17:19:49,52.2071965983803,0.0868845051260399,108.923888,110.6627332,59.072061929676,169.73479512968,83.66142,13.3769012,77.628283324,100.638782748,18,5,15.728,170.06287912968,109.251972,20.0429824,77.628283324,2.23694,-13.197946,-0.447388,280.5, 5.6, 5,0,0,1024,1024,1024,364,0,0,0,-100,279.9,-80.6,0,72,3.924,3.928,3.922,3.934,0,0,7.754,75.92,169.73479512968,108.923888,6,P-GPS,
17200,2023-07-24 17:19:49,52.2071981585359,0.086868070319893,109.251972,110.9908172,59.072061929676,170.06287912968,83.66142,11.8110432,78.321524816,104.35695872,18,5,15.728,170.06287912968,109.251972,20.0429824,78.321524816,2.013246,-11.632088,-0.447388,279.1, 26.7, 0.7,0,0,1024,1024,1024,1024,0,0,0,0,270.3,-83.5,0,72,3.924,3.928,3.922,3.934,0,0,7.754,75.92,170.06287912968,109.251972,6,P-GPS,
17400,2023-07-24 17:19:49,52.2071993432719,0.086854459840091,109.251972,110.9908172,59.072061929676,170.06287912968,83.66142,9.4846256,79.059385732,107.430777716,18,5,15.632,170.06287912968,109.251972,20.0429824,79.059385732,1.342164,-9.395148,0,266.8, 25.2, -12.2,0,0,1684,1024,1024,1024,100,0,0,0,267.8,-86.5,0,72,3.925,3.924,3.925,3.929,0,0,9.052,75.74,170.06287912968,109.251972,6,P-GPS,
17600,2023-07-24 17:19:50,52.2071998211003,0.0868437678338746,109.251972,110.9908172,59.072061929676,170.06287912968,83.66142,7.158208,79.867784708,109.827431336,18,5,15.632,170.06287912968,109.251972,20.0429824,79.867784708,0.223694,-7.158208,0,265.9, 27.3, -8.8,0,0,1684,1024,1024,1024,100,0,0,0,267.8,-89.4,0,72,3.925,3.924,3.925,3.929,0,0,9.052,75.74,170.06287912968,109.251972,6,P-GPS,
17800,2023-07-24 17:19:50,52.2071996061049,0.08683609056643,109.580056,111.3189012,59.072061929676,170.39096312968,83.66142,5.144962,80.670278172,111.545935328,18,5,15.632,170.39096312968,109.580056,20.0429824,80.670278172,-0.223694,-5.144962,0,267.8, 14.4, -0.5,0,0,1684,1024,1024,1024,100,0,0,0,267.8,-89.9,0,72,3.925,3.924,3.925,3.929,0,0,9.052,75.74,170.39096312968,109.580056,6,P-GPS,
18000,2023-07-24 17:19:50,52.2071990995089,0.0868301396136542,109.580056,111.3189012,59.072061929676,170.39096312968,83.66142,4.7199434,81.422902868,112.889111224,18,5,15.632,170.39096312968,109.580056,20.0429824,81.422902868,-0.447388,-4.697574,0,267.6, -8.8, 4.2,0,0,1684,1024,1024,1024,100,0,0,0,267.8,-90,0,72,3.925,3.924,3.925,3.929,0,0,9.052,75.74,170.39096312968,109.580056,6,P-GPS,
18200,2023-07-24 17:19:50,52.2071985754534,0.0868236833455388,109.580056,111.3189012,59.072061929676,170.39096312968,83.66142,5.8384134,82.248362212,114.345148016,18,5,15.632,170.39096312968,109.580056,20.0429824,82.248362212,-0.447388,-5.816044,0,267.2, -18.5, 3,0,0,1684,1024,1024,1024,100,0,0,0,267.8,-89.9,0,72,3.925,3.924,3.925,3.929,0,0,9.052,75.74,170.39096312968,109.580056,6,P-GPS,
18400,2023-07-24 17:19:50,52.207197909804,0.0868155634343828,109.580056,111.3189012,59.072061929676,170.39096312968,83.66142,7.4042714,83.312994792,116.176840988,18,5,15.799,170.39096312968,109.580056,20.0429824,83.312994792,-0.671082,-7.381902,0,266.4, -22.3, 4.7,0,0,1024,1024,1024,1024,0,0,0,0,267.8,-89.9,0,72,3.933,3.933,3.925,3.928,0,0,7.723,75.92,170.39096312968,109.580056,6,P-GPS,
18600,2023-07-24 17:19:51,52.2071971391927,0.0868053399485639,109.580056,111.3189012,59.072061929676,170.39096312968,83.66142,8.9701294,84.669294048,118.479990668,18,5,15.799,170.39096312968,109.580056,20.0429824,84.669294048,-0.671082,-8.94776,0,266.4, -20.7, 6.1,0,0,1024,1024,1024,1024,0,0,0,0,267.8,-90,0,72,3.933,3.933,3.925,3.928,0,0,7.723,75.92,170.39096312968,109.580056,6,P-GPS,
18800,2023-07-24 17:19:51,52.2071963422467,0.0867934778715797,109.580056,111.3189012,59.072061929676,170.39096312968,83.66142,9.4175174,86.262798036,121.147969756,18,5,15.799,170.39096312968,109.580056,20.0429824,86.262798036,-0.671082,-9.395148,-0.223694,267.6, 17.4, 4.5,0,0,1024,1024,1024,1024,0,0,0,0,267.8,-90,0,72,3.933,3.933,3.925,3.928,0,0,7.723,75.92,170.39096312968,109.580056,6,P-GPS,
19000,2023-07-24 17:19:51,52.2071956036756,0.0867830254798412,109.580056,111.3189012,59.072061929676,170.39096312968,83.66142,7.4042714,87.7214595,123.500332036,18,5,15.799,170.39096312968,109.580056,20.0429824,87.7214595,-0.671082,-7.381902,0,268.3, 28, 4.9,0,0,1024,1024,1024,1024,0,0,0,0,267.8,-90,0,72,3.933,3.933,3.925,3.928,0,0,7.723,75.92,170.39096312968,109.580056,6,P-GPS,
19200,2023-07-24 17:19:51,52.2071949111775,0.086775646416389,109.580056,111.3189012,59.072061929676,170.39096312968,83.66142,4.7423128,88.826774496,125.169623428,18,5,15.799,170.39096312968,109.580056,20.0429824,88.826774496,-0.671082,-4.697574,0,269.2, 28.6, 5.1,0,0,1024,1024,1024,1024,0,0,0,0,267.8,-90,0,72,3.933,3.933,3.925,3.928,0,0,7.723,75.92,170.39096312968,109.580056,6,P-GPS,
19400,2023-07-24 17:19:51,52.2071943171132,0.0867716939098703,109.90814,111.6469852,59.072061929676,170.71904712968,83.66142,2.2816788,89.493769268,126.07940036,18,5,15.68,170.71904712968,109.90814,20.0429824,89.493769268,-0.447388,-2.23694,-0.223694,268.9, 22, 7.7,0,0,1024,1024,1024,1024,0,0,0,0,267.8,-89.9,0,72,3.918,3.919,3.917,3.911,0,0,8.15,75.92,170.71904712968,109.90814,6,P-GPS,
19600,2023-07-24 17:19:52,52.2071938616959,0.0867702921931341,110.236224,111.9750692,59.072061929676,171.04713112968,83.66142,0.9171454,89.805777152,126.434059164,18,5,15.68,171.04713112968,110.236224,20.0429824,89.805777152,-0.223694,-0.894776,-0.223694,268, 9.9, 9.9,0,0,1024,1024,1503,1024,0,0,73,0,267.8,-90,0,72,3.918,3.919,3.917,3.911,0,0,8.15,75.92,171.04713112968,110.236224,6,P-GPS,
19800,2023-07-24 17:19:52,52.2071935938427,0.0867698911394502,110.236224,111.9750692,59.072061929676,171.04713112968,83.66142,0.447388,89.936682668,126.5666051,18,5,15.68,171.04713112968,110.236224,20.0429824,89.936682668,0,-0.447388,0,267.9, 5.5, 8.9,0,0,1024,1024,1684,1024,0,0,100,0,267.8,-90,0,72,3.918,3.919,3.917,3.911,0,0,8.15,75.92,171.04713112968,110.236224,6,P-GPS,
20000,2023-07-24 17:19:52,52.2071934839291,0.0867699587879017,110.564308,112.3031532,59.072061929676,171.37521512968,83.66142,0,89.961617052,126.609584104,18,5,15.68,171.37521512968,110.564308,20.0429824,89.961617052,0,0,-1.342164,267.7, 2.5, 5.8,0,0,1024,1024,1684,1024,0,0,100,0,267.8,-89.9,0,72,3.918,3.919,3.917,3.911,0,0,8.15,75.92,171.37521512968,110.564308,6,P-GPS,
20200,2023-07-24 17:19:52,52.2071933994936,0.086770315357731,111.876644,113.6154892,59.072061929676,172.68755112968,83.66142,0,89.943244348,126.695214028,18,5,15.68,172.68755112968,111.876644,20.0429824,89.961617052,0,0,-3.579104,267.5, 1.6, 6.6,0,0,1024,1024,1684,1024,0,0,100,0,267.8,-89.9,0,72,3.918,3.919,3.917,3.911,0,0,8.15,75.92,172.68755112968,111.876644,6,P-GPS,
20400,2023-07-24 17:19:53,52.2071933627073,0.0867707589520717,113.517064,115.2559092,59.072061929676,174.32797112968,83.66142,0,89.899609176,126.795279648,18,5,15.66,174.32797112968,113.517064,20.0429824,89.961617052,0,0,-5.816044,267.5, 1.3, 7.3,0,0,1024,1024,1684,1024,0,0,100,0,267.8,-89.9,0,72,3.93,3.934,3.932,3.929,0,0,8.667,75.92,174.32797112968,113.517064,6,P-GPS,
20600,2023-07-24 17:19:53,52.2071935085333,0.086771262254314,116.797904,118.5367492,59.072061929676,177.60881112968,83.66142,0.223694,89.792981876,126.919623484,18,5,15.66,177.60881112968,116.797904,20.0429824,89.961617052,0.223694,0,-8.276678,267.5, 0.5, 6.1,0,0,1024,1024,1684,1024,0,0,100,0,267.8,-90,0,72,3.93,3.934,3.932,3.929,0,0,8.667,75.92,177.60881112968,116.797904,6,P-GPS,
20800,2023-07-24 17:19:53,52.2071937501375,0.0867716537178269,121.39108,123.1299252,59.072061929676,182.20198712968,83.66142,0.223694,89.671262712,127.04396732,18,5,15.66,182.20198712968,121.39108,20.0429824,89.961617052,0.223694,0,-10.737312,267.7, 0.1, 5.1,0,0,1024,1024,1669,1024,0,0,98,0,267.8,-90,0,72,3.93,3.934,3.932,3.929,0,0,8.667,75.92,182.20198712968,121.39108,6,P-GPS,
21000,2023-07-24 17:19:53,52.2071939642762,0.0867718905503164,125.656172,127.3950172,59.072061929676,186.46707912968,83.66142,0.223694,89.57677452,127.138127428,18,5,15.66,186.46707912968,125.656172,20.0429824,89.961617052,0.223694,0,-12.30317,267.7, -0.8, 5.5,0,0,1024,1024,1098,1024,0,0,11,0,267.8,-89.9,0,72,3.93,3.934,3.932,3.929,0,0,8.667,75.92,186.46707912968,125.656172,6,P-GPS,
21200,2023-07-24 17:19:53,52.2071942053321,0.0867719132256188,130.249348,131.9881932,59.072061929676,191.06025512968,83.66142,0.223694,89.500659032,127.226382024,17,5,15.66,191.06025512968,130.249348,20.0429824,89.961617052,0.223694,0,-12.750558,267.7, -0.8, 5.5,0,0,1024,1024,1024,1024,0,0,0,0,267.8,-90,0,72,3.93,3.934,3.932,3.929,0,0,8.667,75.92,191.06025512968,130.249348,6,P-GPS,
21400,2023-07-24 17:19:54,52.207194449335,0.086771708113389,133.530188,135.2690332,59.072061929676,194.34109512968,83.66142,0,89.451774516,127.326447644,18,5,15.501,194.34109512968,133.530188,20.0429824,89.961617052,0,0,-10.961006,267.8, 0, 5.2,0,0,1024,1024,1305,1024,0,0,43,0,267.8,-90,0,72,3.827,3.827,3.824,3.815,0,0,10.234,75.92,194.34109512968,133.530188,6,P-GPS,
21600,2023-07-24 17:19:54,52.2071946012093,0.0867714123558688,136.15486,137.8937052,59.072061929676,196.96576712968,83.66142,0.223694,89.44226008,127.412733736,18,5,15.501,196.96576712968,136.15486,20.0429824,89.961617052,0,-0.223694,-9.171454,267.3, -0.9, 5.6,0,0,1024,1024,1684,1024,0,0,100,0,267.8,-90,0,72,3.827,3.827,3.824,3.815,0,0,10.234,75.92,196.96576712968,136.15486,6,P-GPS,
21800,2023-07-24 17:19:54,52.2071946329583,0.0867709554107798,138.123364,139.8622092,59.072061929676,198.93427112968,83.66142,0.223694,89.489176092,127.515424028,18,5,15.501,198.93427112968,138.123364,20.0429824,89.961617052,0,-0.223694,-8.052984,267.6, 0.6, 6.4,0,0,1024,1024,1684,1024,0,0,100,0,267.8,-89.9,0,72,3.827,3.827,3.824,3.815,0,0,10.234,75.92,198.93427112968,138.123364,6,P-GPS,
22000,2023-07-24 17:19:54,52.2071946926012,0.0867704176622088,140.419952,142.1587972,59.072061929676,201.23085912968,83.66142,0.223694,89.537732524,127.63779936,18,5,15.501,201.23085912968,140.419952,20.0429824,89.961617052,0,-0.223694,-9.618842,267.6, 3.5, 5.6,0,0,1024,1024,1026,1024,0,0,0,0,267.8,-90,0,72,3.827,3.827,3.824,3.815,0,0,10.234,75.92,201.23085912968,140.419952,6,P-GPS,
22200,2023-07-24 17:19:54,52.2071948465829,0.0867700897929935,143.700792,145.4396372,59.072061929676,204.51169912968,83.66142,0,89.531827012,127.729990964,18,5,15.501,204.51169912968,143.700792,20.0429824,89.961617052,0,0,-11.408394,267.6, 3.3, 4.7,0,0,1024,1024,1024,1024,0,0,0,0,267.8,-90,0,72,3.827,3.827,3.824,3.815,0,0,10.234,75.92,204.51169912968,143.700792,6,P-GPS,
22400,2023-07-24 17:19:54,52.2071949662799,0.0867699291646182,146.981632,148.7204772,59.072061929676,207.79253912968,83.66142,0,89.515750896,127.786749496,18,5,15.345,207.79253912968,146.981632,20.0429824,89.961617052,0,0,-10.289924,267.7, 2.7, 5.5,0,0,1024,1024,1024,1024,0,0,0,0,267.8,-90,0,72,3.939,3.942,3.944,3.941,0,0,15.588,75.92,207.79253912968,146.981632,6,P-GPS,
22600,2023-07-24 17:19:55,52.2071949898218,0.0867697385914232,149.27822,151.0170652,59.072061929676,210.08912712968,83.66142,0,89.532155096,127.830056584,18,5,15.345,210.08912712968,149.27822,20.0429824,89.961617052,0,0,-8.052984,267.7, 3.6, 4.7,0,0,1024,1024,1024,1024,0,0,0,0,267.8,-90,0,72,3.939,3.942,3.944,3.941,0,0,15.588,75.92,210.08912712968,149.27822,6,P-GPS,
22800,2023-07-24 17:19:55,52.2071949070139,0.086769621971588,150.262472,152.0013172,59.072061929676,211.07337912968,83.66142,0,89.57185326,127.870082832,18,5,15.345,211.07337912968,150.262472,20.0429824,89.961617052,0,0,-6.039738,267.5, 3.2, 5.7,0,0,1024,1024,1024,1024,0,0,0,0,267.8,-89.9,0,72,3.939,3.942,3.944,3.941,0,0,15.588,75.92,211.07337912968,150.262472,6,P-GPS,
23000,2023-07-24 17:19:55,52.2071946909563,0.0867695400636985,150.91864,152.6574852,59.072061929676,211.72954712968,83.66142,0.223694,89.647640664,127.950791496,18,5,15.345,211.72954712968,150.91864,20.0429824,89.961617052,-0.223694,0,-3.579104,267.6, 3.7, 7.6,0,0,1024,1024,1024,1024,0,0,0,0,267.8,-90,0,72,3.939,3.942,3.944,3.941,0,0,15.588,75.92,211.72954712968,150.91864,6,P-GPS,
23200,2023-07-24 17:19:55,52.2071944177059,0.0867695168012428,151.246724,152.9855692,59.072061929676,212.05763112968,83.66142,0.223694,89.733270588,128.050857116,18,5,15.345,212.05763112968,151.246724,20.0429824,89.961617052,-0.223694,0,-1.11847,267.7, 4.4, 8.1,0,0,1024,1024,1024,1024,0,0,0,0,267.8,-89.9,0,72,3.939,3.942,3.944,3.941,0,0,15.588,75.92,212.05763112968,151.246724,6,P-GPS,
23400,2023-07-24 17:19:55,52.2071941791858,0.0867695786061207,151.246724,152.9855692,59.072061929676,212.05763112968,83.66142,0,89.797903136,128.138783628,18,5,15.226,212.05763112968,151.246724,20.0429824,89.961617052,0,0,0,267.6, 4.2, 7,0,0,1024,1024,824,1024,0,0,-30,0,267.8,-89.9,0,71,3.934,3.936,3.938,3.936,0,0,11.378,75.92,212.05763112968,151.246724,6,P-GPS,
23600,2023-07-24 17:19:56,52.2071939571313,0.0867698196465424,151.246724,152.9855692,59.072061929676,212.05763112968,83.66142,0,89.835304712,128.236224576,18,5,15.226,212.05763112968,151.246724,20.0429824,89.961617052,0,0,0,267.6, 3.8, 5.8,0,0,1024,1024,621,1024,0,0,-61,0,267.8,-89.9,0,71,3.934,3.936,3.938,3.936,0,0,11.378,75.92,212.05763112968,151.246724,6,P-GPS,
23800,2023-07-24 17:19:56,52.2071937525534,0.0867702261523644,150.91864,152.6574852,59.072061929676,211.72954712968,83.66142,0,89.846787652,128.353678648,18,5,15.226,212.05763112968,151.246724,20.0429824,89.961617052,0,0,0.894776,267.7, 4.4, 6.2,0,0,1024,1024,657,1024,0,0,-56,0,267.8,-90,0,71,3.934,3.936,3.938,3.936,0,0,11.378,75.92,211.72954712968,150.91864,6,P-GPS,
24000,2023-07-24 17:19:56,52.2071934781379,0.0867707193052421,150.262472,152.0013172,59.072061929676,211.07337912968,83.66142,0.223694,89.869425448,128.502628784,18,5,15.226,212.05763112968,151.246724,20.0429824,89.961617052,0,0.223694,3.35541,267.6, 5.4, 5.8,0,0,1024,1024,1024,1024,0,0,0,0,267.7,-90,0,71,3.934,3.936,3.938,3.936,0,0,11.378,75.92,211.07337912968,150.262472,6,P-GPS,
24200,2023-07-24 17:19:56,52.2071932155276,0.0867714241268951,148.950136,150.6889812,59.072061929676,209.76104312968,83.66142,0.223694,89.8622076,128.687011992,18,5,15.226,212.05763112968,151.246724,20.0429824,89.961617052,0,0.223694,3.802798,267.8, 1.7, 3.4,0,0,1024,1024,1024,1024,0,0,0,0,267.7,-89.9,0,71,3.934,3.936,3.938,3.936,0,0,11.378,75.92,209.76104312968,148.950136,6,P-GPS,
24400,2023-07-24 17:19:56,52.207192771333,0.086772237152519,147.965884,149.7047292,59.072061929676,208.77679112968,83.66142,0.3131716,89.897640672,128.930778404,18,5,15.873,212.05763112968,151.246724,20.0429824,89.961617052,-0.223694,0.223694,2.013246,267.2, 2.8, 6.9,0,0,1024,1024,1024,1024,0,0,0,0,267.7,-90,0,71,3.943,3.941,3.94,3.936,0,0,4.698,76.64,208.77679112968,147.965884,6,P-GPS,
24600,2023-07-24 17:19:57,52.2071923700586,0.0867730815069669,147.6378,149.3766452,59.072061929676,208.44870712968,83.66142,0.223694,89.916669544,129.169623556,18,5,15.873,212.05763112968,151.246724,20.0429824,89.961617052,0,0.223694,0.447388,267.6, 1.7, 7.9,0,0,1024,1024,1024,1024,0,0,0,0,267.7,-90,0,71,3.943,3.941,3.94,3.936,0,0,4.698,76.64,208.44870712968,147.6378,6,P-GPS,
24800,2023-07-24 17:19:57,52.2071921174545,0.0867738950917844,147.6378,149.3766452,59.072061929676,208.44870712968,83.66142,0.223694,89.894359832,129.37336372,18,5,15.873,212.05763112968,151.246724,20.0429824,89.961617052,0,0.223694,0,267.7, 2.2, 7.9,0,0,1024,1024,1024,1024,0,0,0,0,267.7,-89.9,0,71,3.943,3.941,3.94,3.936,0,0,4.698,76.64,208.44870712968,147.6378,6,P-GPS,
25000,2023-07-24 17:19:57,52.2071919624104,0.0867746490106397,147.6378,149.3766452,59.072061929676,208.44870712968,83.66142,0.223694,89.850396576,129.551185248,18,5,15.873,212.05763112968,151.246724,20.0429824,89.961617052,0,0.223694,0,267.5, 0.7, 6.7,0,0,1024,1024,1024,1024,0,0,0,0,267.7,-89.9,0,71,3.943,3.941,3.94,3.936,0,0,4.698,76.64,208.44870712968,147.6378,6,P-GPS,
25200,2023-07-24 17:19:57,52.207191772242,0.0867752791519812,147.6378,149.3766452,59.072061929676,208.44870712968,83.66142,0,89.832023872,129.708337484,18,5,15.873,212.05763112968,151.246724,20.0429824,89.961617052,0,0,0,267.4, -0.2, 8.1,0,0,1024,526,1024,1024,0,-75,0,0,267.7,-89.9,0,71,3.943,3.941,3.94,3.936,0,0,4.698,76.64,208.44870712968,147.6378,6,P-GPS,
25400,2023-07-24 17:19:57,52.2071916343318,0.0867756359594678,147.6378,149.3766452,59.072061929676,208.44870712968,83.66142,0,89.831367704,129.802825676,18,5,15.721,212.05763112968,151.246724,20.0429824,89.961617052,0,0,0,267.4, 0.1, 0.8,0,0,1024,405,1024,1024,0,-94,0,0,267.7,-90,0,71,3.884,3.883,3.865,3.85,0,0,6.883,76.64,208.44870712968,147.6378,6,P-GPS,
25600,2023-07-24 17:19:58,52.2071911468571,0.086775775282565,147.965884,149.7047292,59.072061929676,208.77679112968,83.66142,0.894776,89.96391364,129.983271876,18,5,15.721,212.05763112968,151.246724,20.0429824,89.96391364,-0.894776,0,0,267.7, 0, -14.4,0,0,1024,1024,1024,1024,0,0,0,0,267.7,-90,0,71,3.884,3.883,3.865,3.85,0,0,6.883,76.64,208.77679112968,147.965884,6,P-GPS,
25800,2023-07-24 17:19:58,52.2071895327814,0.086775809617055,147.965884,149.7047292,59.072061929676,208.77679112968,83.66142,2.684328,90.456367724,130.572182656,18,5,15.721,212.05763112968,151.246724,20.0429824,90.456367724,-2.684328,0,0,267.8, 0.1, -6.9,0,0,1024,1024,1024,1024,0,0,0,0,267.7,-90,0,71,3.884,3.883,3.865,3.85,0,0,6.883,76.64,208.77679112968,147.965884,6,P-GPS,
26000,2023-07-24 17:19:58,52.2071871816082,0.0867757953715968,147.6378,149.3766452,59.072061929676,208.44870712968,83.66142,2.460634,91.1827457,131.430122316,18,5,15.721,212.05763112968,151.246724,20.0429824,91.1827457,-2.460634,0,0.223694,267.8, 5.2, 24.8,0,0,1024,1024,1024,483,0,0,0,-82,267.7,-89.9,0,71,3.884,3.883,3.865,3.85,0,0,6.883,76.64,208.44870712968,147.6378,6,P-GPS,
26200,2023-07-24 17:19:58,52.2071857705513,0.0867759132356379,147.6378,149.3766452,59.072061929676,208.44870712968,83.66142,0.894776,91.604989808,131.94554228,20,5,15.721,212.05763112968,151.246724,20.0429824,91.604989808,-0.894776,0,0,268.4, 3.5, 22.1,0,0,1024,1024,1024,364,0,0,0,-100,261.8,-89.9,0,71,3.884,3.883,3.865,3.85,0,0,6.883,76.64,208.44870712968,147.6378,6,P-GPS,
26400,2023-07-24 17:19:58,52.207185441753,0.0867760551170461,147.6378,149.3766452,59.072061929676,208.44870712968,83.66142,0,91.689963564,132.069558032,20,5,15.663,212.05763112968,151.246724,20.0429824,91.689963564,0,0,0,260.2, 2.9, 12.4,0,0,1024,1024,1024,1024,0,0,0,0,250.6,-89.9,0,71,3.915,3.912,3.904,3.907,0,0,9.519,76.64,208.44870712968,147.6378,6,P-GPS,
26600,2023-07-24 17:19:59,52.207185571559,0.0867760035034724,147.965884,149.7047292,59.072061929676,208.77679112968,83.66142,0.223694,91.655842828,132.118442548,20,5,15.663,212.05763112968,151.246724,20.0429824,91.689963564,0.223694,0,0,247.9, 2.3, 7.4,0,0,1024,1024,1024,1330,0,0,0,46,248.1,-89.9,0,71,3.915,3.912,3.904,3.907,0,0,9.519,76.64,208.77679112968,147.965884,6,P-GPS,
26800,2023-07-24 17:19:59,52.2071857560218,0.0867757007420518,147.965884,149.7047292,59.072061929676,208.77679112968,83.66142,0.223694,91.634845452,132.213914992,19,5,15.663,212.05763112968,151.246724,20.0429824,91.689963564,0,-0.223694,0,248.3, 5.1, 6.5,0,0,1024,1024,1024,1684,0,0,0,100,248.8,-90,0,71,3.915,3.912,3.904,3.907,0,0,9.519,76.64,208.77679112968,147.965884,6,P-GPS,
27000,2023-07-24 17:19:59,52.2071859299131,0.08677542009674,147.965884,149.7047292,59.072061929676,208.77679112968,83.66142,0.223694,91.61417616,132.30315384,19,5,15.663,212.05763112968,151.246724,20.0429824,91.689963564,0,-0.223694,0,249.7, 6, 5.8,0,0,1024,1024,1024,1684,0,0,0,100,258.3,-90,0,71,3.915,3.912,3.904,3.907,0,0,9.519,76.64,208.77679112968,147.965884,6,P-GPS,
27200,2023-07-24 17:19:59,52.2071860760304,0.0867753518052158,147.965884,149.7047292,59.072061929676,208.77679112968,83.66142,0,91.577102668,132.358600036,19,5,15.663,212.05763112968,151.246724,20.0429824,91.689963564,0,0,0,261.4, 6.3, 7.4,0,0,1024,1024,1024,1024,0,0,0,0,270.2,-90,0,71,3.915,3.912,3.904,3.907,0,0,9.519,76.64,208.77679112968,147.965884,6,P-GPS,
27400,2023-07-24 17:19:59,52.2071861905872,0.086775505219993,147.965884,149.7047292,59.072061929676,208.77679112968,83.66142,0,91.523624976,132.412405812,19,5,15.569,212.05763112968,151.246724,20.0429824,91.689963564,0,0,0,273.3, 4.6, 7,0,0,1024,1024,1024,1024,0,0,0,0,275.3,-90,0,71,3.904,3.901,3.906,3.903,0,0,8.924,76.64,208.77679112968,147.965884,6,P-GPS,
27600,2023-07-24 17:20:00,52.2071862357349,0.0867759439633288,147.965884,149.7047292,59.072061929676,208.77679112968,83.66142,0.223694,91.457352008,132.512143348,20,5,15.569,212.05763112968,151.246724,20.0429824,91.689963564,0,0.223694,0,275.8, 2.4, 6.7,0,0,1024,1024,1024,1024,0,0,0,0,275.4,-89.9,0,71,3.904,3.901,3.906,3.903,0,0,8.924,76.64,208.77679112968,147.965884,6,P-GPS,
27800,2023-07-24 17:20:00,52.2071862123986,0.0867765020246091,147.965884,149.7047292,59.072061929676,208.77679112968,83.66142,0.223694,91.398624972,132.637143352,20,5,15.569,212.05763112968,151.246724,20.0429824,91.689963564,0,0.223694,0,274.9, 0.5, 7.3,0,0,1024,1024,1024,1024,0,0,0,0,275.4,-90,0,71,3.904,3.901,3.906,3.903,0,0,8.924,76.64,208.77679112968,147.965884,6,P-GPS,
28000,2023-07-24 17:20:00,52.2071861093557,0.0867769968550677,147.965884,149.7047292,59.072061929676,208.77679112968,83.66142,0.223694,91.372050168,132.753941256,20,5,15.569,212.05763112968,151.246724,20.0429824,91.689963564,0,0.223694,0,275, -0.7, 8,0,0,1024,1024,989,1623,0,0,-5,91,275.4,-90,0,71,3.904,3.901,3.906,3.903,0,0,8.924,76.64,208.77679112968,147.965884,6,P-GPS,
28200,2023-07-24 17:20:00,52.2071860009157,0.0867773388718823,147.965884,149.7047292,59.072061929676,208.77679112968,83.66142,0,91.365160404,132.839899264,20,5,15.569,212.05763112968,151.246724,20.0429824,91.689963564,0,0,0,275.3, -0.4, 7.8,0,0,1024,1024,1024,1024,0,0,0,0,280.5,-89.9,0,71,3.904,3.901,3.906,3.903,0,0,8.924,76.64,208.77679112968,147.965884,6,P-GPS,
28400,2023-07-24 17:20:00,52.2071858920987,0.0867775192817328,147.965884,149.7047292,59.072061929676,208.77679112968,83.66142,0,91.377627596,132.896657796,21,5,15.656,212.05763112968,151.246724,20.0429824,91.689963564,0,0,0,281.8, -0.2, 7.6,0,0,1024,1024,1024,1024,0,0,0,0,282.8,-90,0,71,3.912,3.912,3.914,3.912,0,0,7.931,76.82,208.77679112968,147.965884,6,P-GPS,
28600,2023-07-24 17:20:01,52.2071857691292,0.0867776650215772,147.965884,149.7047292,59.072061929676,208.77679112968,83.66142,0,91.398624972,132.952103992,21,5,15.656,212.05763112968,151.246724,20.0429824,91.689963564,0,0,0,282.9, -0.3, 7.1,0,0,1024,1024,1024,1024,0,0,0,0,282.8,-89.9,0,71,3.912,3.912,3.914,3.912,0,0,7.931,76.82,208.77679112968,147.965884,6,P-GPS,
28800,2023-07-24 17:20:01,52.2071856443606,0.0867778016046256,147.965884,149.7047292,59.072061929676,208.77679112968,83.66142,0,91.421262768,133.00689402,21,5,15.656,212.05763112968,151.246724,20.0429824,91.689963564,0,0,0,282.4, -1.1, 6.4,0,0,1024,1024,1016,620,0,0,-1,-61,282.8,-90,0,71,3.912,3.912,3.914,3.912,0,0,7.931,76.82,208.77679112968,147.965884,6,P-GPS,
29000,2023-07-24 17:20:01,52.2071855184098,0.0867778286276586,147.965884,149.7047292,59.072061929676,208.77679112968,83.66142,0,91.457023924,133.053153864,21,5,15.656,212.05763112968,151.246724,20.0429824,91.689963564,0,0,0,282.7, -0.6, 6.8,0,0,1024,1024,1024,1024,0,0,0,0,282.4,-89.9,0,71,3.912,3.912,3.914,3.912,0,0,7.931,76.82,208.77679112968,147.965884,6,P-GPS,
29200,2023-07-24 17:20:01,52.2071853370139,0.0867777920144545,147.965884,149.7047292,59.072061929676,208.77679112968,83.66142,0,91.517719464,133.120083,21,5,15.656,212.05763112968,151.246724,20.0429824,91.689963564,0,0,0,281.9, -0.7, 7.1,0,0,1024,1024,1024,1024,0,0,0,0,279.7,-90,0,71,3.912,3.912,3.914,3.912,0,0,7.931,76.82,208.77679112968,147.965884,6,P-GPS,
29400,2023-07-24 17:20:01,52.2071851820898,0.0867776791831563,147.965884,149.7047292,59.072061929676,208.77679112968,83.66142,0,91.579071172,133.181762792,21,5,15.67,212.05763112968,151.246724,20.0429824,91.689963564,0,0,0,278.9, -1.1, 6.4,0,0,1024,1024,1024,1024,0,0,0,0,279.6,-89.9,0,71,3.914,3.915,3.916,3.913,0,0,7.769,76.82,208.77679112968,147.965884,6,P-GPS,
29600,2023-07-24 17:20:02,52.2071850536203,0.0867774323271206,147.965884,149.7047292,59.072061929676,208.77679112968,83.66142,0,91.647968812,133.254269356,21,5,15.67,212.05763112968,151.246724,20.0429824,91.689963564,0,0,0,279.5, -0.7, 6.3,0,0,1024,364,1024,1024,0,-100,0,0,279.6,-90,0,71,3.914,3.915,3.916,3.913,0,0,7.769,76.82,208.77679112968,147.965884,6,P-GPS,
29800,2023-07-24 17:20:02,52.207184946294,0.0867770561855137,147.965884,149.7047292,59.072061929676,208.77679112968,83.66142,0.223694,91.725396636,133.347117128,21,5,15.67,212.05763112968,151.246724,20.0429824,91.725396636,0,-0.223694,0,279.4, 1.2, 4.2,0,0,1024,364,1024,1024,0,-100,0,0,279.6,-90,0,71,3.914,3.915,3.916,3.913,0,0,7.769,76.82,208.77679112968,147.965884,6,P-GPS,
30000,2023-07-24 17:20:02,52.2071846068899,0.0867765892867778,147.965884,149.7047292,59.072061929676,208.77679112968,83.66142,0.7158208,91.885829712,133.50886254,21,5,15.67,212.05763112968,151.246724,20.0429824,91.885829712,-0.671082,-0.223694,0,279.9, 1, -18.9,0,0,1024,364,1024,1024,0,-100,0,0,279.6,-89.9,0,71,3.914,3.915,3.916,3.913,0,0,7.769,76.82,208.77679112968,147.965884,6,P-GPS,
30200,2023-07-24 17:20:02,52.2071828961794,0.0867758148455156,147.965884,149.7047292,59.072061929676,208.77679112968,83.66142,2.9751302,92.507876976,134.15682844,21,5,15.67,212.05763112968,151.246724,20.0429824,92.507876976,-2.908022,-0.671082,0,279.4, 0.8, -24.3,0,0,1024,364,1024,1024,0,-100,0,0,279.6,-90,0,71,3.914,3.915,3.916,3.913,0,0,7.769,76.82,208.77679112968,147.965884,6,P-GPS,
30400,2023-07-24 17:20:02,52.2071793012954,0.0867745674662261,147.965884,149.7047292,59.072061929676,208.77679112968,83.66142,5.4357642,93.771656544,135.497707748,21,5,15.662,212.05763112968,151.246724,20.0429824,93.771656544,-5.368656,-0.894776,0,279, 1.3, -22.4,0,0,1024,364,1024,1024,0,-100,0,0,279.6,-90,0,71,3.912,3.914,3.914,3.911,0,0,7.702,76.82,208.77679112968,147.965884,6,P-GPS,
30600,2023-07-24 17:20:03,52.207173857688,0.0867728483092361,147.965884,149.7047292,59.072061929676,208.77679112968,83.66142,7.493749,95.669950568,137.520673692,21,5,15.662,212.05763112968,151.246724,20.0429824,95.669950568,-7.381902,-1.342164,0,279.3, 1.1, -20.2,0,0,1040,364,1024,1024,2,-100,0,0,279.6,-90,0,71,3.912,3.914,3.914,3.911,0,0,7.702,76.82,208.77679112968,147.965884,6,P-GPS,
30800,2023-07-24 17:20:03,52.2071669171489,0.0867707416869678,147.965884,149.7047292,59.072061929676,208.77679112968,83.66142,9.3056704,98.087929648,140.096133092,21,5,15.662,212.05763112968,151.246724,20.0429824,98.087929648,-9.171454,-1.565858,0,279, 1.3, -20.6,0,0,1045,364,1024,1024,3,-100,0,0,279.6,-90,0,71,3.912,3.914,3.914,3.911,0,0,7.702,76.82,208.77679112968,147.965884,6,P-GPS,
31000,2023-07-24 17:20:03,52.2071585944234,0.0867682379393509,147.965884,149.7047292,59.072061929676,208.77679112968,83.66142,10.8938978,100.995081972,143.1840597,21,5,15.662,212.05763112968,151.246724,20.0429824,100.995081972,-10.737312,-1.789552,0,279.4, 1, -21.6,0,0,1024,364,1024,1024,0,-100,0,0,279.6,-89.9,0,71,3.912,3.914,3.914,3.911,0,0,7.702,76.82,208.77679112968,147.965884,6,P-GPS,
31200,2023-07-24 17:20:03,52.2071488691565,0.0867653370384258,147.965884,149.7047292,59.072061929676,208.77679112968,83.66142,12.7281886,104.402562396,146.791015196,21,5,15.662,212.05763112968,151.246724,20.0429824,104.402562396,-12.526864,-2.23694,0,279.2, 1.5, -21.8,0,0,1024,622,1024,1024,0,-61,0,0,279.6,-90,0,71,3.912,3.914,3.914,3.911,0,0,7.702,76.82,208.77679112968,147.965884,6,P-GPS,
31400,2023-07-24 17:20:04,52.2071377589276,0.0867620741155333,147.6378,149.3766452,59.072061929676,208.44870712968,83.66142,14.316416,108.305777744,150.909781732,21,5,15.599,212.05763112968,151.246724,20.0429824,108.305777744,-14.092722,-2.460634,0,279.2, 1.4, -20.4,0,0,1024,1024,1024,1024,0,0,0,0,279.6,-90,0,71,3.898,3.901,3.899,3.897,0,0,8.353,76.82,208.44870712968,147.6378,6,P-GPS,
31600,2023-07-24 17:20:04,52.207125508305,0.0867585326862447,147.6378,149.3766452,59.072061929676,208.44870712968,83.66142,15.2335614,112.621722764,155.448823872,21,5,15.599,212.05763112968,151.246724,20.0429824,112.621722764,-14.987498,-2.684328,0,279.4, 1.3, 5.6,0,0,1024,1024,1024,1024,0,0,0,0,279.6,-89.9,0,71,3.898,3.901,3.899,3.897,0,0,8.353,76.82,208.44870712968,147.6378,6,P-GPS,
31800,2023-07-24 17:20:04,52.2071135775369,0.0867550992652092,147.6378,149.3766452,59.072061929676,208.44870712968,83.66142,13.6005952,116.839570668,159.869099604,21,5,15.599,212.05763112968,151.246724,20.0429824,116.839570668,-13.42164,-2.23694,0,279.5, 1.1, 29.3,0,0,1024,1024,1024,1024,0,0,0,0,279.6,-89.9,0,71,3.898,3.901,3.899,3.897,0,0,8.353,76.82,208.44870712968,147.6378,6,P-GPS,
