time(millisecond),datetime(utc),latitude,longitude,height_above_takeoff(feet),height_above_ground_at_drone_location(feet),ground_elevation_at_drone_location(feet),altitude_above_seaLevel(feet),height_sonar(feet),speed(mph),distance(feet),mileage(feet),satellites,gpslevel,voltage(v),max_altitude(feet),max_ascent(feet),max_speed(mph),max_distance(feet), xSpeed(mph), ySpeed(mph), zSpeed(mph), compass_heading(degrees), pitch(degrees), roll(degrees),isPhoto,isVideo,rc_elevator,rc_aileron,rc_throttle,rc_rudder,rc_elevator(percent),rc_aileron(percent),rc_throttle(percent),rc_rudder(percent),gimbal_heading(degrees),gimbal_pitch(degrees),gimbal_roll(degrees),battery_percent,voltageCell1,voltageCell2,voltageCell3,voltageCell4,voltageCell5,voltageCell6,current(A),battery_temperature(f),altitude(feet),ascent(feet),flycStateRaw,flycState,message
71800,2022-07-09 11:21:50,52.1731875717381,0.105466403174706,0,0,61.026907136588,57.877300736588,0,0,0,0,22,5,0,57.877300736588,0,0,0,0,0,0,274.5, 3, 0.5,0,0,1024,1024,1024,1024,0,0,0,0,268.5,-2.9,0,84,4.16,4.161,4.16,4.157,0,0,0,102.2,57.877300736588,0,41,Motors_Started,
72000,2022-07-09 11:21:50,52.1731875601213,0.10546649664466,0,0,61.026907136588,57.877300736588,0,0,0.0213393707616,0.0213393707616,22,5,0,57.877300736588,0,0,0.0213393707616,0,0,0,274.5, 3, 0.5,0,0,1024,1024,1024,1024,0,0,0,0,268.5,-2.9,0,84,4.16,4.161,4.16,4.157,0,0,0,102.2,57.877300736588,0,41,Motors_Started,
72200,2022-07-09 11:21:50,52.1731875651244,0.105466604286147,0,-0.032808399999993,61.059715536588,57.877300736588,0,0,0.04506397782,0.04549376786,22,5,0,57.877300736588,0,0,0.04506397782,0,0,0,274.5, 3, 0.5,0,0,1024,1024,1024,1024,0,0,0,0,268.5,-2.9,0,84,4.16,4.161,4.16,4.157,0,0,0,102.2,57.877300736588,0,41,Motors_Started,
72400,2022-07-09 11:21:50,52.1731875785573,0.10546671237988,0,-0.032808399999993,61.059715536588,57.877300736588,0,0,0.06923064526,0.070171590172,22,5,0,57.877300736588,0,0,0.06923064526,0,0,0,274.5, 3, 0.6,0,0,1024,1024,1024,1024,0,0,0,0,268.5,-2.9,0,84,4.16,4.161,4.16,4.157,0,0,0,102.2,57.877300736588,0,41,Motors_Started,"Setting new Return-To-Home altitude to 41m (135 ft). Data Recorder File Index is 5. Setting new Maximum Flight Altitude to 120m (394 ft)"
72600,2022-07-09 11:21:51,52.1731876089527,0.105466822519196,0,-0.032808399999993,61.059715536588,57.877300736588,0,0,98.415029396,0.094849412484,22,5,16.661,57.877300736588,0,0,98.415029396,0,0,0,274.5, 3, 0.6,0,0,1024,1024,1024,1024,0,0,0,0,268.5,-2.9,0,84,4.16,4.161,4.16,4.157,0,0,2.38,102.2,57.877300736588,0,41,Motors_Started,
72800,2022-07-09 11:21:51,52.1731876393482,0.105466932658511,0,-0.032808399999993,61.059715536588,57.877300736588,0,0,98.43012126,0.12532316674,22,5,16.661,57.877300736588,0,0,98.43012126,0,0,0,274.5, 3, 0.6,0,0,1024,1024,1024,1024,0,0,0,0,268.5,-2.9,0,84,4.16,4.161,4.16,4.157,0,0,2.38,102.2,57.877300736588,0,41,Motors_Started,
73000,2022-07-09 11:21:51,52.1731877034287,0.105467032108936,0,-0.032808399999993,61.059715536588,57.877300736588,0,0,98.45144672,0.157599742576,22,5,16.661,57.877300736588,0,0,98.45144672,0,0,0,274.5, 3, 0.6,0,0,1024,1024,1024,1024,0,0,0,0,268.5,-2.9,0,84,4.16,4.161,4.16,4.157,0,0,2.38,102.2,57.877300736588,0,41,Motors_Started,
73200,2022-07-09 11:21:51,52.1731877683317,0.105467128477454,0,-0.032808399999993,61.059715536588,57.877300736588,0,0,98.473100264,0.189626318404,22,5,16.661,57.877300736588,0,0,98.473100264,0,0,0,274.5, 3.1, 0.6,0,0,1024,1024,1024,1024,0,0,0,0,268.5,-2.9,0,84,4.16,4.161,4.16,4.157,0,0,2.38,102.2,57.877300736588,0,41,Motors_Started,
73400,2022-07-09 11:21:51,52.1731878540351,0.105467237865064,0,-0.032808399999993,61.059715536588,57.877300736588,0,0,98.501971656,0.229335309176,22,5,16.661,57.877300736588,0,0,98.501971656,0,0,0,274.6, 3.1, 0.6,0,0,1024,1024,1024,1024,0,0,0,0,268.5,-2.9,0,84,4.16,4.161,4.16,4.157,0,0,2.38,102.2,57.877300736588,0,11,AutoTakeoff,
73600,2022-07-09 11:21:52,52.1731879348382,0.105467317767644,0,-0.032808399999993,61.059715536588,57.877300736588,0,0,98.529858796,0.263813656736,22,5,16.654,57.877300736588,0,0,98.529858796,0,0,0,274.7, 2.8, 0.7,0,0,1024,1024,1024,1024,0,0,0,0,268.5,-2.9,0,84,4.169,4.167,4.166,4.162,0,0,4.508,102.2,57.877300736588,0,11,AutoTakeoff,
73800,2022-07-09 11:21:52,52.1731880556318,0.105467415733864,0,-0.032808399999993,61.059715536588,57.877300736588,0,0,98.571853548,0.313035771172,22,5,16.654,57.877300736588,0,0,98.571853548,0,0,-0.223694,274.2, -1.7, 0.1,0,0,1024,1024,1024,1024,0,0,0,0,268.5,-2.9,0,84,4.169,4.167,4.166,4.162,0,0,4.508,102.2,57.877300736588,0,11,AutoTakeoff,
74000,2022-07-09 11:21:52,52.1731882279296,0.10546736372385,0,-0.032808399999993,61.059715536588,57.877300736588,0.328084,0,98.635501844,0.37696523516,22,5,16.654,57.877300736588,0,0,98.635501844,0,0,-0.894776,274.3, -0.1, -0.9,0,0,1024,1024,1024,1024,0,0,0,0,268.5,-2.9,0,84,4.169,4.167,4.166,4.162,0,0,4.508,102.2,57.877300736588,0,11,AutoTakeoff,
74200,2022-07-09 11:21:52,52.1731883759659,0.105467184906905,0.328084,0.29527560000001,61.059715536588,58.205384736588,0.328084,0,98.692916544,0.44418308508,22,5,16.654,58.205384736588,0.328084,0,98.692916544,0,0,-0.894776,274.3, 2.1, -0.1,0,0,1024,1024,1024,1024,0,0,0,0,268.5,-2.9,0,84,4.169,4.167,4.166,4.162,0,0,4.508,102.2,58.205384736588,0.328084,11,AutoTakeoff,
74400,2022-07-09 11:21:52,52.1731884933326,0.105467155507435,0.656168,0.62335960000001,61.059715536588,58.533468736588,0.656168,0,98.736223632,0.48750657728,22,5,16.654,58.533468736588,0.656168,0,98.736223632,0,0,-0.894776,274.2, 1.6, -0.1,0,0,1024,1024,1024,1024,0,0,0,0,268.5,-2.9,0,84,4.169,4.167,4.166,4.162,0,0,4.508,102.2,58.533468736588,0.656168,11,AutoTakeoff,
74600,2022-07-09 11:21:53,52.173188685283,0.105467357492811,0.984252,0.9186352,61.092523936588,58.861552736588,0.984252,0,98.779202636,0.53083006948,22,5,16.582,58.861552736588,0.984252,0,98.779202636,0,0,-0.894776,274.1, 0.1, -1.4,0,0,1024,1024,1024,1024,0,0,0,0,268.5,-2.9,0,84,4.142,4.143,4.143,4.139,0,0,4.927,102.2,58.861552736588,0.984252,11,AutoTakeoff,
74800,2022-07-09 11:21:53,52.1731888772333,0.105467559478187,1.312336,1.2467192,61.092523936588,59.189636736588,1.312336,0,98.867785316,0.6681594702,22,5,16.582,59.189636736588,1.312336,0,98.867785316,0,0,-0.894776,274, -1.1, -1,0,0,1024,1024,1024,1024,0,0,0,0,268.4,-2.9,0,84,4.142,4.143,4.143,4.139,0,0,4.927,102.2,59.189636736588,1.312336,11,AutoTakeoff,
75000,2022-07-09 11:21:53,52.1731890515186,0.105467704904025,1.64042,1.5748032,61.092523936588,59.517720736588,1.64042,0,98.928480856,0.73958991868,22,5,16.582,59.517720736588,1.64042,0,98.928480856,0,0,-1.11847,274.1, -1.4, -1.5,0,0,1024,1024,1024,1024,0,0,0,0,268.4,-2.9,0,84,4.142,4.143,4.143,4.139,0,0,4.927,102.2,59.517720736588,1.64042,11,AutoTakeoff,
75200,2022-07-09 11:21:53,52.1731891637795,0.105467745382644,1.968504,1.9028872,61.092523936588,59.845804736588,1.968504,0,98.968507104,0.78153873892,22,5,16.582,59.845804736588,1.968504,0,98.968507104,0,0,-1.11847,274, -0.8, -1.7,0,0,1024,1024,1024,1024,0,0,0,0,268.4,-2.9,0,84,4.142,4.143,4.143,4.139,0,0,4.927,102.2,59.845804736588,1.968504,11,AutoTakeoff,
75400,2022-07-09 11:21:53,52.173189307875,0.10546772942832,2.296588,2.2309712,61.092523936588,60.173888736588,2.296588,0,99.021328628,0.83423231016,22,5,16.582,60.173888736588,2.296588,0,99.021328628,0,0,-1.11847,273.9, -0.3, -1,0,0,1024,1024,1024,1024,0,0,0,0,268.4,-2.9,0,84,4.142,4.143,4.143,4.139,0,0,4.927,102.2,60.173888736588,2.296588,11,AutoTakeoff,"Home Point updated (Code: 3000001)"
75600,2022-07-09 11:21:54,52.1731894520562,0.105467680544739,2.624672,2.5590552,61.092523936588,60.501972736588,2.624672,0,99.073822068,0.8869258814,22,5,16.553,60.501972736588,2.624672,0,99.073822068,0,0,-1.11847,274, 0.3, -1.7,0,0,1024,1024,1024,1024,0,0,0,0,268.4,-2.9,0,84,4.139,4.14,4.139,4.137,0,0,7.504,102.2,60.501972736588,2.624672,11,AutoTakeoff,
75800,2022-07-09 11:21:54,52.1731895962374,0.105467631661158,2.952756,2.8543308,61.125332336588,60.830056736588,3.28084,0,99.127955928,0.94265422964,22,5,16.553,60.830056736588,2.952756,0,99.127955928,0,0,-1.11847,274.1, -0.1, -2,0,0,1024,1024,1024,1024,0,0,0,0,268.3,-2.9,0,84,4.139,4.14,4.139,4.137,0,0,7.504,102.2,60.830056736588,2.952756,11,AutoTakeoff,
76000,2022-07-09 11:21:54,52.173189703221,0.105467621425386,3.28084,3.1824148,61.125332336588,61.158140736588,3.608924,0,99.166997924,0.98175528076,22,5,16.553,61.158140736588,3.28084,0,99.166997924,0,0,-1.11847,274.3, -0.1, -1.2,0,0,1024,1024,1024,1024,0,0,0,0,268.3,-2.9,0,84,4.139,4.14,4.139,4.137,0,0,7.504,102.2,61.158140736588,3.28084,11,AutoTakeoff,
76200,2022-07-09 11:21:54,52.1731897484886,0.105467641662949,3.608924,3.5104988,61.125332336588,61.486224736588,3.608924,0,99.18307404,0.99887798472,22,5,16.553,61.486224736588,3.608924,0,99.18307404,0,0,-0.671082,274.6, -0.5, 0,0,0,1024,1024,1024,1024,0,0,0,0,268.3,-2.9,0,84,4.139,4.14,4.139,4.137,0,0,7.504,102.2,61.486224736588,3.608924,6,P-GPS,
76400,2022-07-09 11:21:54,52.1731898249398,0.105467685054101,3.608924,3.5104988,61.125332336588,61.486224736588,3.937008,0,99.209976928,1.02841538724,22,5,16.553,61.486224736588,3.608924,0,99.209976928,0,0,0,274.3, -0.8, 0.7,0,0,1024,1024,1024,1024,0,0,0,0,268.3,-2.9,0,84,4.139,4.14,4.139,4.137,0,0,7.504,102.2,61.486224736588,3.608924,6,P-GPS,
76600,2022-07-09 11:21:55,52.1731899679387,0.105467736213753,3.608924,3.5104988,61.125332336588,61.486224736588,3.937008,0,99.261158032,1.08182746244,22,5,16.556,61.486224736588,3.608924,0,99.261158032,0,0,0,274.1, -0.5, 0,0,0,1024,1024,1024,1024,0,0,0,0,268.3,-2.9,0,84,4.139,4.14,4.142,4.139,0,0,7.152,102.2,61.486224736588,3.608924,6,P-GPS,
76800,2022-07-09 11:21:55,52.1731901093956,0.105467780945928,3.608924,3.5104988,61.125332336588,61.486224736588,3.937008,0,99.311682968,1.1343996426,21,5,16.556,61.486224736588,3.608924,0,99.311682968,0,0,0,274.2, -0.9, 0,0,0,1024,1024,1024,1024,0,0,0,0,268.3,-2.9,0,84,4.139,4.14,4.142,4.139,0,0,7.152,102.2,61.486224736588,3.608924,6,P-GPS,
77000,2022-07-09 11:21:55,52.1731902866965,0.105467800982687,3.608924,3.5104988,61.125332336588,61.486224736588,3.937008,0,99.375659348,1.19924216436,21,5,16.556,61.486224736588,3.608924,0,99.375659348,0,0,0,274.2, -0.7, -0.1,0,0,1024,1024,1024,1024,0,0,0,0,268.3,-2.9,0,84,4.139,4.14,4.142,4.139,0,0,7.152,102.2,61.486224736588,3.608924,6,P-GPS,
77200,2022-07-09 11:21:55,52.1731904668074,0.105467821780756,3.608924,3.5104988,61.125332336588,61.486224736588,3.937008,0,99.44061998,1.26512143156,21,5,16.556,61.486224736588,3.608924,0,99.44061998,0,0,0,274.1, -0.2, 0,0,0,1024,1024,1024,1024,0,0,0,0,268.3,-2.9,0,84,4.139,4.14,4.142,4.139,0,0,7.152,102.2,61.486224736588,3.608924,6,P-GPS,
77400,2022-07-09 11:21:55,52.1731906860862,0.1054678837978,3.608924,3.5104988,61.125332336588,61.486224736588,3.937008,0,99.51936014,1.34631894072,21,5,16.556,61.486224736588,3.608924,0,99.51936014,0,0,0,274, 0, -0.5,0,0,1024,1024,1024,1024,0,0,0,0,268.3,-2.9,0,84,4.139,4.14,4.142,4.139,0,0,7.152,102.2,61.486224736588,3.608924,6,P-GPS,
77600,2022-07-09 11:21:56,52.1731908903557,0.10546800795237,3.608924,3.5104988,61.125332336588,61.486224736588,3.937008,0,99.591210536,1.42585634484,22,5,16.55,61.486224736588,3.608924,0,99.591210536,0,0,0,273.8, -0.2, -2.6,0,0,1024,1024,1024,1024,0,0,0,0,268.3,-2.9,0,84,4.136,4.137,4.136,4.133,0,0,6.64,102.2,61.486224736588,3.608924,6,P-GPS,
77800,2022-07-09 11:21:56,52.173190984626,0.105468135627124,3.608924,3.5104988,61.125332336588,61.486224736588,3.937008,0,99.623034684,1.47056763236,22,5,16.55,61.486224736588,3.608924,0,99.623034684,0,0,0,273.9, -1.4, -2.2,0,0,1024,1024,1024,1024,0,0,0,0,268.3,-2.9,0,84,4.136,4.137,4.136,4.133,0,0,6.64,102.2,61.486224736588,3.608924,6,P-GPS,
78000,2022-07-09 11:21:56,52.1731909780809,0.105468187349028,3.608924,3.5104988,61.125332336588,61.486224736588,3.937008,0,99.619753844,1.48238521804,22,5,16.55,61.486224736588,3.608924,0,99.623034684,0,0,0,274.3, -1.2, 0.4,0,0,1024,1024,1024,1024,0,0,0,0,268.3,-2.9,0,84,4.136,4.137,4.136,4.133,0,0,6.64,102.2,61.486224736588,3.608924,6,P-GPS,
78200,2022-07-09 11:21:56,52.1731910228002,0.105468182678149,3.608924,3.5104988,61.125332336588,61.486224736588,3.937008,0,99.636158044,1.49873364376,22,5,16.55,61.486224736588,3.608924,0,99.636158044,0,0,0,274.6, -0.4, 0.5,0,0,1024,1024,1024,1024,0,0,0,0,268.3,-2.9,0,84,4.136,4.137,4.136,4.133,0,0,6.64,102.2,61.486224736588,3.608924,6,P-GPS,
78400,2022-07-09 11:21:56,52.1731911931105,0.105468142508594,3.608924,3.5104988,61.125332336588,61.486224736588,3.937008,0,99.698822088,1.56151907884,22,5,16.55,61.486224736588,3.608924,0,99.698822088,0,0,0,274.5, 0.1, -1.4,0,0,1024,1024,1024,1024,0,0,0,0,268.3,-2.9,0,84,4.136,4.137,4.136,4.133,0,0,6.64,102.2,61.486224736588,3.608924,6,P-GPS,
78600,2022-07-09 11:21:57,52.173191373427,0.105468075020947,3.608924,3.5104988,61.125332336588,61.486224736588,3.937008,0,99.765751224,1.62901580016,22,5,16.539,61.486224736588,3.608924,0,99.765751224,0,0,0,274.2, 1.1, -2.1,0,0,1024,1024,1024,1024,0,0,0,0,268.3,-2.9,0,84,4.132,4.133,4.134,4.13,0,0,7.115,102.2,61.486224736588,3.608924,6,P-GPS,
78800,2022-07-09 11:21:57,52.1731914900741,0.105468090594617,3.608924,3.5104988,61.125332336588,61.486224736588,3.937008,0,99.807745976,1.6717192136,22,5,16.539,61.486224736588,3.608924,0,99.807745976,0,0,0,274.1, 1.1, -3.1,0,0,1024,1024,1024,1024,0,0,0,0,268.3,-2.9,0,84,4.132,4.133,4.134,4.13,0,0,7.115,102.2,61.486224736588,3.608924,6,P-GPS,
79000,2022-07-09 11:21:57,52.1731914888062,0.105468162760126,3.608924,3.5104988,61.125332336588,61.486224736588,3.937008,0,99.806105556,1.68787078892,22,5,16.539,61.486224736588,3.608924,0,99.807745976,0,0,0,273.8, -0.3, -1.7,0,0,1024,1024,1024,1024,0,0,0,0,268.3,-2.9,0,84,4.132,4.133,4.134,4.13,0,0,7.115,102.2,61.486224736588,3.608924,6,P-GPS,
79200,2022-07-09 11:21:57,52.1731914363081,0.105468243514814,3.608924,3.5104988,61.125332336588,61.486224736588,3.937008,0,99.785436264,1.71420281076,22,5,16.539,61.486224736588,3.608924,0,99.807745976,0,0,0,273.8, 0.1, -1.1,0,0,1024,1024,1024,1024,0,0,0,0,268.3,-2.9,0,84,4.132,4.133,4.134,4.13,0,0,7.115,102.2,61.486224736588,3.608924,6,P-GPS,
79400,2022-07-09 11:21:57,52.1731913328883,0.105468304077338,3.608924,3.5104988,61.125332336588,61.486224736588,3.937008,0,99.746722352,1.75429467556,22,5,16.539,61.486224736588,3.608924,0,99.807745976,0,0,0,273.7, 0.3, -0.7,0,0,1024,1024,1024,1024,0,0,0,0,268.3,-2.9,0,84,4.132,4.133,4.134,4.13,0,0,7.115,102.2,61.486224736588,3.608924,6,P-GPS,
79600,2022-07-09 11:21:58,52.1731912387208,0.105468408828992,3.608924,3.5104988,61.125332336588,61.486224736588,3.937008,0,99.710633112,1.79588588424,22,5,16.521,61.486224736588,3.608924,0,99.807745976,0,0,0,273.8, 0.1, -0.3,0,0,1024,1024,1024,1024,0,0,0,0,268.3,-2.9,0,84,4.129,4.131,4.13,4.127,0,0,7.357,102.38,61.486224736588,3.608924,6,P-GPS,
79800,2022-07-09 11:21:58,52.173191167444,0.105468542540092,3.608924,3.4776904,61.158140736588,61.486224736588,3.937008,0,99.682089804,1.83552827396,22,5,16.521,61.486224736588,3.608924,0,99.807745976,0,0,0,273.8, 0.4, 0.4,0,0,1024,1024,1024,1024,0,0,0,0,268.3,-2.9,0,84,4.129,4.131,4.13,4.127,0,0,7.357,102.38,61.486224736588,3.608924,6,P-GPS,
80000,2022-07-09 11:21:58,52.1731911535314,0.10546867217225,3.608924,3.4776904,61.158140736588,61.486224736588,3.937008,0,99.674543872,1.86497381296,22,5,16.521,61.486224736588,3.608924,0,99.807745976,0,0,0,273.9, 0.2, -0.1,0,0,1024,1024,1024,1024,0,0,0,0,268.3,-2.9,0,84,4.129,4.131,4.13,4.127,0,0,7.357,102.38,61.486224736588,3.608924,6,P-GPS,
80200,2022-07-09 11:21:58,52.1731912130886,0.105468832675859,3.608924,3.4776904,61.158140736588,61.486224736588,3.937008,0,99.69324466,1.90694887992,22,5,16.521,61.486224736588,3.608924,0,99.807745976,0,0,0,274.2, 0, 0,0,0,1024,1024,1024,1024,0,0,0,0,268.3,-2.9,0,84,4.129,4.131,4.13,4.127,0,0,7.357,102.38,61.486224736588,3.608924,6,P-GPS,
80400,2022-07-09 11:21:58,52.1731913219569,0.105469022084785,3.608924,3.4776904,61.158140736588,61.486224736588,3.937008,0,99.729661984,1.96503287128,22,5,16.521,61.486224736588,3.608924,0,99.807745976,0,0,0,273.8, -0.9, -1.5,0,0,1024,1024,1024,1024,0,0,0,0,268.3,-2.9,0,84,4.129,4.131,4.13,4.127,0,0,7.357,102.38,61.486224736588,3.608924,6,P-GPS,
80600,2022-07-09 11:21:59,52.1731913912461,0.105469172932335,3.608924,3.4776904,61.158140736588,61.486224736588,3.937008,0,99.751971696,2.00720478864,22,5,16.513,61.486224736588,3.608924,0,99.807745976,0,0,0,273.9, -0.7, -2.2,0,0,1024,1024,1024,1024,0,0,0,0,268.3,-2.9,0,84,4.129,4.129,4.129,4.126,0,0,7.608,102.38,61.486224736588,3.608924,6,P-GPS,
80800,2022-07-09 11:21:59,52.1731913710625,0.105469295964148,3.608924,3.4776904,61.158140736588,61.486224736588,3.937008,0,99.74245726,2.03570216488,22,5,16.513,61.486224736588,3.608924,0,99.807745976,0,0,0,273.7, -1.1, -1.3,0,0,1024,1024,1024,1024,0,0,0,0,268.3,-2.9,0,84,4.129,4.129,4.129,4.126,0,0,7.608,102.38,61.486224736588,3.608924,6,P-GPS,
81000,2022-07-09 11:21:59,52.1731912871067,0.105469357026063,3.608924,3.4776904,61.158140736588,61.486224736588,3.937008,0,99.710633112,2.0692421922,22,5,16.513,61.486224736588,3.608924,0,99.807745976,0,0,0,273.7, -1, -0.8,0,0,1024,1024,1024,1024,0,0,0,0,268.3,-2.9,0,84,4.129,4.129,4.129,4.126,0,0,7.608,102.38,61.486224736588,3.608924,6,P-GPS,
81200,2022-07-09 11:21:59,52.1731912035279,0.105469347048717,3.608924,3.4776904,61.158140736588,61.486224736588,3.937008,0,99.680449384,2.09981634016,22,5,16.513,61.486224736588,3.608924,0,99.807745976,0,0,0,273.7, -0.1, -0.4,0,0,1024,1024,1024,1024,0,0,0,0,268.3,-2.9,0,84,4.129,4.129,4.129,4.126,0,0,7.608,102.38,61.486224736588,3.608924,6,P-GPS,
81400,2022-07-09 11:21:59,52.1731910911985,0.105469376093724,3.608924,3.4776904,61.158140736588,61.486224736588,3.937008,0,99.6391108,2.14131240448,22,5,16.513,61.486224736588,3.608924,0,99.807745976,0,0,0,273.5, 0.1, -0.9,0,0,1024,1024,1024,1024,0,0,0,0,268.3,-2.9,0,84,4.129,4.129,4.129,4.126,0,0,7.608,102.38,61.486224736588,3.608924,6,P-GPS,
81600,2022-07-09 11:22:00,52.1731909196546,0.105469456184885,3.608924,3.4776904,61.158140736588,61.486224736588,3.937008,0,99.575462504,2.2064141126,21,5,16.511,61.486224736588,3.608924,0,99.807745976,0,0,0,273.7, -1, 0,0,0,1024,1024,1024,1024,0,0,0,0,268.3,-2.9,0,84,4.127,4.128,4.128,4.125,0,0,7.391,102.38,61.486224736588,3.608924,6,P-GPS,
81800,2022-07-09 11:22:00,52.1731907839889,0.105469499712235,3.608924,3.4776904,61.158140736588,61.486224736588,3.937008,0,99.525265652,2.25686030844,21,5,16.511,61.486224736588,3.608924,0,99.807745976,0,0,0,273.9, -0.2, 0.5,0,0,1024,1024,1024,1024,0,0,0,0,268.3,-2.9,0,84,4.127,4.128,4.128,4.125,0,0,7.391,102.38,61.486224736588,3.608924,6,P-GPS,
82000,2022-07-09 11:22:00,52.1731907312167,0.105469565743615,3.937008,3.8057744,61.158140736588,61.814308736588,3.937008,0,99.504924444,2.28113196276,21,5,16.511,61.814308736588,3.937008,0,99.807745976,0,0,-0.671082,273.9, -0.3, 0.3,0,0,1024,1024,1024,1024,0,0,0,0,268.3,-2.9,0,84,4.127,4.128,4.128,4.125,0,0,7.391,102.38,61.814308736588,3.937008,6,P-GPS,
82200,2022-07-09 11:22:00,52.1731907469798,0.105469659653592,4.265092,4.1338584,61.158140736588,62.142392736588,4.593176,0,99.508861452,2.30291674036,21,5,16.511,62.142392736588,4.265092,0,99.807745976,0,0,-2.684328,274.1, -0.2, 0.1,0,0,1024,1024,1024,1024,0,0,0,0,268.3,-2.9,0,84,4.127,4.128,4.128,4.125,0,0,7.391,102.38,62.142392736588,4.265092,6,P-GPS,
82400,2022-07-09 11:22:00,52.1731908042068,0.105469789987691,5.577428,5.4461944,61.158140736588,63.454728736588,5.577428,0,99.527234156,2.33878288324,22,5,16.511,63.454728736588,5.577428,0,99.807745976,0,0,-4.47388,273.9, -1.6, 0.4,0,0,1024,1024,1024,1024,0,0,0,0,268.3,-2.9,0,84,4.127,4.128,4.128,4.125,0,0,7.391,102.38,63.454728736588,5.577428,6,P-GPS,
82600,2022-07-09 11:22:01,52.1731909337557,0.105469795489724,6.889764,6.7585304,61.158140736588,64.767064736588,7.217848,0,99.545934944,2.37464902612,21,5,16.485,64.767064736588,6.889764,0,99.807745976,0,0,-4.026492,273.8, -0.9, -1.1,0,0,1024,1024,1024,1024,0,0,0,0,268.3,-2.9,0,84,4.102,4.11,4.112,4.108,0,0,7.988,102.38,64.767064736588,6.889764,6,P-GPS,
82800,2022-07-09 11:22:01,52.1731910633046,0.105469800991757,7.874016,7.7427824,61.158140736588,65.751316736588,8.2021,0,99.621394264,2.45299220448,22,5,16.485,65.751316736588,7.874016,0,99.807745976,0,0,-2.013246,273.7, -0.8, -0.3,0,0,1024,1024,1024,1024,0,0,0,0,268.3,-2.9,0,84,4.102,4.11,4.112,4.108,0,0,7.988,102.38,65.751316736588,7.874016,6,P-GPS,
83000,2022-07-09 11:22:01,52.1731911427028,0.105469747748981,8.2021,8.0708664,61.158140736588,66.079400736588,8.530184,0,99.651249908,2.48431438396,23,5,16.485,66.079400736588,8.2021,0,99.807745976,0,0,-0.447388,273.9, 0.2, 0.7,0,0,1024,1024,1024,1024,0,0,0,0,268.3,-2.9,0,84,4.102,4.11,4.112,4.108,0,0,7.988,102.38,66.079400736588,8.2021,6,P-GPS,
83200,2022-07-09 11:22:01,52.1731912371102,0.10546971868302,8.2021,8.0708664,61.158140736588,66.079400736588,8.530184,0,99.686026812,2.51936687852,23,5,16.485,66.079400736588,8.2021,0,99.807745976,0,0,0,273.7, 0.2, 1.3,0,0,1024,1024,1024,1024,0,0,0,0,268.3,-2.9,0,84,4.102,4.11,4.112,4.108,0,0,7.988,102.38,66.079400736588,8.2021,6,P-GPS,
83400,2022-07-09 11:22:01,52.1731912863871,0.105469797551896,8.2021,8.0708664,61.158140736588,66.079400736588,8.530184,0,99.702759096,2.54456044888,23,5,16.485,66.079400736588,8.2021,0,99.807745976,0,0,0,274.1, -0.9, 1.7,0,0,1024,1024,1024,1024,0,0,0,0,268.3,-2.9,0,84,4.102,4.11,4.112,4.108,0,0,7.988,102.38,66.079400736588,8.2021,6,P-GPS,
83600,2022-07-09 11:22:02,52.1731913551966,0.105469914130039,8.2021,8.0708664,61.158140736588,66.079400736588,8.530184,0,99.725724976,2.58076451828,23,5,16.535,66.079400736588,8.2021,0,99.807745976,0,0,0,274.2, -1, 1.6,0,0,1024,1024,1024,1024,0,0,0,0,268.3,-2.9,0,84,4.129,4.129,4.127,4.121,0,0,7.787,102.56,66.079400736588,8.2021,6,P-GPS,
83800,2022-07-09 11:22:02,52.1731914370277,0.105469985225176,8.2021,8.0708664,61.158140736588,66.079400736588,8.530184,0,99.7539402,2.61459325952,23,5,16.535,66.079400736588,8.2021,0,99.807745976,0,0,0,274.2, -0.8, 2,0,0,1024,1024,1024,1024,0,0,0,0,268.3,-2.9,0,84,4.129,4.129,4.127,4.121,0,0,7.787,102.56,66.079400736588,8.2021,6,P-GPS,
84000,2022-07-09 11:22:02,52.1731915568275,0.105470069182253,8.2021,8.038058,61.190949136588,66.079400736588,8.530184,0,99.796263036,2.66216872036,23,5,16.535,66.079400736588,8.2021,0,99.807745976,0,0,0,274.1, -0.4, 0.4,0,0,1024,1024,1024,1024,0,0,0,0,268.3,-2.9,0,84,4.129,4.129,4.127,4.121,0,0,7.787,102.56,66.079400736588,8.2021,6,P-GPS,
84200,2022-07-09 11:22:02,52.1731916656616,0.105470192137237,8.2021,8.038058,61.190949136588,66.079400736588,8.530184,0,99.833664612,2.71047580852,23,5,16.535,66.079400736588,8.2021,0,99.833664612,0,0,0,273.9, -1.2, 0.7,0,0,1024,1024,1024,1024,0,0,0,0,268.3,-2.9,0,84,4.129,4.129,4.127,4.121,0,0,7.787,102.56,66.079400736588,8.2021,6,P-GPS,
84400,2022-07-09 11:22:02,52.1731917868663,0.105470272584607,8.2021,8.038058,61.190949136588,66.079400736588,8.530184,0,99.876315532,2.7582185922,23,5,16.535,66.079400736588,8.2021,0,99.876315532,0,0,0,273.7, -1, -0.2,0,0,1024,1024,1024,1024,0,0,0,0,268.3,-2.9,0,84,4.129,4.129,4.127,4.121,0,0,7.787,102.56,66.079400736588,8.2021,6,P-GPS,
84600,2022-07-09 11:22:03,52.1731918626321,0.105470305017092,8.2021,8.038058,61.190949136588,66.079400736588,8.530184,0,99.90321842,2.78679798944,23,5,16.498,66.079400736588,8.2021,0,99.90321842,0,0,0,274, -0.5, 0,0,0,1024,1024,1024,1024,0,0,0,0,268.3,-2.9,0,84,4.124,4.125,4.124,4.121,0,0,7.27,102.56,66.079400736588,8.2021,6,P-GPS,
84800,2022-07-09 11:22:03,52.1731918924793,0.105470306836552,8.2021,8.038058,61.190949136588,66.079400736588,8.530184,0,99.914045192,2.79769693992,23,5,16.498,66.079400736588,8.2021,0,99.914045192,0,0,0,274.2, -0.5, 0.7,0,0,1024,1024,1024,1024,0,0,0,0,268.3,-2.9,0,84,4.124,4.125,4.124,4.121,0,0,7.27,102.56,66.079400736588,8.2021,6,P-GPS,
85000,2022-07-09 11:22:03,52.1731919405911,0.105470293300608,8.2021,8.038058,61.190949136588,66.079400736588,8.530184,0,99.931761728,2.81550862028,23,5,16.498,66.079400736588,8.2021,0,99.931761728,0,0,0,274.4, -0.1, 1.2,0,0,1024,1024,1024,1024,0,0,0,0,268.3,-2.9,0,84,4.124,4.125,4.124,4.121,0,0,7.27,102.56,66.079400736588,8.2021,6,P-GPS,
85200,2022-07-09 11:22:03,52.1731920841383,0.105470339838273,8.2021,8.038058,61.190949136588,66.079400736588,8.530184,0,99.983270916,2.86890757212,23,5,16.498,66.079400736588,8.2021,0,99.983270916,0,0,0,274.2, -0.3, 0.4,0,0,1024,1024,1024,1024,0,0,0,0,268.3,-2.9,0,84,4.124,4.125,4.124,4.121,0,0,7.27,102.56,66.079400736588,8.2021,6,P-GPS,
85400,2022-07-09 11:22:03,52.1731923149653,0.10547043608107,8.2021,8.038058,61.190949136588,66.079400736588,8.530184,0,100.06562,2.95583342792,23,5,16.498,66.079400736588,8.2021,0,100.06562,0,0,0,273.9, -0.2, -1.5,0,0,1024,1024,1024,1024,0,0,0,0,268.3,-2.9,0,84,4.124,4.125,4.124,4.121,0,0,7.27,102.56,66.079400736588,8.2021,6,P-GPS,
85600,2022-07-09 11:22:04,52.1731924974063,0.105470562238444,8.2021,8.038058,61.190949136588,66.079400736588,8.530184,0,100.12959638,3.02813657984,23,5,16.49,66.079400736588,8.2021,0,100.12959638,0,0,0,273.6, -0.4, -2.4,0,0,1024,1024,1024,1024,0,0,0,0,268.3,-2.9,0,84,4.123,4.123,4.122,4.118,0,0,7.333,102.56,66.079400736588,8.2021,6,P-GPS,
85800,2022-07-09 11:22:04,52.1731925601847,0.105470718652633,8.2021,8.0052496,61.223757536588,66.079400736588,8.530184,0,100.149937588,3.069964009,23,5,16.49,66.079400736588,8.2021,0,100.149937588,0,0,0,273.6, -0.7, -1.3,0,0,1024,1024,1024,1024,0,0,0,0,268.3,-2.9,0,84,4.123,4.123,4.122,4.118,0,0,7.333,102.56,66.079400736588,8.2021,6,P-GPS,
86000,2022-07-09 11:22:04,52.1731925514807,0.105470880525202,8.2021,8.0052496,61.223757536588,66.079400736588,8.530184,0,100.143703992,3.10632227788,23,5,16.49,66.079400736588,8.2021,0,100.149937588,0,0,0,273.8, -0.8, 0.1,0,0,1024,1024,1024,1024,0,0,0,0,268.3,-2.9,0,84,4.123,4.123,4.122,4.118,0,0,7.333,102.56,66.079400736588,8.2021,6,P-GPS,
86200,2022-07-09 11:22:04,52.1731925486022,0.105471026567422,8.2021,8.0052496,61.223757536588,66.079400736588,8.530184,0,100.140423152,3.13901584848,23,5,16.49,66.079400736588,8.2021,0,100.149937588,0,0,0,273.9, -1.2, -0.2,0,0,1024,1024,1024,1024,0,0,0,0,268.3,-2.9,0,84,4.123,4.123,4.122,4.118,0,0,7.333,102.56,66.079400736588,8.2021,6,P-GPS,
86400,2022-07-09 11:22:04,52.1731925528857,0.105471145303774,8.2021,8.0052496,61.223757536588,66.079400736588,8.530184,0,100.139766984,3.16563002256,23,5,16.49,66.079400736588,8.2021,0,100.149937588,0,0,0,273.9, -1, -0.3,0,0,1024,1024,1024,1024,0,0,0,0,268.3,-2.9,0,84,4.123,4.123,4.122,4.118,0,0,7.333,102.56,66.079400736588,8.2021,6,P-GPS,
86600,2022-07-09 11:22:05,52.1731925396584,0.105471204720841,8.2021,8.0052496,61.223757536588,66.079400736588,8.530184,0,100.133861472,3.1797737238,23,5,16.483,66.079400736588,8.2021,0,100.149937588,0,0,0,273.8, -0.7, -0.9,0,0,1024,1024,1024,1024,0,0,0,0,268.3,-2.9,0,84,4.123,4.122,4.123,4.119,0,0,7.337,102.56,66.079400736588,8.2021,6,P-GPS,
86800,2022-07-09 11:22:05,52.1731924828083,0.105471237251109,8.2021,8.038058,61.190949136588,66.079400736588,8.530184,0,100.112864096,3.2017553518,23,5,16.483,66.079400736588,8.2021,0,100.149937588,0,0,0,273.7, -0.6, -0.9,0,0,1024,1024,1024,1024,0,0,0,0,268.3,-2.9,0,84,4.123,4.122,4.123,4.119,0,0,7.337,102.56,66.079400736588,8.2021,6,P-GPS,
87000,2022-07-09 11:22:05,52.1731923355259,0.105471276486488,8.2021,8.038058,61.190949136588,66.079400736588,8.530184,0,100.058402152,3.25620417244,23,5,16.483,66.079400736588,8.2021,0,100.149937588,0,0,0,273.9, -0.5, 0.8,0,0,1024,1024,1024,1024,0,0,0,0,268.3,-2.9,0,84,4.123,4.122,4.123,4.119,0,0,7.337,102.56,66.079400736588,8.2021,6,P-GPS,
87200,2022-07-09 11:22:05,52.173192223779,0.105471350930688,8.2021,8.038058,61.190949136588,66.079400736588,8.530184,0,100.016735484,3.3002297644,23,5,16.483,66.079400736588,8.2021,0,100.149937588,0,0,0,274, -0.3, 1.6,0,0,1024,1024,1024,1024,0,0,0,0,268.3,-2.9,0,84,4.123,4.122,4.123,4.119,0,0,7.337,102.56,66.079400736588,8.2021,6,P-GPS,
87400,2022-07-09 11:22:05,52.1731921818011,0.105471449464399,8.2021,8.038058,61.190949136588,66.079400736588,8.530184,0,99.999675116,3.327099844,23,5,16.483,66.079400736588,8.2021,0,100.149937588,0,0,0,274, -0.7, 0.4,0,0,1024,1024,1024,1024,0,0,0,0,268.3,-2.9,0,84,4.123,4.122,4.123,4.119,0,0,7.337,102.56,66.079400736588,8.2021,6,P-GPS,
87600,2022-07-09 11:22:06,52.1731921963649,0.105471539794824,8.2021,8.038058,61.190949136588,66.079400736588,8.530184,0,100.003612124,3.3479987948,23,5,16.483,66.079400736588,8.2021,0,100.149937588,0,0,0,273.9, -0.8, -0.7,0,0,1024,1024,1024,1024,0,0,0,0,268.3,-2.9,0,84,4.122,4.121,4.121,4.118,0,0,7.127,102.56,66.079400736588,8.2021,6,P-GPS,
87800,2022-07-09 11:22:06,52.1731921559291,0.105471598667101,8.2021,8.038058,61.190949136588,66.079400736588,8.530184,0,99.987864092,3.36778226,23,5,16.483,66.079400736588,8.2021,0,100.149937588,0,0,0,273.9, -0.8, -0.7,0,0,1024,1024,1024,1024,0,0,0,0,268.3,-2.9,0,84,4.122,4.121,4.121,4.118,0,0,7.127,102.56,66.079400736588,8.2021,6,P-GPS,
88000,2022-07-09 11:22:06,52.1731920834529,0.105471635269327,8.2021,8.038058,61.190949136588,66.079400736588,8.530184,0,99.96063312,3.3954397412,23,5,16.483,66.079400736588,8.2021,0,100.149937588,0,0,0,274, -0.7, -0.2,0,0,1024,1024,1024,1024,0,0,0,0,268.3,-2.9,0,84,4.122,4.121,4.121,4.118,0,0,7.127,102.56,66.079400736588,8.2021,6,P-GPS,
88200,2022-07-09 11:22:06,52.1731919784911,0.105471660916379,8.2021,8.038058,61.190949136588,66.079400736588,8.530184,0,99.922247292,3.4341864616,23,5,16.483,66.079400736588,8.2021,0,100.149937588,0,0,0,274, -0.7, 0,0,0,1024,1024,1024,1024,0,0,0,0,268.3,-2.9,0,84,4.122,4.121,4.121,4.118,0,0,7.127,102.56,66.079400736588,8.2021,6,P-GPS,
88400,2022-07-09 11:22:06,52.1731919008063,0.105471656086604,8.2021,8.038058,61.190949136588,66.079400736588,8.530184,0,99.894032068,3.4625329192,23,5,16.483,66.079400736588,8.2021,0,100.149937588,0,0,0,274, -0.6, -0.2,0,0,1024,1024,1024,1024,0,0,0,0,268.3,-2.9,0,84,4.122,4.121,4.121,4.118,0,0,7.127,102.56,66.079400736588,8.2021,6,P-GPS,
88600,2022-07-09 11:22:07,52.1731918373426,0.105471643486581,8.2021,8.038058,61.190949136588,66.079400736588,8.530184,0,99.871066188,3.4858596916,23,5,16.48,66.079400736588,8.2021,0,100.149937588,0,0,0,274, -0.6, -0.7,0,0,1024,1024,1024,1024,0,0,0,0,268.3,-2.9,0,84,4.121,4.121,4.123,4.117,0,0,7.17,102.74,66.079400736588,8.2021,6,P-GPS,
88800,2022-07-09 11:22:07,52.1731917335116,0.105471657700021,8.2021,8.038058,61.190949136588,66.079400736588,8.530184,0,99.833008444,3.5238846272,23,5,16.48,66.079400736588,8.2021,0,100.149937588,0,0,0,274, -0.7, -0.2,0,0,1024,1024,1024,1024,0,0,0,0,268.3,-2.9,0,84,4.121,4.121,4.123,4.117,0,0,7.17,102.74,66.079400736588,8.2021,6,P-GPS,
89000,2022-07-09 11:22:07,52.1731916252257,0.105471655063376,8.2021,8.038058,61.190949136588,66.079400736588,8.530184,0,99.793638364,3.5633859408,23,5,16.48,66.079400736588,8.2021,0,100.149937588,0,0,0,273.8, -0.7, 0,0,0,1024,1024,1024,1024,0,0,0,0,268.3,-2.9,0,84,4.121,4.121,4.123,4.117,0,0,7.17,102.74,66.079400736588,8.2021,6,P-GPS,
89200,2022-07-09 11:22:07,52.1731915062827,0.105471675119342,8.2021,8.038058,61.190949136588,66.079400736588,8.530184,0,99.750003192,3.6070211128,23,5,16.48,66.079400736588,8.2021,0,100.149937588,0,0,0,273.9, -0.8, 0.2,0,0,1024,1024,1024,1024,0,0,0,0,268.3,-2.9,0,84,4.121,4.121,4.123,4.117,0,0,7.17,102.74,66.079400736588,8.2021,6,P-GPS,
89400,2022-07-09 11:22:07,52.1731913894642,0.105471664502915,8.2021,8.0708664,61.158140736588,66.079400736588,8.530184,0,99.707680356,3.6497048412,23,5,16.48,66.079400736588,8.2021,0,100.149937588,0,0,0,274, -0.7, 0.8,0,0,1024,1024,1024,1024,0,0,0,0,268.3,-2.9,0,84,4.121,4.121,4.123,4.117,0,0,7.17,102.74,66.079400736588,8.2021,6,P-GPS,
89600,2022-07-09 11:22:08,52.1731913312435,0.105471635010901,8.2021,8.0708664,61.158140736588,66.079400736588,8.530184,0,99.687011064,3.6719489364,23,5,16.481,66.079400736588,8.2021,0,100.149937588,0,0,0,274.1, -0.4, -0.1,0,0,1024,1024,1024,1024,0,0,0,0,268.3,-2.9,0,84,4.119,4.12,4.12,4.116,0,0,7.147,102.74,66.079400736588,8.2021,6,P-GPS,
89800,2022-07-09 11:22:08,52.1731913014649,0.105471605983356,8.2021,8.0708664,61.158140736588,66.079400736588,8.530184,0,99.67684046,3.6846129788,23,5,16.481,66.079400736588,8.2021,0,100.149937588,0,0,0,273.8, -0.4, -0.8,0,0,1024,1024,1024,1024,0,0,0,0,268.3,-2.9,0,84,4.119,4.12,4.12,4.116,0,0,7.147,102.74,66.079400736588,8.2021,6,P-GPS,
90000,2022-07-09 11:22:08,52.1731912386865,0.105471590533661,8.2021,8.0708664,61.158140736588,66.079400736588,8.530184,0,99.654202664,3.7077757092,23,5,16.481,66.079400736588,8.2021,0,100.149937588,0,0,0,273.8, -0.2, -0.8,0,0,1024,1024,1024,1024,0,0,0,0,268.3,-2.9,0,84,4.119,4.12,4.12,4.116,0,0,7.147,102.74,66.079400736588,8.2021,6,P-GPS,
90200,2022-07-09 11:22:08,52.1731911496591,0.105471590813041,8.2021,8.0708664,61.158140736588,66.079400736588,8.530184,0,99.621722348,3.7402560252,23,5,16.481,66.079400736588,8.2021,0,100.149937588,0,0,0,273.9, -0.4, -0.4,0,0,1024,1024,1024,1024,0,0,0,0,268.3,-2.9,0,84,4.119,4.12,4.12,4.116,0,0,7.147,102.74,66.079400736588,8.2021,6,P-GPS,
90400,2022-07-09 11:22:08,52.1731910472673,0.105471591186711,8.2021,8.0708664,61.158140736588,66.079400736588,8.530184,0,99.584648856,3.7776247928,23,5,16.481,66.079400736588,8.2021,0,100.149937588,0,0,0,273.9, -0.3, 0.1,0,0,1024,1024,1024,1024,0,0,0,0,268.3,-2.9,0,84,4.119,4.12,4.12,4.116,0,0,7.147,102.74,66.079400736588,8.2021,6,P-GPS,
90600,2022-07-09 11:22:09,52.1731909267137,0.105471594001461,8.2021,8.0708664,61.158140736588,66.079400736588,8.530184,0,99.5406856,3.8215880488,23,5,16.475,66.079400736588,8.2021,0,100.149937588,0,0,0,274, -0.6, 0.2,0,0,1024,1024,1024,1024,0,0,0,0,268.3,-2.9,0,83,4.12,4.12,4.12,4.115,0,0,7.03,102.74,66.079400736588,8.2021,6,P-GPS,
90800,2022-07-09 11:22:09,52.1731908182223,0.105471592014373,8.2021,8.0708664,61.158140736588,66.079400736588,8.530184,0,99.50131552,3.8611877876,23,5,16.475,66.079400736588,8.2021,0,100.149937588,0,0,0,274, -0.4, 0.3,0,0,1024,1024,1024,1024,0,0,0,0,268.3,-2.9,0,83,4.12,4.12,4.12,4.115,0,0,7.03,102.74,66.079400736588,8.2021,6,P-GPS,
91000,2022-07-09 11:22:09,52.1731907439642,0.105471582466573,8.2021,8.0708664,61.158140736588,66.079400736588,8.530184,0,99.474412632,3.8883531428,23,5,16.475,66.079400736588,8.2021,0,100.149937588,0,0,0,274.1, -0.7, -0.4,0,0,1024,1024,1024,1024,0,0,0,0,268.3,-2.9,0,83,4.12,4.12,4.12,4.115,0,0,7.03,102.74,66.079400736588,8.2021,6,P-GPS,
91200,2022-07-09 11:22:09,52.1731906840644,0.105471563357005,8.2021,8.0708664,61.158140736588,66.079400736588,8.530184,0,99.452759088,3.9106300464,23,5,16.475,66.079400736588,8.2021,0,100.149937588,0,0,0,273.8, -0.2, 0.1,0,0,1024,1024,1024,1024,0,0,0,0,268.3,-2.9,0,83,4.12,4.12,4.12,4.115,0,0,7.03,102.74,66.079400736588,8.2021,6,P-GPS,
91400,2022-07-09 11:22:09,52.1731906515444,0.105471521083372,8.2021,8.0708664,61.158140736588,66.079400736588,8.530184,0,99.441604232,3.9258203356,23,5,16.475,66.079400736588,8.2021,0,100.149937588,0,0,0,273.8, -0.2, -1.1,0,0,1024,1024,1024,1024,0,0,0,0,268.3,-2.9,0,83,4.12,4.12,4.12,4.115,0,0,7.03,102.74,66.079400736588,8.2021,6,P-GPS,
91600,2022-07-09 11:22:10,52.173190593118,0.105471494874069,8.2021,8.0708664,61.158140736588,66.079400736588,8.530184,0,99.42093494,3.9479003888,23,5,16.469,66.079400736588,8.2021,0,100.149937588,0,0,0,273.6, -0.8, -1.4,0,0,1024,1024,1024,1024,0,0,0,0,268.3,-2.9,0,83,4.117,4.117,4.117,4.113,0,0,7.05,102.74,66.079400736588,8.2021,6,P-GPS,
91800,2022-07-09 11:22:10,52.173190520916,0.105471474123145,8.2021,8.0708664,61.158140736588,66.079400736588,8.530184,0,99.395016304,3.9746720432,23,5,16.469,66.079400736588,8.2021,0,100.149937588,0,0,0,273.8, -0.6, -0.9,0,0,1024,1024,1024,1024,0,0,0,0,268.3,-2.9,0,83,4.117,4.117,4.117,4.113,0,0,7.05,102.74,66.079400736588,8.2021,6,P-GPS,
92000,2022-07-09 11:22:10,52.1731904578978,0.105471462197126,8.530184,8.4317588,61.125332336588,66.407484736588,8.530184,0,99.372378508,3.9978019652,23,5,16.469,66.407484736588,8.530184,0,100.149937588,0,0,0,273.9, -0.6, -1.2,0,0,1024,1024,1024,1024,0,0,0,0,268.3,-2.9,0,83,4.117,4.117,4.117,4.113,0,0,7.05,102.74,66.407484736588,8.530184,6,P-GPS,
92200,2022-07-09 11:22:10,52.1731904024184,0.105471447121102,8.530184,8.4317588,61.125332336588,66.407484736588,8.530184,0,99.352365384,4.0183400236,23,5,16.469,66.407484736588,8.530184,0,100.149937588,0,0,0,273.7, -0.6, -1.1,0,0,1024,1024,1024,1024,0,0,0,0,268.3,-2.9,0,83,4.117,4.117,4.117,4.113,0,0,7.05,102.74,66.407484736588,8.530184,6,P-GPS,
92400,2022-07-09 11:22:10,52.1731903311074,0.105471421051488,8.530184,8.4317588,61.125332336588,66.407484736588,8.530184,0,99.326774832,4.0449804444,23,5,16.469,66.407484736588,8.530184,0,100.149937588,0,0,0,273.4, -0.3, -1.1,0,0,1024,1024,1024,1024,0,0,0,0,268.3,-2.9,0,83,4.117,4.117,4.117,4.113,0,0,7.05,102.74,66.407484736588,8.530184,6,P-GPS,
92600,2022-07-09 11:22:11,52.1731902562326,0.105471410117267,8.530184,8.4317588,61.125332336588,66.407484736588,8.530184,0,99.299871944,4.0724082668,23,5,16.462,66.407484736588,8.530184,0,100.149937588,0,0,0,273.4, -0.4, -1.2,0,0,1024,1024,1024,1024,0,0,0,0,268.3,-2.9,0,83,4.115,4.118,4.118,4.113,0,0,7.183,102.74,66.407484736588,8.530184,6,P-GPS,
92800,2022-07-09 11:22:11,52.1731901402708,0.10547138550392,8.530184,8.4317588,61.125332336588,66.407484736588,8.530184,0,99.258205276,4.1150919952,23,5,16.462,66.407484736588,8.530184,0,100.149937588,0,0,0,273.4, -0.3, -0.3,0,0,1024,1024,1024,1024,0,0,0,0,268.3,-2.9,0,83,4.115,4.118,4.118,4.113,0,0,7.183,102.74,66.407484736588,8.530184,6,P-GPS,
93000,2022-07-09 11:22:11,52.1731900132063,0.105471373501072,8.530184,8.4317588,61.125332336588,66.407484736588,8.530184,0,99.211945432,4.1615158812,23,5,16.462,66.407484736588,8.530184,0,100.149937588,0,0,0,273.6, 0.4, -0.9,0,0,1024,1024,1024,1024,0,0,0,0,268.3,-2.9,0,83,4.115,4.118,4.118,4.113,0,0,7.183,102.74,66.407484736588,8.530184,6,P-GPS,
93200,2022-07-09 11:22:11,52.1731898887119,0.105471444599701,8.530184,8.4317588,61.125332336588,66.407484736588,8.530184,0,99.165685588,4.209645804,23,5,16.462,66.407484736588,8.530184,0,100.149937588,0,0,0,273.8, -0.7, -1.1,0,0,1024,1024,1024,1024,0,0,0,0,268.3,-2.9,0,83,4.115,4.118,4.118,4.113,0,0,7.183,102.74,66.407484736588,8.530184,6,P-GPS,
93400,2022-07-09 11:22:11,52.1731897602767,0.105471483485856,8.530184,8.4317588,61.125332336588,66.407484736588,8.530184,0,99.118113408,4.2573164092,23,5,16.462,66.407484736588,8.530184,0,100.149937588,0,0,0,274, -1, 0,0,0,1024,1024,1024,1024,0,0,0,0,268.3,-2.9,0,83,4.115,4.118,4.118,4.113,0,0,7.183,102.74,66.407484736588,8.530184,6,P-GPS,
93600,2022-07-09 11:22:12,52.1731896873208,0.105471487156206,8.530184,8.4317588,61.125332336588,66.407484736588,8.530184,0,99.091538604,4.28395683,23,5,16.46,66.407484736588,8.530184,0,100.149937588,0,0,0,274, -0.5, -0.6,0,0,1024,1024,1024,1024,0,0,0,0,268.3,-2.9,0,83,4.115,4.117,4.115,4.111,0,0,7.178,102.92,66.407484736588,8.530184,6,P-GPS,
93800,2022-07-09 11:22:12,52.1731896985606,0.105471487966407,8.530184,8.4317588,61.125332336588,66.407484736588,8.530184,0,99.095475612,4.28805788,23,5,16.46,66.407484736588,8.530184,0,100.149937588,0,0,0,274.1, -0.6, -1.9,0,0,1024,1024,1024,1024,0,0,0,0,268.3,-2.9,0,83,4.115,4.117,4.115,4.111,0,0,7.178,102.92,66.407484736588,8.530184,6,P-GPS,
94000,2022-07-09 11:22:12,52.1731896988005,0.105471451311797,8.530184,8.4317588,61.125332336588,66.407484736588,8.530184,0,99.096459864,4.29625998,23,5,16.46,66.407484736588,8.530184,0,100.149937588,0,0,0,273.9, -0.5, -2.3,0,0,1024,1024,1024,1024,0,0,0,0,268.3,-2.9,0,83,4.115,4.117,4.115,4.111,0,0,7.178,102.92,66.407484736588,8.530184,6,P-GPS,
94200,2022-07-09 11:22:12,52.173189644452,0.105471391161358,8.530184,8.4317588,61.125332336588,66.407484736588,8.530184,0,99.077430992,4.320210112,23,5,16.46,66.407484736588,8.530184,0,100.149937588,0,0,0,274, 0, -2,0,0,1024,1024,1024,1024,0,0,0,0,268.3,-3.3,0,83,4.115,4.117,4.115,4.111,0,0,7.178,102.92,66.407484736588,8.530184,6,P-GPS,
94400,2022-07-09 11:22:12,52.1731895441505,0.105471338037318,8.530184,8.4317588,61.125332336588,66.407484736588,8.530184,0,99.04199792,4.3586943652,23,5,16.46,66.407484736588,8.530184,0,100.149937588,0,0,0,273.5, 0.4, -1.1,0,0,1024,1024,1024,1024,0,0,0,0,268.3,-5.2,0,83,4.115,4.117,4.115,4.111,0,0,7.178,102.92,66.407484736588,8.530184,6,P-GPS,
94600,2022-07-09 11:22:13,52.173189468162,0.105471339217697,8.530184,8.4645672,61.092523936588,66.407484736588,8.530184,0,99.006564848,4.3971786184,23,5,16.455,66.407484736588,8.530184,0,100.149937588,0,0,0,273.8, -0.4, -1.1,0,0,1024,1024,1024,1024,0,0,0,0,268.3,-7.1,0,83,4.114,4.116,4.116,4.112,0,0,7.201,102.92,66.407484736588,8.530184,6,P-GPS,
94800,2022-07-09 11:22:13,52.1731893921734,0.105471340398076,8.530184,8.4645672,61.092523936588,66.407484736588,8.530184,0,98.986551724,4.4197507976,23,5,16.455,66.407484736588,8.530184,0,100.149937588,0,0,0,274.4, 0.1, -2,0,0,1024,1024,1024,1024,0,0,0,0,268.3,-5.9,0,83,4.114,4.116,4.116,4.112,0,0,7.201,102.92,66.407484736588,8.530184,6,P-GPS,
95000,2022-07-09 11:22:13,52.1731892862864,0.105471371967976,8.530184,8.4645672,61.092523936588,66.407484736588,8.530184,0,98.947509728,4.4590224524,23,5,16.455,66.407484736588,8.530184,0,100.149937588,0,0,0,274.1, 0, -1.4,0,0,1024,1024,1024,1024,0,0,0,0,268.3,-3.3,0,83,4.114,4.116,4.116,4.112,0,0,7.201,102.92,66.407484736588,8.530184,6,P-GPS,
95200,2022-07-09 11:22:13,52.1731891935581,0.105471425860311,8.530184,8.4645672,61.092523936588,66.407484736588,8.530184,0,98.913060908,4.494914842,23,5,16.455,66.407484736588,8.530184,0,100.149937588,0,0,0,273.7, 0, -0.9,0,0,1024,1024,1024,1024,0,0,0,0,268.3,-2.5,0,83,4.114,4.116,4.116,4.112,0,0,7.201,102.92,66.407484736588,8.530184,6,P-GPS,
95400,2022-07-09 11:22:13,52.1731891272501,0.105471476305799,8.530184,8.4645672,61.092523936588,66.407484736588,8.530184,0,98.888126524,4.5216208796,24,5,16.455,66.407484736588,8.530184,0,100.149937588,0,0,0,273.9, -0.4, -1.6,0,0,1024,1024,1024,1024,0,0,0,0,268.3,-4.6,0,83,4.114,4.116,4.116,4.112,0,0,7.201,102.92,66.407484736588,8.530184,6,P-GPS,
95600,2022-07-09 11:22:14,52.1731890232649,0.105471517110943,8.530184,8.4645672,61.092523936588,66.407484736588,8.530184,0,98.862864056,4.5483269172,24,5,16.454,66.407484736588,8.530184,0,100.149937588,0,0,0,273.7, -0.8, -1,0,0,1024,1024,1024,1024,0,0,0,0,268.3,-7.3,0,83,4.112,4.114,4.114,4.11,0,0,7.145,102.92,66.407484736588,8.530184,6,P-GPS,
95800,2022-07-09 11:22:14,52.1731889192797,0.105471557916087,8.530184,8.4645672,61.092523936588,66.407484736588,8.530184,0,98.811026784,4.6004922732,24,5,16.454,66.407484736588,8.530184,0,100.149937588,0,0,0,273.9, -0.4, -0.7,0,0,1024,1024,1024,1024,0,0,0,0,268.3,-9,0,83,4.112,4.114,4.114,4.11,0,0,7.145,102.92,66.407484736588,8.530184,6,P-GPS,
96000,2022-07-09 11:22:14,52.1731887872464,0.105471573592777,8.530184,8.4645672,61.092523936588,66.407484736588,8.530184,0,98.762798436,4.648786238,24,5,16.454,66.407484736588,8.530184,0,100.149937588,0,0,0,274.3, -0.9, -0.4,0,0,1024,1024,1024,1024,0,0,0,0,268.3,-9.3,0,83,4.112,4.114,4.114,4.11,0,0,7.145,102.92,66.407484736588,8.530184,6,P-GPS,
96200,2022-07-09 11:22:14,52.1731886531913,0.105471579840405,8.530184,8.4645672,61.092523936588,66.407484736588,8.530184,0,98.71391392,4.6977035624,24,5,16.454,66.407484736588,8.530184,0,100.149937588,0,0,0,274.5, -0.6, 0.6,0,0,1024,1024,1024,1024,0,0,0,0,268.3,-10.1,0,83,4.112,4.114,4.114,4.11,0,0,7.145,102.92,66.407484736588,8.530184,6,P-GPS,
96400,2022-07-09 11:22:14,52.1731885875002,0.105471593530008,8.530184,8.4645672,61.092523936588,66.407484736588,8.2021,0,98.689635704,4.7218833532,24,5,16.454,66.407484736588,8.530184,0,100.149937588,0,0,0,274.4, -1, 0.2,0,0,1024,1024,1024,1024,0,0,0,0,268.3,-12.5,0,83,4.112,4.114,4.114,4.11,0,0,7.145,102.92,66.407484736588,8.530184,6,P-GPS,
96600,2022-07-09 11:22:15,52.1731885935313,0.105471561527069,8.530184,8.4645672,61.092523936588,66.407484736588,8.530184,0,98.665357488,4.7460303356,24,5,16.455,66.407484736588,8.530184,0,100.149937588,0,0,0,274.6, -0.6, -0.4,0,0,1024,1024,1024,1024,0,0,0,0,268.3,-15.3,0,83,4.113,4.116,4.114,4.11,0,0,7.105,102.92,66.407484736588,8.530184,6,P-GPS,
96800,2022-07-09 11:22:15,52.1731885995624,0.10547152952413,8.530184,8.4645672,61.092523936588,66.407484736588,8.530184,0,98.695213132,4.7792980532,24,5,16.455,66.407484736588,8.530184,0,100.149937588,0,0,0,275, -0.5, -0.3,0,0,1024,1024,1024,1024,0,0,0,0,268.3,-18.2,0,83,4.113,4.116,4.114,4.11,0,0,7.105,102.92,66.407484736588,8.530184,6,P-GPS,
97000,2022-07-09 11:22:15,52.1731885879799,0.105471492240915,8.530184,8.4645672,61.092523936588,66.407484736588,8.530184,0,98.691604208,4.7886484472,24,5,16.455,66.407484736588,8.530184,0,100.149937588,0,0,0,275.3, -0.3, -0.2,0,0,1024,1024,1024,1024,0,0,0,0,268.3,-21.1,0,83,4.113,4.116,4.114,4.11,0,0,7.105,102.92,66.407484736588,8.530184,6,P-GPS,
97200,2022-07-09 11:22:15,52.1731885863008,0.10547145812866,8.530184,8.4645672,61.092523936588,66.407484736588,8.530184,0,98.691604208,4.7963256128,24,5,16.455,66.407484736588,8.530184,0,100.149937588,0,0,0,274.5, -0.3, 0,0,0,1024,1024,1024,1024,0,0,0,0,268.3,-24,0,83,4.113,4.116,4.114,4.11,0,0,7.105,102.92,66.407484736588,8.530184,6,P-GPS,
97400,2022-07-09 11:22:15,52.1731885793787,0.105471445319103,8.530184,8.4645672,61.092523936588,66.407484736588,8.2021,0,98.68930762,4.8001313872,24,5,16.455,66.407484736588,8.530184,0,100.149937588,0,0,0,274.1, -0.1, 0.1,0,0,1024,1024,1024,1024,0,0,0,0,268.3,-27,0,83,4.113,4.116,4.114,4.11,0,0,7.105,102.92,66.407484736588,8.530184,6,P-GPS,
97600,2022-07-09 11:22:16,52.1731885897618,0.105471468895253,8.530184,8.4645672,61.092523936588,66.407484736588,8.2021,0,98.69258846,4.8066274504,24,5,16.455,66.407484736588,8.530184,0,100.149937588,0,0,0,274.2, -0.4, 0.7,0,0,1024,1024,1024,1024,0,0,0,0,268.3,-29.9,0,83,4.114,4.115,4.113,4.109,0,0,6.976,102.92,66.407484736588,8.530184,6,P-GPS,
97800,2022-07-09 11:22:16,52.1731886624435,0.105471477185845,8.530184,8.4645672,61.092523936588,66.407484736588,8.530184,0,98.71883518,4.8332022544,24,5,16.455,66.407484736588,8.530184,0,100.149937588,0,0,0,274.1, -0.6, -0.3,0,0,1024,1024,1024,1024,0,0,0,0,268.3,-32.8,0,83,4.114,4.115,4.113,4.109,0,0,6.976,102.92,66.407484736588,8.530184,6,P-GPS,
98000,2022-07-09 11:22:16,52.1731887665144,0.105471517653987,8.530184,8.4645672,61.092523936588,66.407484736588,8.530184,0,98.755908672,4.8722442504,24,5,16.455,66.407484736588,8.530184,0,100.149937588,0,0,0,274.4, -0.5, -0.6,0,0,1024,1024,1024,1024,0,0,0,0,268.3,-34.7,0,83,4.114,4.115,4.113,4.109,0,0,6.976,102.92,66.407484736588,8.530184,6,P-GPS,
98200,2022-07-09 11:22:16,52.1731888900494,0.105471567146092,8.530184,8.4645672,61.092523936588,66.407484736588,8.530184,0,98.800200012,4.9186681364,24,5,16.455,66.407484736588,8.530184,0,100.149937588,0,0,0,274.3, -0.7, -1.3,0,0,1024,1024,1024,1024,0,0,0,0,268.3,-35,0,83,4.114,4.115,4.113,4.109,0,0,6.976,102.92,66.407484736588,8.530184,6,P-GPS,
98400,2022-07-09 11:22:16,52.1731889881234,0.105471613107537,8.530184,8.4645672,61.092523936588,66.407484736588,8.2021,0,98.834976916,4.955872862,24,5,16.455,66.407484736588,8.530184,0,100.149937588,0,0,0,273.8, -1.2, -1.3,0,0,1024,1024,1024,1024,0,0,0,0,268.3,-33,0,83,4.114,4.115,4.113,4.109,0,0,6.976,102.92,66.407484736588,8.530184,6,P-GPS,
98600,2022-07-09 11:22:17,52.1731889294229,0.105471595518841,8.530184,8.4645672,61.092523936588,66.407484736588,8.530184,0,98.870081904,4.993110396,24,5,16.447,66.407484736588,8.530184,0,100.149937588,0,0,0,274, -1.3, -2.5,0,0,1024,1024,1024,1024,0,0,0,0,268.3,-30.2,0,83,4.112,4.115,4.113,4.109,0,0,7.047,103.1,66.407484736588,8.530184,6,P-GPS,
98800,2022-07-09 11:22:17,52.1731888707224,0.105471577930146,8.858268,8.7926512,61.092523936588,66.735568736588,8.530184,0,98.792982164,5.0737862516,24,5,16.447,66.735568736588,8.858268,0,100.149937588,0,0,0,273.7, -1, -0.6,0,0,1024,1024,1024,1024,0,0,0,0,268.3,-27.3,0,83,4.112,4.115,4.113,4.109,0,0,7.047,103.1,66.735568736588,8.858268,6,P-GPS,
99000,2022-07-09 11:22:17,52.1731886481197,0.105471468137436,8.858268,8.7926512,61.092523936588,66.735568736588,8.530184,0.223694,98.71391392,5.1586615824,24,5,16.447,66.735568736588,8.858268,0.223694,100.149937588,-0.223694,0,0,273.9, -0.6, 1.6,0,0,1024,1024,1024,1024,0,0,0,0,268.3,-24.9,0,83,4.112,4.115,4.113,4.109,0,0,7.047,103.1,66.735568736588,8.858268,6,P-GPS,
99200,2022-07-09 11:22:17,52.1731884203768,0.105471395100611,8.858268,8.8254596,61.059715536588,66.735568736588,8.530184,0,98.632221004,5.2433400628,24,5,16.447,66.735568736588,8.858268,0.223694,100.149937588,0,0,0,274.1, -0.5, 1.8,0,0,1024,1024,1024,1024,0,0,0,0,268.3,-24,0,83,4.112,4.115,4.113,4.109,0,0,7.047,103.1,66.735568736588,8.858268,6,P-GPS,
99400,2022-07-09 11:22:17,52.1731882430416,0.105471325779535,8.858268,8.8254596,61.059715536588,66.735568736588,8.2021,0,98.568900792,5.309875498,24,5,16.447,66.735568736588,8.858268,0.223694,100.149937588,0,0,0,274.4, -0.6, 2.3,0,0,1024,1024,1024,1024,0,0,0,0,268.3,-25.7,0,83,4.112,4.115,4.113,4.109,0,0,7.047,103.1,66.735568736588,8.858268,6,P-GPS,
99600,2022-07-09 11:22:18,52.1731881886074,0.105471314625303,8.858268,8.8254596,61.059715536588,66.735568736588,8.2021,0,98.50558058,5.3764109332,24,5,16.45,66.735568736588,8.858268,0.223694,100.149937588,0,0,0,274.4, 0, 2.6,0,0,1024,1024,1024,1024,0,0,0,0,268.3,-28.3,0,83,4.111,4.114,4.113,4.108,0,0,6.962,103.1,66.735568736588,8.858268,6,P-GPS,
99800,2022-07-09 11:22:18,52.1731881341732,0.10547130347107,8.858268,8.8254596,61.059715536588,66.735568736588,8.2021,0,98.529858796,5.4035106716,24,5,16.45,66.735568736588,8.858268,0.223694,100.149937588,0,0,0,274.2, -0.9, 1.8,0,0,1024,1024,1024,1024,0,0,0,0,268.3,-30.6,0,83,4.111,4.114,4.113,4.108,0,0,6.962,103.1,66.735568736588,8.858268,6,P-GPS,
100000,2022-07-09 11:22:18,52.1731881239615,0.10547132911463,8.858268,8.8254596,61.059715536588,66.735568736588,8.2021,0,98.525593704,5.4103348188,24,5,16.45,66.735568736588,8.858268,0.223694,100.149937588,0,0,0,274.1, -0.8, 1.9,0,0,1024,1024,1024,1024,0,0,0,0,268.3,-31.5,0,83,4.111,4.114,4.113,4.108,0,0,6.962,103.1,66.735568736588,8.858268,6,P-GPS,
100200,2022-07-09 11:22:18,52.1731881271141,0.105471331059811,8.858268,8.8254596,61.059715536588,66.735568736588,8.2021,0,98.526577956,5.411581538,24,5,16.45,66.735568736588,8.858268,0.223694,100.149937588,0,0,0,274.3, -0.7, 2,0,0,1024,1024,1024,1024,0,0,0,0,268.3,-31.5,0,83,4.111,4.114,4.113,4.108,0,0,6.962,103.1,66.735568736588,8.858268,6,P-GPS,
100400,2022-07-09 11:22:18,52.1731881595313,0.105471323729587,8.858268,8.8254596,61.059715536588,66.735568736588,8.2021,0,98.538717064,5.4235237956,24,5,16.45,66.735568736588,8.858268,0.223694,100.149937588,0,0,0,274.4, -0.7, 1.9,0,0,1024,1024,1024,1024,0,0,0,0,268.3,-31.5,0,83,4.111,4.114,4.113,4.108,0,0,6.962,103.1,66.735568736588,8.858268,6,P-GPS,
100600,2022-07-09 11:22:19,52.1731882847625,0.105471306224706,8.858268,8.8254596,61.059715536588,66.735568736588,8.2021,0,98.550528088,5.4354660532,24,5,16.44,66.735568736588,8.858268,0.223694,100.149937588,0,0,0,274.5, -0.9, 1.1,0,0,1024,1024,1024,1024,0,0,0,0,268.3,-31.5,0,83,4.109,4.113,4.112,4.108,0,0,7.125,103.1,66.735568736588,8.858268,6,P-GPS,
100800,2022-07-09 11:22:19,52.1731884099937,0.105471288719825,8.858268,8.8254596,61.059715536588,66.735568736588,8.2021,0.223694,98.6302525,5.515256082,24,5,16.44,66.735568736588,8.858268,0.223694,100.149937588,0.223694,0,0,274.6, -0.6, 1.2,0,0,1024,1024,1024,1024,0,0,0,0,268.3,-31.5,0,83,4.109,4.113,4.112,4.108,0,0,7.125,103.1,66.735568736588,8.858268,6,P-GPS,
101000,2022-07-09 11:22:19,52.1731886491134,0.105471273895242,8.858268,8.7926512,61.092523936588,66.735568736588,8.530184,0.223694,98.717522844,5.6025592344,24,5,16.44,66.735568736588,8.858268,0.223694,100.149937588,0.223694,0,0,274.4, -1.1, -0.9,0,0,1024,1024,1024,1024,0,0,0,0,268.3,-31.5,0,83,4.109,4.113,4.112,4.108,0,0,7.125,103.1,66.735568736588,8.858268,6,P-GPS,
101200,2022-07-09 11:22:19,52.1731888794607,0.105471233290902,8.858268,8.7926512,61.092523936588,66.735568736588,8.530184,0.223694,98.802168516,5.6871064812,24,5,16.44,66.735568736588,8.858268,0.223694,100.149937588,0.223694,0,0,274.1, 0, -1.7,0,0,1024,1024,1024,1024,0,0,0,0,268.3,-31.5,0,83,4.109,4.113,4.112,4.108,0,0,7.125,103.1,66.735568736588,8.858268,6,P-GPS,
101400,2022-07-09 11:22:19,52.1731890357212,0.105471226655636,8.858268,8.7926512,61.092523936588,66.735568736588,8.530184,0,98.858927048,5.7441274804,24,5,16.44,66.735568736588,8.858268,0.223694,100.149937588,0,0,0,274, -1.4, -2.6,0,0,1024,1024,1024,1024,0,0,0,0,268.3,-31.5,0,83,4.109,4.113,4.112,4.108,0,0,7.125,103.1,66.735568736588,8.858268,6,P-GPS,
101600,2022-07-09 11:22:20,52.1731889912589,0.105471146980052,8.858268,8.7926512,61.092523936588,66.735568736588,8.530184,0,98.916013664,5.8011484796,24,5,16.438,66.735568736588,8.858268,0.223694,100.149937588,0,0,0,273.9, -0.7, -2.1,0,0,1024,1024,1024,1024,0,0,0,0,268.3,-31.5,0,83,4.108,4.112,4.109,4.106,0,0,7.118,103.1,66.735568736588,8.858268,6,P-GPS,
101800,2022-07-09 11:22:20,52.1731889467966,0.105471067304468,8.858268,8.7926512,61.092523936588,66.735568736588,8.530184,0,98.829399488,5.8969161992,24,5,16.438,66.735568736588,8.858268,0.223694,100.149937588,0,0,0,274, 0.1, -0.7,0,0,1024,1024,1024,1024,0,0,0,0,268.3,-31.5,0,83,4.108,4.112,4.109,4.106,0,0,7.118,103.1,66.735568736588,8.858268,6,P-GPS,
102000,2022-07-09 11:22:20,52.1731887832028,0.105471018343184,8.858268,8.7926512,61.092523936588,66.735568736588,8.530184,0,98.770672452,5.9576117392,24,5,16.438,66.735568736588,8.858268,0.223694,100.149937588,0,0,0,273.9, -0.3, 0.8,0,0,1024,1024,1024,1024,0,0,0,0,268.3,-31.5,0,83,4.108,4.112,4.109,4.106,0,0,7.118,103.1,66.735568736588,8.858268,6,P-GPS,
102200,2022-07-09 11:22:20,52.1731886657675,0.105470967614824,8.858268,8.7926512,61.092523936588,66.735568736588,8.530184,0,98.729005784,6.0019358876,24,5,16.438,66.735568736588,8.858268,0.223694,100.149937588,0,0,0,274, -0.1, 0.4,0,0,1024,1024,1024,1024,0,0,0,0,268.3,-31.6,0,83,4.108,4.112,4.109,4.106,0,0,7.118,103.1,66.735568736588,8.858268,6,P-GPS,
102400,2022-07-09 11:22:20,52.1731885658773,0.105470936697973,8.858268,8.7926512,61.092523936588,66.735568736588,8.2021,0,98.692916544,6.0390093796,24,5,16.438,66.735568736588,8.858268,0.223694,100.149937588,0,0,0,273.9, 0, 0.2,0,0,1024,1024,1024,1024,0,0,0,0,268.3,-33.3,0,83,4.108,4.112,4.109,4.106,0,0,7.118,103.1,66.735568736588,8.858268,6,P-GPS,
102600,2022-07-09 11:22:21,52.1731885118029,0.105470938369013,8.858268,8.7926512,61.092523936588,66.735568736588,8.530184,0,98.657155388,6.07611568,24,5,16.434,66.735568736588,8.858268,0.223694,100.149937588,0,0,0,273.9, -0.4, 0.7,0,0,1024,1024,1024,1024,0,0,0,0,268.3,-36,0,83,4.108,4.111,4.107,4.105,0,0,7.133,103.28,66.735568736588,8.858268,6,P-GPS,
102800,2022-07-09 11:22:21,52.1731884577285,0.105470940040052,8.858268,8.8254596,61.059715536588,66.735568736588,8.2021,0,98.653546464,6.0843505884,24,5,16.434,66.735568736588,8.858268,0.223694,100.149937588,0,0,0,274, -0.6, 0.8,0,0,1024,1024,1024,1024,0,0,0,0,268.3,-38.8,0,83,4.108,4.111,4.107,4.105,0,0,7.133,103.28,66.735568736588,8.858268,6,P-GPS,
103000,2022-07-09 11:22:21,52.1731884705446,0.105470879893106,8.858268,8.8254596,61.059715536588,66.735568736588,8.2021,0,98.659451976,6.098589434,24,5,16.434,66.735568736588,8.858268,0.223694,100.149937588,0,0,0,274.1, 0.1, -0.1,0,0,1024,1024,1024,1024,0,0,0,0,268.3,-41.8,0,83,4.108,4.111,4.107,4.105,0,0,7.133,103.28,66.735568736588,8.858268,6,P-GPS,
103200,2022-07-09 11:22:21,52.1731884871987,0.105470825372167,8.858268,8.8254596,61.059715536588,66.735568736588,8.530184,0,98.66634174,6.1122377284,24,5,16.434,66.735568736588,8.858268,0.223694,100.149937588,0,0,0,274.2, 0.2, -0.1,0,0,1024,1024,1024,1024,0,0,0,0,268.3,-44.2,0,83,4.108,4.111,4.107,4.105,0,0,7.133,103.28,66.735568736588,8.858268,6,P-GPS,
103400,2022-07-09 11:22:21,52.1731884816474,0.10547079248569,8.858268,8.8254596,61.059715536588,66.735568736588,8.530184,0,98.665029404,6.1198492772,24,5,16.434,66.735568736588,8.858268,0.223694,100.149937588,0,0,0,274.4, 0.7, 0.5,0,0,1024,1024,1024,1024,0,0,0,0,268.3,-45,0,83,4.108,4.111,4.107,4.105,0,0,7.133,103.28,66.735568736588,8.858268,6,P-GPS,
103600,2022-07-09 11:22:22,52.1731884957142,0.105470834097543,8.858268,8.8254596,61.059715536588,66.735568736588,8.530184,0,98.663388984,6.1274936344,24,5,16.429,66.735568736588,8.858268,0.223694,100.149937588,0,0,0,274.5, 0.3, 0,0,0,1024,1024,1024,1024,0,0,0,0,268.3,-45,0,83,4.108,4.11,4.108,4.105,0,0,7.306,103.28,66.735568736588,8.858268,6,P-GPS,
103800,2022-07-09 11:22:22,52.1731885097811,0.105470875709396,8.858268,8.7926512,61.092523936588,66.735568736588,8.530184,0,98.673887672,6.1562337928,24,5,16.429,66.735568736588,8.858268,0.223694,100.149937588,0,0,0,274.7, 0.3, -0.2,0,0,1024,1024,1024,1024,0,0,0,0,268.3,-45.1,0,83,4.108,4.11,4.108,4.105,0,0,7.306,103.28,66.735568736588,8.858268,6,P-GPS,
104000,2022-07-09 11:22:22,52.1731885086503,0.105470907132622,8.858268,8.7926512,61.092523936588,66.735568736588,8.530184,0,98.67290342,6.1632875988,24,5,16.429,66.735568736588,8.858268,0.223694,100.149937588,0,0,0,274.5, 0.5, 0.2,0,0,1024,1024,1024,1024,0,0,0,0,268.3,-46.3,0,83,4.108,4.11,4.108,4.105,0,0,7.306,103.28,66.735568736588,8.858268,6,P-GPS,
104200,2022-07-09 11:22:22,52.1731885053606,0.10547092593138,8.858268,8.7926512,61.092523936588,66.735568736588,8.530184,0,98.671263,6.167651116,24,5,16.429,66.735568736588,8.858268,0.223694,100.149937588,0,0,0,274.5, 0.8, 0.6,0,0,1024,1024,1024,1024,0,0,0,0,268.3,-48.8,0,83,4.108,4.11,4.108,4.105,0,0,7.306,103.28,66.735568736588,8.858268,6,P-GPS,
104400,2022-07-09 11:22:22,52.1731885301361,0.105470939201913,8.858268,8.7926512,61.092523936588,66.735568736588,8.530184,0,98.680121268,6.177165552,24,5,16.429,66.735568736588,8.858268,0.223694,100.149937588,0,0,0,274.7, 0.8, 0.9,0,0,1024,1024,1024,1024,0,0,0,0,268.3,-51.7,0,83,4.108,4.11,4.108,4.105,0,0,7.306,103.28,66.735568736588,8.858268,6,P-GPS,
104600,2022-07-09 11:22:23,52.1731886165934,0.105470970930711,8.858268,8.7926512,61.092523936588,66.735568736588,8.530184,0,98.688979536,6.186679988,24,5,16.425,66.735568736588,8.858268,0.223694,100.149937588,0,0,0,274.2, 1.5, 0.8,0,0,1024,1024,1024,1024,0,0,0,0,268.3,-54.6,0,83,4.106,4.108,4.107,4.104,0,0,7.278,103.28,66.735568736588,8.858268,6,P-GPS,
104800,2022-07-09 11:22:23,52.1731887030507,0.105471002659509,8.858268,8.7926512,61.092523936588,66.735568736588,8.530184,0,98.74180106,6.2418965252,24,5,16.425,66.735568736588,8.858268,0.223694,100.149937588,0,0,0,274, 1.6, 0.5,0,0,1024,1024,1024,1024,0,0,0,0,268.3,-57.5,0,83,4.106,4.108,4.107,4.104,0,0,7.278,103.28,66.735568736588,8.858268,6,P-GPS,
105000,2022-07-09 11:22:23,52.173188809212,0.105471111387084,8.858268,8.7926512,61.092523936588,66.735568736588,8.530184,0,98.778546468,6.2876314348,24,5,16.425,66.735568736588,8.858268,0.223694,100.149937588,0,0,0,273.8, 1.2, -0.1,0,0,1024,1024,1024,1024,0,0,0,0,268.3,-60.4,0,83,4.106,4.108,4.107,4.104,0,0,7.278,103.28,66.735568736588,8.858268,6,P-GPS,
105200,2022-07-09 11:22:23,52.1731888769934,0.105471243153004,8.858268,8.7926512,61.092523936588,66.735568736588,8.530184,0,98.80085618,6.326115688,24,5,16.425,66.735568736588,8.858268,0.223694,100.149937588,0,0,0,273.8, 0.5, 0,0,0,1024,1024,1024,1024,0,0,0,0,268.3,-63.3,0,83,4.106,4.108,4.107,4.104,0,0,7.278,103.28,66.735568736588,8.858268,6,P-GPS,
105400,2022-07-09 11:22:23,52.1731889339462,0.105471346844761,8.858268,8.7926512,61.092523936588,66.735568736588,8.530184,0,98.819885052,6.3572508596,24,5,16.425,66.735568736588,8.858268,0.223694,100.149937588,0,0,0,273.7, 0.6, 0.1,0,0,1024,1024,1024,1024,0,0,0,0,268.3,-66.3,0,83,4.106,4.108,4.107,4.104,0,0,7.278,103.28,66.735568736588,8.858268,6,P-GPS,
105600,2022-07-09 11:22:24,52.17318899179,0.105471405016843,8.858268,8.7926512,61.092523936588,66.735568736588,8.530184,0,98.838913924,6.3883860312,24,5,16.422,66.735568736588,8.858268,0.223694,100.149937588,0,0,0,273.7, 0.5, 0.4,0,0,1024,1024,1024,1024,0,0,0,0,268.3,-69.2,0,83,4.106,4.108,4.108,4.102,0,0,7.359,103.28,66.735568736588,8.858268,6,P-GPS,
