time(millisecond),datetime(utc),latitude,longitude,height_above_takeoff(feet),height_above_ground_at_drone_location(feet),ground_elevation_at_drone_location(feet),altitude_above_seaLevel(feet),height_sonar(feet),speed(mph),distance(feet),mileage(feet),satellites,gpslevel,voltage(v),max_altitude(feet),max_ascent(feet),max_speed(mph),max_distance(feet), xSpeed(mph), ySpeed(mph), zSpeed(mph), compass_heading(degrees), pitch(degrees), roll(degrees),isPhoto,isVideo,rc_elevator,rc_aileron,rc_throttle,rc_rudder,rc_elevator(percent),rc_aileron(percent),rc_throttle(percent),rc_rudder(percent),gimbal_heading(degrees),gimbal_pitch(degrees),gimbal_roll(degrees),battery_percent,voltageCell1,voltageCell2,voltageCell3,voltageCell4,voltageCell5,voltageCell6,current(A),battery_temperature(f),altitude(feet),ascent(feet),flycStateRaw,flycState,message
100,2023-07-02 19:19:48,0,0,0,,,53.419292719916,0,0,0,0,7,0,0,53.419292719916,0,0,0,0,0,0,271.2, 4.8, 0.1,0,0,1024,1024,1024,1024,0,0,0,0,271.2,0,0,63,3.928,3.928,3.928,3.926,0,0,0,73.94,53.419292719916,0,41,Motors_Started,
300,2023-07-02 19:19:48,0,0,0,,,53.419292719916,0,0,0,0,7,0,0,53.419292719916,0,0,0,0,0,0,271.1, 4.8, 0.1,0,0,1024,1024,1024,1024,0,0,0,0,271.2,0,0,63,3.928,3.928,3.928,3.926,0,0,0,73.94,53.419292719916,0,41,Motors_Started,
500,2023-07-02 19:19:48,0,0,0,,,53.419292719916,0,0,0,0,7,0,0,53.419292719916,0,0,0,0,0,0,271.1, 4.9, 0.1,0,0,1024,1024,1024,1024,0,0,0,0,271.2,0,0,63,3.928,3.928,3.928,3.926,0,0,0,73.94,53.419292719916,0,41,Motors_Started,
700,2023-07-02 19:19:49,0,0,0,,,53.419292719916,0,0,0,0,7,0,0,53.419292719916,0,0,0,0,0,0,271.1, 4.9, 0.1,0,0,1024,1024,1024,1024,0,0,0,0,271.2,0,0,63,3.928,3.928,3.928,3.926,0,0,0,73.94,53.419292719916,0,41,Motors_Started,"No GPS. Fly with caution GPS signal weak. Hovering unstable. Fly with caution (Code: 30002)"
900,2023-07-02 19:19:49,0,0,0,,,53.419292719916,0,0,0,0,7,0,15.756,53.419292719916,0,0,0,0,0,0,271, 4.9, 0.1,0,0,1024,1024,1024,1024,0,0,0,0,271.2,0,0,63,3.928,3.928,3.928,3.926,0,0,2.429,73.94,53.419292719916,0,41,Motors_Started,"Setting new Return-To-Home altitude to 26m (85 ft). Data Recorder File Index is 47. Setting new Maximum Flight Altitude to 30m (98 ft)"
1100,2023-07-02 19:19:49,0,0,0,,,53.419292719916,0,0,0,0,7,0,15.756,53.419292719916,0,0,0,0,0,0,271, 4.9, 0.1,0,0,1024,1024,1024,1024,0,0,0,0,271.2,0,0,63,3.928,3.928,3.928,3.926,0,0,2.429,73.94,53.419292719916,0,41,Motors_Started,
1300,2023-07-02 19:19:49,0,0,0,,,53.419292719916,0,0,0,0,7,0,15.756,53.419292719916,0,0,0,0,0,0,271, 4.9, 0.1,0,0,1024,1024,1024,1024,0,0,0,0,271.2,0,0,63,3.928,3.928,3.928,3.926,0,0,2.429,73.94,53.419292719916,0,41,Motors_Started,
1500,2023-07-02 19:19:50,0,0,0,,,53.419292719916,0,0,0,0,7,0,15.756,53.419292719916,0,0,0,0,0,0,271, 4.9, 0.1,0,0,1024,1024,1024,1024,0,0,0,0,271.2,0,0,63,3.928,3.928,3.928,3.926,0,0,2.429,73.94,53.419292719916,0,41,Motors_Started,
1700,2023-07-02 19:19:50,0,0,0,,,53.419292719916,0,0,0,0,7,0,15.756,53.419292719916,0,0,0,0,0,0,271, 4.9, 0.1,0,0,1024,1024,1024,1024,0,0,0,0,271.2,0,0,63,3.928,3.928,3.928,3.926,0,0,2.429,73.94,53.419292719916,0,11,AutoTakeoff,
1900,2023-07-02 19:19:50,0,0,0,,,53.419292719916,0,0,0,0,7,0,15.783,53.419292719916,0,0,0,0,0,0,271, 4.8, 0.1,0,0,1024,1024,1024,1024,0,0,0,0,271.1,0,0,63,3.956,3.958,3.959,3.956,0,0,4.276,73.76,53.419292719916,0,11,AutoTakeoff,
2100,2023-07-02 19:19:50,0,0,0,,,53.419292719916,0,0,0,0,7,0,15.783,53.419292719916,0,0,0,0,0,0,271, 1, 0.2,0,0,1024,1024,1024,1024,0,0,0,0,271.1,0,0,63,3.956,3.958,3.959,3.956,0,0,4.276,73.76,53.419292719916,0,11,AutoTakeoff,
2300,2023-07-02 19:19:50,0,0,0,,,53.419292719916,0,0,0,0,7,0,15.783,53.419292719916,0,0,0,0,0,-0.671082,271.2, -2.1, 0.1,0,0,1024,1024,1024,1024,0,0,0,0,271.1,0,0,63,3.956,3.958,3.959,3.956,0,0,4.276,73.76,53.419292719916,0,11,AutoTakeoff,
2500,2023-07-02 19:19:50,0,0,0.328084,,,53.747376719916,0.328084,0,0,0,7,0,15.783,53.747376719916,0.328084,0,0,0,0,-1.11847,271.1, 0.8, -0.2,0,0,1024,1024,1237,1024,0,0,32,0,271.2,0,0,63,3.956,3.958,3.959,3.956,0,0,4.276,73.76,53.747376719916,0.328084,11,AutoTakeoff,
2700,2023-07-02 19:19:51,0,0,0.656168,,,54.075460719916,0.656168,0,0,0,7,0,15.783,54.075460719916,0.656168,0,0,0,0,-1.11847,271, 0.8, -0.9,0,0,1024,1024,1684,1024,0,0,100,0,271.1,0,0,63,3.956,3.958,3.959,3.956,0,0,4.276,73.76,54.075460719916,0.656168,11,AutoTakeoff,
2900,2023-07-02 19:19:51,0,0,1.312336,,,54.731628719916,1.312336,0,0,0,7,0,15.528,54.731628719916,1.312336,0,0,0,0,-2.013246,271.1, 0, -3.1,0,0,1024,1024,1684,1023,0,0,100,-0,271.2,0,0,63,3.881,3.882,3.881,3.883,0,0,5.528,73.76,54.731628719916,1.312336,11,AutoTakeoff,
3100,2023-07-02 19:19:51,0,0,1.968504,,,55.387796719916,1.968504,0,0,0,7,0,15.528,55.387796719916,1.968504,0,0,0,0,-3.579104,270.4, -0.6, -0.1,0,0,1024,1024,1684,1023,0,0,100,-0,271.1,0,0,63,3.881,3.882,3.881,3.883,0,0,5.528,73.76,55.387796719916,1.968504,11,AutoTakeoff,
3300,2023-07-02 19:19:51,0,0,3.608924,,,57.028216719916,3.608924,0,0,0,7,0,15.528,57.028216719916,3.608924,0,0,0,0,-5.59235,271.2, -1.2, -0.6,0,0,1024,1024,1684,1024,0,0,100,0,271.1,0,0,63,3.881,3.882,3.881,3.883,0,0,5.528,73.76,57.028216719916,3.608924,11,AutoTakeoff,
3500,2023-07-02 19:19:52,0,0,5.577428,,,58.996720719916,5.577428,0,0,0,7,0,15.528,58.996720719916,5.577428,0,0,0,0,-7.381902,271.5, -1.6, 0,0,0,1024,1024,1551,1024,0,0,80,0,271.1,0,0,63,3.881,3.882,3.881,3.883,0,0,5.528,73.76,58.996720719916,5.577428,6,P-GPS,
3700,2023-07-02 19:19:52,0,0,8.530184,,,61.949476719916,8.2021,0.223694,0,0,7,0,15.528,61.949476719916,8.530184,0.223694,0,0,0.223694,-9.395148,271.7, -2.8, -0.9,0,0,1024,1024,1321,1024,0,0,45,0,271.1,0,0,63,3.881,3.882,3.881,3.883,0,0,5.528,73.76,61.949476719916,8.530184,6,P-GPS,
3900,2023-07-02 19:19:52,0,0,12.467192,,,65.886484719916,11.154856,0,0,0,7,0,15.289,65.886484719916,12.467192,0.223694,0,0,0,-10.289924,271.4, -5.3, -1.4,0,0,1024,1024,1024,1024,0,0,0,0,271.1,0,0,63,3.773,3.777,3.772,3.772,0,0,9.958,73.76,65.886484719916,12.467192,6,P-GPS,
4100,2023-07-02 19:19:52,0,0,15.748032,,,69.167324719916,14.107612,0,0,0,7,0,15.289,69.167324719916,15.748032,0.223694,0,0,0,-9.395148,271.4, -5.6, -2.3,0,0,1024,1024,1024,1024,0,0,0,0,271.1,0,0,63,3.773,3.777,3.772,3.772,0,0,9.958,73.76,69.167324719916,15.748032,6,P-GPS,
4300,2023-07-02 19:19:52,0,0,18.700788,,,72.120080719916,16.732284,0,0,0,7,0,15.289,72.120080719916,18.700788,0.223694,0,0,0,-7.605596,271.2, -5, -2.7,0,0,1024,1024,1024,1024,0,0,0,0,271.1,0,0,63,3.773,3.777,3.772,3.772,0,0,9.958,73.76,72.120080719916,18.700788,6,P-GPS,
4500,2023-07-02 19:19:53,0,0,20.341208,,,73.760500719916,18.700788,0,0,0,7,0,15.289,73.760500719916,20.341208,0.223694,0,0,0,-5.59235,271.1, -5, -3.5,0,0,1024,1024,1024,1024,0,0,0,0,271.1,0,0,63,3.773,3.777,3.772,3.772,0,0,9.958,73.76,73.760500719916,20.341208,6,P-GPS,
4700,2023-07-02 19:19:53,0,0,21.32546,,,74.744752719916,20.013124,0,0,0,7,0,15.289,74.744752719916,21.32546,0.223694,0,0,0,-3.35541,271, -4.9, -4.1,0,0,1045,1024,1024,1024,3,0,0,0,271.1,0,0,63,3.773,3.777,3.772,3.772,0,0,9.958,73.76,74.744752719916,21.32546,6,P-GPS,
4900,2023-07-02 19:19:53,0,0,21.32546,,,74.744752719916,20.669292,0,0,0,7,0,15.42,74.744752719916,21.32546,0.223694,0,0,0,-1.11847,270.8, -4.9, -4.2,0,0,1566,1024,1024,1024,82,0,0,0,271.1,0,0,63,3.908,3.914,3.915,3.916,0,0,12.274,73.76,74.744752719916,21.32546,6,P-GPS,
5100,2023-07-02 19:19:53,0,0,21.32546,,,74.744752719916,20.997376,0,0,0,7,0,15.42,74.744752719916,21.32546,0.223694,0,0,0,0,270.7, -1.9, -1.8,0,0,1684,1024,1024,1024,100,0,0,0,271.1,0,0,63,3.908,3.914,3.915,3.916,0,0,12.274,73.76,74.744752719916,21.32546,6,P-GPS,
5300,2023-07-02 19:19:53,0,0,20.997376,,,74.416668719916,20.997376,0.223694,0,0,7,0,15.42,74.744752719916,21.32546,0.223694,0,0,-0.223694,0.223694,271.3, -20.9, -1.6,0,0,1684,1024,1024,1024,100,0,0,0,271.1,0,0,63,3.908,3.914,3.915,3.916,0,0,12.274,73.76,74.416668719916,20.997376,6,P-GPS,
5500,2023-07-02 19:19:54,0,0,20.997376,,,74.416668719916,20.997376,1.789552,0,0,7,0,15.42,74.744752719916,21.32546,1.789552,0,0,-1.789552,0.223694,271.6, -28.2, -0.4,0,0,1684,1024,1024,1024,100,0,0,0,271.1,0,0,63,3.908,3.914,3.915,3.916,0,0,12.274,73.76,74.416668719916,20.997376,6,P-GPS,
5700,2023-07-02 19:19:54,0,0,20.997376,,,74.416668719916,20.997376,3.802798,0,0,7,0,15.42,74.744752719916,21.32546,3.802798,0,0.223694,-3.802798,0,271.7, -28.9, -1,0,0,1684,1024,1024,1024,100,0,0,0,271.1,0,0,63,3.908,3.914,3.915,3.916,0,0,12.274,73.76,74.416668719916,20.997376,6,P-GPS,
5900,2023-07-02 19:19:54,0,0,20.997376,,,74.416668719916,20.997376,5.816044,0,0,7,0,15.554,74.744752719916,21.32546,5.816044,0,0.223694,-5.816044,0,272.1, -29.4, -2.6,0,0,1681,1024,1024,1024,100,0,0,0,271.1,0,0,63,3.836,3.837,3.839,3.839,0,0,4.861,74.12,74.416668719916,20.997376,6,P-GPS,
6100,2023-07-02 19:19:54,0,0,21.32546,,,74.744752719916,20.997376,7.605596,0,0,7,0,15.554,74.744752719916,21.32546,7.605596,0,0.223694,-7.605596,0,272, -29.5, -3.5,0,0,1675,1024,1024,1024,99,0,0,0,271.1,0,0,63,3.836,3.837,3.839,3.839,0,0,4.861,74.12,74.744752719916,21.32546,6,P-GPS,
6300,2023-07-02 19:19:54,0,0,21.32546,,,74.744752719916,20.997376,9.618842,0,0,7,0,15.554,74.744752719916,21.32546,9.618842,0,0.223694,-9.618842,0,272.2, -29, -3.5,0,0,1652,1024,1024,1024,95,0,0,0,271.1,0,0,63,3.836,3.837,3.839,3.839,0,0,4.861,74.12,74.744752719916,21.32546,6,P-GPS,
6500,2023-07-02 19:19:54,0,0,21.653544,,,75.072836719916,20.997376,11.1847,0,0,7,0,15.554,75.072836719916,21.653544,11.1847,0,0.223694,-11.1847,0,271.6, -26.8, -3.2,0,0,1133,1024,1024,1024,17,0,0,0,271.1,0,0,63,3.836,3.837,3.839,3.839,0,0,4.861,74.12,75.072836719916,21.653544,6,P-GPS,
6700,2023-07-02 19:19:55,0,0,21.653544,,,75.072836719916,20.997376,12.750558,0,0,7,0,15.554,75.072836719916,21.653544,12.750558,0,0.223694,-12.750558,0,271.8, -23.8, -3.4,0,0,1024,1024,1024,1024,0,0,0,0,271.1,0,0,63,3.836,3.837,3.839,3.839,0,0,4.861,74.12,75.072836719916,21.653544,6,P-GPS,
6900,2023-07-02 19:19:55,0,0,21.653544,,,75.072836719916,20.997376,13.197946,0,0,7,0,15.325,75.072836719916,21.653544,13.197946,0,0,-13.197946,-0.447388,271.1, 3.4, -2.3,0,0,1024,1024,1024,1024,0,0,0,0,271.1,0,0,63,3.817,3.82,3.822,3.822,0,0,10.146,74.12,75.072836719916,21.653544,6,P-GPS,
7100,2023-07-02 19:19:55,0,0,21.653544,,,75.072836719916,20.997376,11.408394,0,0,7,0,15.325,75.072836719916,21.653544,13.197946,0,0,-11.408394,-0.894776,271.6, 24.3, -1.1,0,0,1024,1024,1024,1024,0,0,0,0,271.1,0,0,63,3.817,3.82,3.822,3.822,0,0,10.146,74.12,75.072836719916,21.653544,6,P-GPS,
7300,2023-07-02 19:19:55,0,0,21.653544,,,75.072836719916,20.669292,9.171454,0,0,7,0,15.325,75.072836719916,21.653544,13.197946,0,0.223694,-9.171454,0,270.8, 28, -2.3,0,0,1024,1024,1068,1024,0,0,7,0,271.1,0,0,63,3.817,3.82,3.822,3.822,0,0,10.146,74.12,75.072836719916,21.653544,6,P-GPS,
7500,2023-07-02 19:19:56,0,0,21.32546,,,74.744752719916,20.341208,6.487126,0,0,7,0,15.325,75.072836719916,21.653544,13.197946,0,0,-6.487126,0,270.1, 29.7, -2.6,0,0,1024,1024,1077,1024,0,0,8,0,271.1,0,0,63,3.817,3.82,3.822,3.822,0,0,10.146,74.12,74.744752719916,21.32546,6,P-GPS,
7700,2023-07-02 19:19:56,0,0,20.997376,,,74.416668719916,20.013124,3.802798,0,0,7,0,15.325,75.072836719916,21.653544,13.197946,0,0,-3.802798,0,270.3, 31.5, -1.7,0,0,1024,1024,1684,1024,0,0,100,0,271.1,0,0,63,3.817,3.82,3.822,3.822,0,0,10.146,74.12,74.416668719916,20.997376,6,P-GPS,
7900,2023-07-02 19:19:56,0,0,20.669292,,,74.088584719916,19.68504,1.1408394,0,0,7,0,15.534,75.072836719916,21.653544,13.197946,0,-0.223694,-1.11847,-0.223694,271, 18.6, -1.5,0,0,1024,1024,1684,1009,0,0,100,-2,271.1,0,0,63,3.882,3.882,3.875,3.878,0,0,8.633,74.3,74.088584719916,20.669292,6,P-GPS,
8100,2023-07-02 19:19:56,0,0,21.32546,,,74.744752719916,20.013124,0.223694,0,0,7,0,15.534,75.072836719916,21.653544,13.197946,0,-0.223694,0,-2.013246,271.6, -2.8, 0.6,0,0,1024,1024,1684,1008,0,0,100,-2,271.1,0,0,63,3.882,3.882,3.875,3.878,0,0,8.633,74.3,74.744752719916,21.32546,6,P-GPS,
8300,2023-07-02 19:19:56,0,0,22.309712,,,75.729004719916,21.32546,0,0,0,7,0,15.534,75.729004719916,22.309712,13.197946,0,0,0,-4.250186,271.5, -5.9, 0,0,0,1024,1024,1684,1006,0,0,100,-3,271.1,0,0,63,3.882,3.882,3.875,3.878,0,0,8.633,74.3,75.729004719916,22.309712,6,P-GPS,
8500,2023-07-02 19:19:56,0,0,23.950132,,,77.369424719916,23.293964,0.223694,0,0,7,0,15.534,77.369424719916,23.950132,13.197946,0,0,-0.223694,-6.71082,271.8, -5.1, -0.9,0,0,1024,1024,1684,1011,0,0,100,-2,271.1,0,0,63,3.882,3.882,3.875,3.878,0,0,8.633,74.3,77.369424719916,23.950132,6,P-GPS,
8700,2023-07-02 19:19:57,0,0,27.230972,,,80.650264719916,25.918636,0.223694,0,0,7,0,15.534,80.650264719916,27.230972,13.197946,0,0,-0.223694,-9.171454,271, -2.2, -1.8,0,0,1024,1024,1684,1007,0,0,100,-3,271.1,0,0,63,3.882,3.882,3.875,3.878,0,0,8.633,74.3,80.650264719916,27.230972,6,P-GPS,
8900,2023-07-02 19:19:57,0,0,31.16798,,,84.587272719916,28.871392,0.3131716,0,0,7,0,15.208,84.587272719916,31.16798,13.197946,0,-0.223694,-0.223694,-11.408394,271, -1.2, 0,0,0,1024,1024,1684,1008,0,0,100,-2,271.1,0,0,63,3.757,3.767,3.765,3.756,0,0,9.434,74.12,84.587272719916,31.16798,6,P-GPS,
9100,2023-07-02 19:19:57,0,0,35.104988,,,88.524280719916,32.480316,0,0,0,7,0,15.208,88.524280719916,35.104988,13.197946,0,0,0,-12.750558,271, -3, 1.5,0,0,1024,1024,1684,1007,0,0,100,-3,271.1,0,0,63,3.757,3.767,3.765,3.756,0,0,9.434,74.12,88.524280719916,35.104988,6,P-GPS,
9300,2023-07-02 19:19:57,0,0,39.37008,,,92.789372719916,36.745408,0,0,0,7,0,15.208,92.789372719916,39.37008,13.197946,0,0,0,-13.42164,271, -3.7, 1.8,0,0,1024,1024,1684,1011,0,0,100,-2,271.1,0,0,63,3.757,3.767,3.765,3.756,0,0,9.434,74.12,92.789372719916,39.37008,6,P-GPS,
9500,2023-07-02 19:19:57,0,0,43.635172,,,97.054464719916,41.0105,0,0,0,7,0,15.208,97.054464719916,43.635172,13.197946,0,0,0,-13.42164,271.2, -3.5, 0.9,0,0,1024,1024,1684,1011,0,0,100,-2,271.1,0,0,63,3.757,3.767,3.765,3.756,0,0,9.434,74.12,97.054464719916,43.635172,6,P-GPS,
9700,2023-07-02 19:19:58,0,0,47.900264,,,101.31955671992,44.947508,0,0,0,7,0,15.208,101.31955671992,47.900264,13.197946,0,0,0,-13.42164,271.3, -3, -0.2,0,0,1024,1024,1684,1012,0,0,100,-2,271.1,0,0,63,3.757,3.767,3.765,3.756,0,0,9.434,74.12,101.31955671992,47.900264,6,P-GPS,
9900,2023-07-02 19:19:58,0,0,51.837272,,,105.25656471992,47.57218,0,0,0,7,0,14.99,105.25656471992,51.837272,13.197946,0,0,0,-13.197946,271.1, -2.8, -1.1,0,0,1024,1024,1684,1014,0,0,100,-2,271.1,0,0,62,3.781,3.782,3.784,3.785,0,0,15.766,74.12,105.25656471992,51.837272,6,P-GPS,
10100,2023-07-02 19:19:58,0,0,56.102364,,,109.52165671992,51.509188,0,0,0,7,0,14.99,109.52165671992,56.102364,13.197946,0,0,0,-13.197946,271.1, -3.1, -0.9,0,0,1024,1024,1684,1014,0,0,100,-2,271.1,0,0,62,3.781,3.782,3.784,3.785,0,0,15.766,74.12,109.52165671992,56.102364,6,P-GPS,
10300,2023-07-02 19:19:58,0,0,60.039372,,,113.45866471992,55.118112,0,0,0,7,0,14.99,113.45866471992,60.039372,13.197946,0,0,0,-12.974252,271.2, -4, -1.2,0,0,1024,1024,1684,1016,0,0,100,-1,271.1,0,0,62,3.781,3.782,3.784,3.785,0,0,15.766,74.12,113.45866471992,60.039372,6,P-GPS,
10500,2023-07-02 19:19:58,0,0,63.97638,,,117.39567271992,59.05512,0,0,0,7,0,14.99,117.39567271992,63.97638,13.197946,0,0,0,-13.197946,271.1, -4.9, -1.6,0,0,1024,1024,1671,1022,0,0,98,-0,271.1,-0.1,0,62,3.781,3.782,3.784,3.785,0,0,15.766,74.12,117.39567271992,63.97638,6,P-GPS,
10700,2023-07-02 19:19:59,0,0,68.241472,,,121.66076471992,62.992128,0,0,0,7,0,14.99,121.66076471992,68.241472,13.197946,0,0,0,-13.197946,271.3, -5.6, -1.1,0,0,1024,1024,1498,1024,0,0,72,0,271.1,-1.5,0,62,3.781,3.782,3.784,3.785,0,0,15.766,74.12,121.66076471992,68.241472,6,P-GPS,
10900,2023-07-02 19:19:59,0,0,72.506564,,,125.92585671992,66.601052,0,0,0,7,0,15.073,125.92585671992,72.506564,13.197946,0,0,0,-12.526864,271.2, -6, -1.8,0,0,1024,1024,958,1024,0,0,-10,0,271.1,-4,0,62,3.754,3.753,3.747,3.749,0,0,13.073,74.48,125.92585671992,72.506564,6,P-GPS,
11100,2023-07-02 19:19:59,0,0,76.115488,,,129.53478071992,69.881892,0,0,0,7,0,15.073,129.53478071992,76.115488,13.197946,0,0,0,-10.961006,271.2, -7.6, -2.3,0,0,1024,1024,1024,1024,0,0,0,0,271.1,-6.9,0,62,3.754,3.753,3.747,3.749,0,0,13.073,74.48,129.53478071992,76.115488,6,P-GPS,
11300,2023-07-02 19:19:59,0,0,79.068244,,,132.48753671992,72.506564,0,0,0,7,0,15.073,132.48753671992,79.068244,13.197946,0,0,0,-9.171454,270.9, -7.3, -2.3,0,0,1024,1024,1024,1024,0,0,0,0,271.1,-9.8,0,62,3.754,3.753,3.747,3.749,0,0,13.073,74.48,132.48753671992,79.068244,6,P-GPS,
11500,2023-07-02 19:20:00,0,0,80.38058,,,133.79987271992,74.803152,0,0,0,7,0,15.073,133.79987271992,80.38058,13.197946,0,0,0,-7.381902,271.2, -8.9, -4.1,0,0,1024,1024,1024,1024,0,0,0,0,271.1,-12.7,0,62,3.754,3.753,3.747,3.749,0,0,13.073,74.48,133.79987271992,80.38058,6,P-GPS,
11700,2023-07-02 19:20:00,0,0,81.364832,,,134.78412471992,76.443572,0,0,0,7,0,15.073,134.78412471992,81.364832,13.197946,0,0,0,-4.921268,271, -8, -4.3,0,0,1024,1024,1024,1024,0,0,0,0,271.1,-14.7,0,62,3.754,3.753,3.747,3.749,0,0,13.073,74.48,134.78412471992,81.364832,6,P-GPS,
11900,2023-07-02 19:20:00,0,0,81.364832,,,134.78412471992,77.427824,0,0,0,7,0,15.264,134.78412471992,81.364832,13.197946,0,0,0,-2.460634,271.9, -8.6, -4.5,0,0,1024,1024,1024,1024,0,0,0,0,271.1,-15.1,0,62,3.882,3.883,3.884,3.885,0,0,12.288,74.66,134.78412471992,81.364832,6,P-GPS,
12100,2023-07-02 19:20:00,0,0,81.692916,,,135.11220871992,77.755908,0,0,0,7,0,15.264,135.11220871992,81.692916,13.197946,0,0,0,-0.447388,271.9, -8.5, -5.5,0,0,1024,1024,1024,1024,0,0,0,0,271.1,-15.1,0,62,3.882,3.883,3.884,3.885,0,0,12.288,74.66,135.11220871992,81.692916,6,P-GPS,
12300,2023-07-02 19:20:00,0,0,81.036748,,,134.45604071992,77.755908,0,0,0,7,0,15.264,135.11220871992,81.692916,13.197946,0,0,0,0,271.5, -8.1, -4.5,0,0,1024,1024,1024,1024,0,0,0,0,271.1,-15.1,0,62,3.882,3.883,3.884,3.885,0,0,12.288,74.66,134.45604071992,81.036748,6,P-GPS,
12500,2023-07-02 19:20:01,0,0,80.708664,,,134.12795671992,77.755908,0.223694,0,0,7,0,15.264,135.11220871992,81.692916,13.197946,0,-0.223694,0,0,271.8, -8.3, -2.5,0,0,1024,1024,1024,1024,0,0,0,0,271.1,-15.1,0,62,3.882,3.883,3.884,3.885,0,0,12.288,74.66,134.12795671992,80.708664,6,P-GPS,
12700,2023-07-02 19:20:01,0,0,80.708664,,,134.12795671992,77.755908,0.223694,0,0,7,0,15.264,135.11220871992,81.692916,13.197946,0,-0.223694,0,0,271.4, -7.4, -0.9,0,0,1024,1024,1024,1024,0,0,0,0,271.1,-15.1,0,62,3.882,3.883,3.884,3.885,0,0,12.288,74.66,134.12795671992,80.708664,6,P-GPS,
12900,2023-07-02 19:20:01,0,0,80.38058,,,133.79987271992,77.755908,0.223694,0,0,6,0,15.478,135.11220871992,81.692916,13.197946,0,0,-0.223694,0,271.3, -7.2, -1.1,0,0,1024,1024,1024,1024,0,0,0,0,271.1,-15.1,0,62,3.836,3.839,3.839,3.839,0,0,4.736,75.02,133.79987271992,80.38058,6,P-GPS,
13100,2023-07-02 19:20:01,0,0,80.38058,,,133.79987271992,78.083992,0.223694,0,0,6,0,15.478,135.11220871992,81.692916,13.197946,0,0,-0.223694,0,271.6, -6.7, -2.4,0,0,1024,1024,1024,1024,0,0,0,0,271.1,-15.1,0,62,3.836,3.839,3.839,3.839,0,0,4.736,75.02,133.79987271992,80.38058,6,P-GPS,
13300,2023-07-02 19:20:01,0,0,80.052496,,,133.47178871992,78.083992,0.223694,0,0,6,0,15.478,135.11220871992,81.692916,13.197946,0,0,-0.223694,0,271.7, -6.3, -2.5,0,0,1024,1024,1024,1024,0,0,0,0,271.1,-15.7,0,62,3.836,3.839,3.839,3.839,0,0,4.736,75.02,133.47178871992,80.052496,6,P-GPS,
13500,2023-07-02 19:20:02,0,0,80.052496,,,133.47178871992,78.412076,0.223694,0,0,6,0,15.478,135.11220871992,81.692916,13.197946,0,0,-0.223694,0,271.8, -6.2, -2.5,0,0,1024,1024,1024,1024,0,0,0,0,271.1,-17.9,0,62,3.836,3.839,3.839,3.839,0,0,4.736,75.02,133.47178871992,80.052496,6,P-GPS,
13700,2023-07-02 19:20:02,0,0,80.052496,,,133.47178871992,78.412076,0,0,0,6,0,15.478,135.11220871992,81.692916,13.197946,0,0,0,0,272.2, -5.3, -2.9,0,0,1024,1024,1024,1024,0,0,0,0,271.1,-20.7,0,62,3.836,3.839,3.839,3.839,0,0,4.736,75.02,133.47178871992,80.052496,6,P-GPS,
13900,2023-07-02 19:20:02,0,0,79.724412,,,133.14370471992,78.412076,0,0,0,7,0,15.379,135.11220871992,81.692916,13.197946,0,0,0,0,273.3, -5.6, -3.1,0,0,1024,1024,1024,1024,0,0,0,0,271.1,-23.6,0,62,3.844,3.852,3.851,3.852,0,0,7.713,75.02,133.14370471992,79.724412,6,P-GPS,
14100,2023-07-02 19:20:02,0,0,79.724412,,,133.14370471992,78.412076,0,0,0,7,0,15.379,135.11220871992,81.692916,13.197946,0,0,0,0,273.4, -5.5, -2.7,0,0,1024,1024,1024,1024,0,0,0,0,271.1,-26.6,0,62,3.844,3.852,3.851,3.852,0,0,7.713,75.02,133.14370471992,79.724412,6,P-GPS,
14300,2023-07-02 19:20:02,0,0,79.724412,,,133.14370471992,78.412076,0,0,0,7,0,15.379,135.11220871992,81.692916,13.197946,0,0,0,0,272.6, -5.8, -2.6,0,0,1024,1024,1024,1024,0,0,0,0,271.1,-29.5,0,62,3.844,3.852,3.851,3.852,0,0,7.713,75.02,133.14370471992,79.724412,6,P-GPS,
14500,2023-07-02 19:20:02,0,0,79.396328,,,132.81562071992,78.74016,0,0,0,7,0,15.379,135.11220871992,81.692916,13.197946,0,0,0,0,271.4, -5.4, -2.4,0,0,1024,1024,1024,1024,0,0,0,0,271.1,-32.4,0,62,3.844,3.852,3.851,3.852,0,0,7.713,75.02,132.81562071992,79.396328,6,P-GPS,
14700,2023-07-02 19:20:03,0,0,79.396328,,,132.81562071992,78.74016,0,0,0,10,0,15.379,135.11220871992,81.692916,13.197946,0,0,0,0,271.1, -6.1, -2.1,0,0,1024,1024,1024,1024,0,0,0,0,271.1,-35.3,0,62,3.844,3.852,3.851,3.852,0,0,7.713,75.02,132.81562071992,79.396328,6,P-GPS,
14900,2023-07-02 19:20:03,0,0,79.396328,,,132.81562071992,78.74016,0,0,0,10,0,15.407,135.11220871992,81.692916,13.197946,0,0,0,0,271, -6.4, -0.9,0,0,1024,1024,1024,1024,0,0,0,0,271.1,-38.2,0,62,3.848,3.856,3.856,3.852,0,0,6.801,75.2,132.81562071992,79.396328,6,P-GPS,
15100,2023-07-02 19:20:03,0,0,79.068244,,,132.48753671992,78.74016,0,0,0,10,0,15.407,135.11220871992,81.692916,13.197946,0,0,0,0,271.3, -6.2, -1,0,0,1024,1024,1024,1024,0,0,0,0,271.1,-41.2,0,62,3.848,3.856,3.856,3.852,0,0,6.801,75.2,132.48753671992,79.068244,6,P-GPS,
15300,2023-07-02 19:20:03,52.2064027357698,0.0866020120646993,79.068244,79.068244,53.419292719916,132.48753671992,78.74016,0,0,0,10,0,15.407,135.11220871992,81.692916,13.197946,0,0,0,0,270.9, -5, -1.7,0,0,1024,1024,1024,1024,0,0,0,0,271.1,-44.1,0,62,3.848,3.856,3.856,3.852,0,0,6.801,75.2,132.48753671992,79.068244,6,P-GPS,"No GPS. Fly with caution GPS signal weak. Hovering unstable. Fly with caution (Code: 30002)"
15500,2023-07-02 19:20:03,52.2064027901541,0.0866019145267978,79.068244,79.068244,53.419292719916,132.48753671992,78.74016,0,0.029483924828,0.029483924828,10,0,15.407,135.11220871992,81.692916,13.197946,0.029483924828,0,0,0,271, -5.3, -1.5,0,0,1024,1024,1024,1024,0,0,0,0,271.1,-47,0,62,3.848,3.856,3.856,3.852,0,0,6.801,75.2,132.48753671992,79.068244,6,P-GPS,
15700,2023-07-02 19:20:04,52.2064027956938,0.0866017876399576,78.74016,78.74016,53.419292719916,132.15945271992,79.068244,0,0.054734581804,0.057926182956,10,0,15.407,135.11220871992,81.692916,13.197946,0.054734581804,0,0,0,271, -5.8, -1.5,0,0,1024,1024,1024,1024,0,0,0,0,271.1,-49.9,0,62,3.848,3.856,3.856,3.852,0,0,6.801,75.2,132.15945271992,78.74016,6,P-GPS,
15900,2023-07-02 19:20:04,52.2064028471516,0.0866016730885902,78.74016,78.74016,53.419292719916,132.15945271992,79.068244,0,0.085997706164,0.089682417568,11,0,15.398,135.11220871992,81.692916,13.197946,0.085997706164,0,0,0,271.1, -5.4, -2,0,0,1024,1024,1024,1024,0,0,0,0,271.1,-52.8,0,62,3.856,3.86,3.859,3.856,0,0,6.891,75.2,132.15945271992,78.74016,6,P-GPS,
16100,2023-07-02 19:20:04,52.2064028864983,0.0866015315970142,78.74016,78.74016,53.419292719916,132.15945271992,79.068244,0,0.12068405898,0.12442257616,11,2,15.398,135.11220871992,81.692916,13.197946,0.12068405898,0,0,0,271.1, -5.4, -1.3,0,0,1024,1024,1024,1024,0,0,0,0,271.1,-55.7,0,62,3.856,3.86,3.859,3.856,0,0,6.891,75.2,132.15945271992,78.74016,6,P-GPS,
16300,2023-07-02 19:20:04,52.2064029055258,0.0866013976608566,78.412076,78.412076,53.419292719916,131.83136871992,79.068244,0,0.1506889812,0.155163062708,11,3,15.398,135.11220871992,81.692916,13.197946,0.1506889812,0,0,0,271.2, -5.4, -1.2,0,0,1024,1024,1024,1024,0,0,0,0,271.1,-58.7,0,62,3.856,3.86,3.859,3.856,0,0,6.891,75.2,131.83136871992,78.412076,6,P-GPS,
16500,2023-07-02 19:20:04,52.2064028693948,0.0866012347773972,78.412076,78.412076,53.419292719916,131.83136871992,79.068244,0,0.180499677692,0.193894035076,11,3,15.398,135.11220871992,81.692916,13.197946,0.180499677692,0,0,0,271.1, -5.1, -1.1,0,0,1024,1024,1024,1024,0,0,0,0,271.1,-61.6,0,62,3.856,3.86,3.859,3.856,0,0,6.891,75.2,131.83136871992,78.412076,6,P-GPS,
16700,2023-07-02 19:20:05,52.2064027997136,0.0866010521009851,78.412076,78.412076,53.419292719916,131.83136871992,79.068244,0,0.215899285124,0.242003944752,11,3,15.398,135.11220871992,81.692916,13.197946,0.215899285124,0,0,0,271.2, -5.5, -0.7,0,0,1024,1024,1024,1024,0,0,0,0,271.1,-64.5,0,62,3.856,3.86,3.859,3.856,0,0,6.891,75.2,131.83136871992,78.412076,6,P-GPS,
16900,2023-07-02 19:20:05,52.2064027460673,0.0866008544933397,78.412076,78.412076,53.419292719916,131.83136871992,79.396328,0,0.258844824556,0.290327765196,11,3,15.398,135.11220871992,81.692916,13.197946,0.258844824556,0,0,0,271.3, -5.3, -1.1,0,0,1024,1024,1024,1024,0,0,0,0,271.1,-67.4,0,62,3.848,3.852,3.854,3.849,0,0,6.639,75.2,131.83136871992,78.412076,6,P-GPS,"Setting new Maximum Flight Altitude to 120m (394 ft)"
17100,2023-07-02 19:20:05,52.2064027158996,0.0866006092557438,78.412076,78.412076,53.419292719916,131.83136871992,79.396328,0,0.313732949672,0.34625329192,11,3,15.398,135.11220871992,81.692916,13.197946,0.313732949672,0,0,0,271.2, -5.4, -1.7,0,0,1024,1024,1024,1024,0,0,0,0,271.1,-70.3,0,62,3.848,3.852,3.854,3.849,0,0,6.639,75.2,131.83136871992,78.412076,6,P-GPS,
17300,2023-07-02 19:20:05,52.2064026748497,0.086600292340267,78.412076,78.412076,53.419292719916,131.83136871992,79.396328,0,0.38514765012,0.41867783492,11,3,15.398,135.11220871992,81.692916,13.197946,0.38514765012,0,0,0,271.3, -5.5, -1.8,0,0,1024,1024,1024,1024,0,0,0,0,271.1,-72.8,0,62,3.848,3.852,3.854,3.849,0,0,6.639,75.2,131.83136871992,78.412076,6,P-GPS,
17500,2023-07-02 19:20:05,52.2064026324393,0.0865999416381033,78.412076,78.412076,53.419292719916,131.83136871992,79.396328,0,0.4644521146,0.49860237816,11,3,15.398,135.11220871992,81.692916,13.197946,0.4644521146,0,0,0,271.4, -5.5, -1.8,0,0,1024,1024,1024,1024,0,0,0,0,271.1,-73.8,0,62,3.848,3.852,3.854,3.849,0,0,6.639,75.2,131.83136871992,78.412076,6,P-GPS,
17700,2023-07-02 19:20:06,52.2064026088009,0.0865995325821429,78.412076,78.412076,53.419292719916,131.83136871992,79.724412,0,0.55631235376,0.59046589816,11,3,15.398,135.11220871992,81.692916,13.197946,0.55631235376,0,0,0,271.3, -5.1, -2.2,0,0,1024,1024,1024,1024,0,0,0,0,271.1,-73.9,0,62,3.848,3.852,3.854,3.849,0,0,6.639,75.2,131.83136871992,78.412076,6,P-GPS,
17900,2023-07-02 19:20:06,52.2064025746945,0.0865991415166286,78.412076,78.412076,53.419292719916,131.83136871992,79.724412,0,0.64450133296,0.67878611096,11,3,15.38,135.11220871992,81.692916,13.197946,0.64450133296,0,0,0,271.3, -5.2, -1.9,0,0,1024,1024,1024,1024,0,0,0,0,271.1,-73.9,0,62,3.839,3.846,3.847,3.844,0,0,7.122,75.2,131.83136871992,78.412076,6,P-GPS,
18100,2023-07-02 19:20:06,52.2064025014364,0.0865986977063116,78.412076,78.412076,53.419292719916,131.83136871992,79.724412,0,0.74596130996,0.78155186228,11,3,15.38,135.11220871992,81.692916,13.197946,0.74596130996,0,0,0,271.2, -4.9, -1.6,0,0,1024,1024,1024,1024,0,0,0,0,271.1,-73.9,0,62,3.839,3.846,3.847,3.844,0,0,7.122,75.2,131.83136871992,78.412076,6,P-GPS,
18300,2023-07-02 19:20:06,52.206402430878,0.0865982310607298,78.412076,78.412076,53.419292719916,131.83136871992,80.052496,0,0.85267063096,0.88901577648,11,3,15.38,135.11220871992,81.692916,13.197946,0.85267063096,0,0,0,271.1, -4.5, -1.2,0,0,1024,1024,1024,1024,0,0,0,0,271.1,-73.9,0,62,3.839,3.846,3.847,3.844,0,0,7.122,75.2,131.83136871992,78.412076,6,P-GPS,
18500,2023-07-02 19:20:06,52.2064023839455,0.086597804600697,78.412076,78.412076,53.419292719916,131.83136871992,80.052496,0,0.94944884928,0.98589242,11,3,15.38,135.11220871992,81.692916,13.197946,0.94944884928,0,0,0,271.3, -5.2, -1.1,0,0,1024,1024,1024,1024,0,0,0,0,271.1,-73.9,0,62,3.839,3.846,3.847,3.844,0,0,7.122,75.2,131.83136871992,78.412076,6,P-GPS,
18700,2023-07-02 19:20:07,52.2064023577475,0.0865974021978232,78.74016,78.74016,53.419292719916,132.15945271992,80.052496,0,1.03989176556,1.07637142552,11,3,15.38,135.11220871992,81.692916,13.197946,1.03989176556,0,0,0,271.2, -4.7, -0.8,0,0,1024,1024,1024,1024,0,0,0,0,271.1,-73.9,0,62,3.839,3.846,3.847,3.844,0,0,7.122,75.2,132.15945271992,78.74016,6,P-GPS,
18900,2023-07-02 19:20:07,52.2064023409677,0.0865970539237206,78.74016,78.74016,53.419292719916,132.15945271992,80.38058,0,1.11789373656,1.1544783834,11,3,15.37,135.11220871992,81.692916,13.197946,1.11789373656,0,0,0,271.1, -5.2, -0.7,0,0,1024,1024,1024,1024,0,0,0,0,271.1,-73.9,0,62,3.838,3.841,3.842,3.84,0,0,7.275,75.2,132.15945271992,78.74016,6,P-GPS,
19100,2023-07-02 19:20:07,52.2064023196048,0.0865967234365426,78.74016,78.74016,53.419292719916,132.15945271992,80.38058,0,1.192175235,1.22878284772,11,3,15.37,135.11220871992,81.692916,13.197946,1.192175235,0,0,0,271.2, -5.1, -0.2,0,0,1024,1024,1024,1024,0,0,0,0,271.1,-73.9,0,62,3.838,3.841,3.842,3.84,0,0,7.275,75.2,132.15945271992,78.74016,6,P-GPS,
19300,2023-07-02 19:20:07,52.2064023187769,0.0865964155803979,78.74016,78.74016,53.419292719916,132.15945271992,80.38058,0,1.2605151322,1.29761487092,11,3,15.37,135.11220871992,81.692916,13.197946,1.2605151322,0,0,0,271.1, -5.4, -0.2,0,0,1024,1024,1024,1024,0,0,0,0,271.1,-73.9,0,62,3.838,3.841,3.842,3.84,0,0,7.275,75.2,132.15945271992,78.74016,6,P-GPS,
19500,2023-07-02 19:20:08,52.2064023620682,0.0865961291884367,78.74016,78.74016,53.419292719916,132.15945271992,80.38058,0,1.32237865124,1.36356959744,11,3,15.37,135.11220871992,81.692916,13.197946,1.32237865124,0,0,0,271.2, -5.5, -0.5,0,0,1024,1024,1024,1024,0,0,0,0,271.1,-73.9,0,62,3.838,3.841,3.842,3.84,0,0,7.275,75.2,132.15945271992,78.74016,6,P-GPS,
19700,2023-07-02 19:20:08,52.2064024308218,0.08659582531426,78.74016,78.74016,53.419292719916,132.15945271992,80.708664,0,1.38774282656,1.43599414044,11,4,15.37,135.11220871992,81.692916,13.197946,1.38774282656,0,0,0,271.1, -4.7, -0.2,0,0,1024,1024,1024,1024,0,0,0,0,271.1,-73.9,0,62,3.838,3.841,3.842,3.84,0,0,7.275,75.2,132.15945271992,78.74016,6,P-GPS,
19900,2023-07-02 19:20:08,52.2064025512926,0.0865955405159596,78.74016,78.74016,53.419292719916,132.15945271992,80.708664,0,1.44851710672,1.51336619016,11,4,15.369,135.11220871992,81.692916,13.197946,1.44851710672,0,0,0,271.2, -4.9, -0.8,0,0,1024,1024,1024,1024,0,0,0,0,271.1,-74.5,0,62,3.836,3.839,3.84,3.839,0,0,7.367,75.38,132.15945271992,78.74016,6,P-GPS,
20100,2023-07-02 19:20:08,52.2064027036878,0.0865952995878939,78.74016,78.74016,53.419292719916,132.15945271992,80.708664,0,1.50086618976,1.59078417164,11,4,15.369,135.11220871992,81.692916,13.197946,1.50086618976,0,0,0,271.3, -5, -1.2,0,0,1024,1024,1024,1024,0,0,0,0,271.1,-76.8,0,62,3.836,3.839,3.84,3.839,0,0,7.367,75.38,132.15945271992,78.74016,6,P-GPS,
20300,2023-07-02 19:20:08,52.2064028720549,0.0865951139954219,78.74016,78.74016,53.419292719916,132.15945271992,80.708664,0,1.54311684728,1.66491475144,11,4,15.369,135.11220871992,81.692916,13.197946,1.54311684728,0,0,0,271.3, -5, -1.6,0,1,1024,1024,1024,1024,0,0,0,0,271.1,-79.6,0,62,3.836,3.839,3.84,3.839,0,0,7.367,75.38,132.15945271992,78.74016,6,P-GPS,
20500,2023-07-02 19:20:09,52.2064030302374,0.0865949585422755,78.74016,78.74016,53.419292719916,132.15945271992,80.708664,0,1.58072839704,1.73228352,11,4,15.369,135.11220871992,81.692916,13.197946,1.58072839704,0,0,0,271.2, -5, -1.9,0,1,1024,1024,1024,1024,0,0,0,0,271.1,-82,0,62,3.836,3.839,3.84,3.839,0,0,7.367,75.38,132.15945271992,78.74016,6,P-GPS,
20700,2023-07-02 19:20:09,52.2064031546061,0.0865948421508588,78.74016,78.74016,53.419292719916,132.15945271992,80.708664,0,1.61036422476,1.78459323296,11,4,15.369,135.11220871992,81.692916,13.197946,1.61036422476,0,0,0,271.3, -5.2, -2,0,1,1024,1024,1024,1024,0,0,0,0,271.1,-82.9,0,62,3.836,3.839,3.84,3.839,0,0,7.367,75.38,132.15945271992,78.74016,6,P-GPS,
20900,2023-07-02 19:20:09,52.2064032761159,0.0865947254352928,78.74016,78.74016,53.419292719916,132.15945271992,80.708664,0,1.641076168,1.83603680416,11,4,15.352,135.11220871992,81.692916,13.197946,1.641076168,0,0,0,271.3, -4.9, -2.5,0,1,1024,1024,1024,1024,0,0,0,0,271.1,-82.9,0,62,3.841,3.846,3.844,3.844,0,0,7.421,75.38,132.15945271992,78.74016,6,P-GPS,"Home Point updated (Code: 3000001)"
21100,2023-07-02 19:20:09,52.2064033743522,0.0865946361308692,78.74016,78.74016,53.419292719916,132.15945271992,80.708664,0,1.6655348302,1.87706370836,11,4,15.352,135.11220871992,81.692916,13.197946,1.6655348302,0,0,0,271.2, -4.6, -3,0,1,1024,1024,1024,1024,0,0,0,0,271.1,-82.9,0,62,3.841,3.846,3.844,3.844,0,0,7.421,75.38,132.15945271992,78.74016,6,P-GPS,
21300,2023-07-02 19:20:09,52.2064034303651,0.0865945558973818,78.74016,78.74016,53.419292719916,132.15945271992,80.708664,0,1.68625005396,1.90425859112,11,4,15.352,135.11220871992,81.692916,13.197946,1.68625005396,0,0,0,271.2, -4.3, -3,0,1,1024,1024,1024,1024,0,0,0,0,271.1,-82.9,0,62,3.841,3.846,3.844,3.844,0,0,7.421,75.38,132.15945271992,78.74016,6,P-GPS,
21500,2023-07-02 19:20:09,52.206403450889,0.0865944908320688,78.74016,78.74016,53.419292719916,132.15945271992,80.708664,0,1.70176514632,1.9206201402,11,4,15.352,135.11220871992,81.692916,13.197946,1.70176514632,0,0,0,271.2, -4.3, -3,0,1,1024,1024,1024,1024,0,0,0,0,271.1,-82.9,0,62,3.841,3.846,3.844,3.844,0,0,7.421,75.38,132.15945271992,78.74016,6,P-GPS,
21700,2023-07-02 19:20:10,52.2064034417684,0.0865944488630438,78.74016,78.74016,53.419292719916,132.15945271992,80.708664,0,1.71053483164,1.93057420876,11,4,15.352,135.11220871992,81.692916,13.197946,1.71053483164,0,0,0,271.2, -4.1, -3.3,0,1,1024,1024,1024,1024,0,0,0,0,271.1,-83.6,0,62,3.841,3.846,3.844,3.844,0,0,7.421,75.38,132.15945271992,78.74016,6,P-GPS,
21900,2023-07-02 19:20:10,52.2064034029733,0.0865944306141411,78.74016,78.74016,53.419292719916,132.15945271992,80.38058,0,1.7125000548,1.94530518036,11,4,15.381,135.11220871992,81.692916,13.197946,1.7125000548,0,0,0,271.1, -3.4, -3,0,1,1024,1024,1024,1024,0,0,0,0,271.1,-86,0,62,3.847,3.851,3.849,3.849,0,0,7.026,75.38,132.15945271992,78.74016,6,P-GPS,
22100,2023-07-02 19:20:10,52.2064033407305,0.0865944694150661,78.74016,78.74016,53.419292719916,132.15945271992,80.38058,0,1.70081698356,1.96961620476,11,4,15.381,135.11220871992,81.692916,13.197946,1.7125000548,0,0,0,271.1, -3.7, -3,0,1,1024,1024,1024,1024,0,0,0,0,271.1,-88.8,0,62,3.847,3.851,3.849,3.849,0,0,7.026,75.38,132.15945271992,78.74016,6,P-GPS,
22300,2023-07-02 19:20:10,52.2064032594115,0.0865945521565599,78.74016,78.74016,53.419292719916,132.15945271992,80.38058,0,1.67884191724,2.00458011664,11,4,15.381,135.11220871992,81.692916,13.197946,1.7125000548,0,0,0.223694,271.1, -3.9, -1.7,0,1,1024,1024,1024,1024,0,0,0,0,271.1,-90,0,62,3.847,3.851,3.849,3.849,0,0,7.026,75.38,132.15945271992,78.74016,6,P-GPS,
22500,2023-07-02 19:20:10,52.2064032119285,0.0865946665021668,78.74016,78.74016,53.419292719916,132.15945271992,80.38058,0,1.65153220508,2.03546266356,11,4,15.381,135.11220871992,81.692916,13.197946,1.7125000548,0,0,0,271.1, -3.9, -1.8,0,0,1024,1024,1024,1024,0,0,0,0,271.1,-89.9,0,62,3.847,3.851,3.849,3.849,0,0,7.026,75.38,132.15945271992,78.74016,6,P-GPS,
22700,2023-07-02 19:20:11,52.206403222361,0.086594870883499,78.412076,78.412076,53.419292719916,131.83136871992,80.38058,0,1.6065125186,2.08131896424,11,4,15.381,135.11220871992,81.692916,13.197946,1.7125000548,0,0,0,271, -3.7, -2.4,0,0,1024,1024,1024,1024,0,0,0,0,271.1,-89.9,0,62,3.847,3.851,3.849,3.849,0,0,7.026,75.38,131.83136871992,78.412076,6,P-GPS,
22900,2023-07-02 19:20:11,52.206403251553,0.0865952111436453,78.412076,78.412076,53.419292719916,131.83136871992,80.38058,0.223694,1.53219493092,2.15813983284,11,3,15.393,135.11220871992,81.692916,13.197946,1.7125000548,0,0.223694,0.223694,271.2, -4.1, -2.3,0,0,1024,1024,1024,1024,0,0,0,0,271.1,-89.9,0,62,3.848,3.852,3.851,3.853,0,0,6.557,75.38,131.83136871992,78.412076,6,P-GPS,
23100,2023-07-02 19:20:11,52.2064033096595,0.0865957572769965,78.412076,78.412076,53.419292719916,131.83136871992,80.38058,0.223694,1.4140748484,2.28207356384,11,3,15.393,135.11220871992,81.692916,13.197946,1.7125000548,0,0.223694,0.223694,271.3, -5.7, -1.6,0,0,1024,1024,1024,1024,0,0,0,0,271.1,-89.9,0,62,3.848,3.852,3.851,3.853,0,0,6.557,75.38,131.83136871992,78.412076,6,P-GPS,
23300,2023-07-02 19:20:11,52.2064034492062,0.0865963371734171,78.412076,78.412076,53.419292719916,131.83136871992,80.38058,0.223694,1.29525266612,2.42136818772,11,3,15.393,135.11220871992,81.692916,13.197946,1.7125000548,0,0.223694,0.223694,271.3, -5.3, -2.6,0,0,1024,1024,1050,1024,0,0,4,0,271.1,-90,0,62,3.848,3.852,3.851,3.853,0,0,6.557,75.38,131.83136871992,78.412076,6,P-GPS,
23500,2023-07-02 19:20:11,52.2064035736102,0.0865968812557163,78.083992,78.083992,53.419292719916,131.50328471992,80.38058,0,1.18720804324,2.55121071156,11,3,15.393,135.11220871992,81.692916,13.197946,1.7125000548,0,0,0,271.3, -5, -3,0,0,1024,1024,1684,1024,0,0,100,0,271.1,-89.9,0,62,3.848,3.852,3.851,3.853,0,0,6.557,75.38,131.50328471992,78.083992,6,P-GPS,
23700,2023-07-02 19:20:12,52.206403653343,0.0865973785231341,78.083992,78.083992,53.419292719916,131.50328471992,80.38058,0,1.088746754,2.66613525592,11,4,15.393,135.11220871992,81.692916,13.197946,1.7125000548,0,0,-0.447388,271.4, -3.9, -2.9,0,0,1024,1024,1684,1024,0,0,100,0,271.1,-90,0,62,3.848,3.852,3.851,3.853,0,0,6.557,75.38,131.50328471992,78.083992,6,P-GPS,
23900,2023-07-02 19:20:12,52.2064036491952,0.0865978631568139,78.74016,78.74016,53.419292719916,132.15945271992,80.708664,0.223694,0.98568900792,2.77450140112,11,4,15.382,135.11220871992,81.692916,13.197946,1.7125000548,0,0.223694,-2.460634,271.4, -4.4, -1.9,0,0,1024,1024,1684,1024,0,0,100,0,271.1,-89.9,0,62,3.817,3.795,3.79,3.79,0,0,6.675,75.38,132.15945271992,78.74016,6,P-GPS,
24100,2023-07-02 19:20:12,52.2064035612047,0.0865983042758622,80.052496,80.052496,53.419292719916,133.47178871992,82.021,0,0.88201774476,2.87822515772,11,4,15.382,135.11220871992,81.692916,13.197946,1.7125000548,0,0,-4.697574,271.5, -5.5, -1.8,0,0,1024,1024,1684,1024,0,0,100,0,271.1,-89.9,0,62,3.817,3.795,3.79,3.79,0,0,6.675,75.38,133.47178871992,80.052496,6,P-GPS,
24300,2023-07-02 19:20:12,52.2064034334415,0.0865986034446328,82.021,82.021,53.419292719916,135.44029271992,83.66142,0,0.80350724356,2.95975403172,11,3,15.382,135.44029271992,82.021,13.197946,1.7125000548,0,0,-7.158208,271.7, -4.6, -1.7,0,0,1024,1024,1669,1024,0,0,98,0,271.1,-89.9,0,62,3.817,3.795,3.79,3.79,0,0,6.675,75.38,135.44029271992,82.021,6,P-GPS,
24500,2023-07-02 19:20:12,52.2064032934431,0.0865987724487024,85.958008,85.958008,53.419292719916,139.37730071992,83.66142,0,0.75236879048,3.02329077916,11,3,15.382,139.37730071992,85.958008,13.197946,1.7125000548,0,0,-9.395148,271.3, -5, -1.5,0,0,1024,1024,1552,1024,0,0,80,0,271.1,-90,0,62,3.817,3.795,3.79,3.79,0,0,6.675,75.38,139.37730071992,85.958008,6,P-GPS,
24700,2023-07-02 19:20:13,52.2064031187295,0.0865988775163021,90.879268,90.879268,53.419292719916,144.29856071992,83.66142,0,0.71463584964,3.09122713304,11,3,15.382,144.29856071992,90.879268,13.197946,1.7125000548,0,0,-10.737312,271.3, -6, -1.3,0,0,1024,1024,1062,1024,0,0,6,0,271.1,-89.9,0,62,3.817,3.795,3.79,3.79,0,0,6.675,75.38,144.29856071992,90.879268,6,P-GPS,
24900,2023-07-02 19:20:13,52.2064028845771,0.0865990243271801,94.488192,94.488192,53.419292719916,147.90748471992,83.66142,0,0.67021983772,3.18274616484,11,3,15.382,147.90748471992,94.488192,13.197946,1.7125000548,0,0,-9.395148,271, -6.8, -0.6,0,0,1024,1024,1684,1024,0,0,100,0,271.1,-90,0,62,3.817,3.795,3.79,3.79,0,0,6.675,75.38,147.90748471992,94.488192,6,P-GPS,
25100,2023-07-02 19:20:13,52.2064025734917,0.0865993542295134,97.112864,97.112864,53.419292719916,150.53215671992,83.66142,0,0.59719818184,3.3181103424,11,3,14.99,150.53215671992,97.112864,13.197946,1.7125000548,0,0,-8.052984,271.3, -4.6, -0.6,0,0,1024,1024,1684,1024,0,0,100,0,271.1,-90,0,62,3.734,3.78,3.815,3.817,0,0,11.898,75.38,150.53215671992,97.112864,6,P-GPS,
25300,2023-07-02 19:20:13,52.2064022303783,0.086599911620006,99.737536,99.737536,53.419292719916,153.15682871992,83.66142,0.223694,0.50453413688,3.494750768,11,3,14.99,153.15682871992,99.737536,13.197946,1.7125000548,0,0.223694,-9.618842,271.4, -3.7, 0,0,0,1024,1024,1684,1024,0,0,100,0,271.1,-89.9,0,62,3.734,3.78,3.815,3.817,0,0,11.898,75.38,153.15682871992,99.737536,6,P-GPS,
25500,2023-07-02 19:20:13,52.2064020726774,0.0866005892345323,103.018376,103.018376,53.419292719916,156.43766871992,83.66142,0.223694,0.39966536712,3.656824264,11,3,14.99,156.43766871992,103.018376,13.197946,1.7125000548,0,0.223694,-11.408394,271.4, -6, -1.4,0,0,1024,1024,1684,1024,0,0,100,0,271.1,-89.9,0,62,3.734,3.78,3.815,3.817,0,0,11.898,75.38,156.43766871992,103.018376,6,P-GPS,
25700,2023-07-02 19:20:14,52.2064019651738,0.0866010501315437,106.6273,106.6273,53.419292719916,160.04659271992,83.66142,0,0.35398295096,3.767060488,11,3,14.99,160.04659271992,106.6273,13.197946,1.7125000548,0,0,-12.750558,271.4, -7.2, -1.6,0,0,1024,1024,1681,1024,0,0,100,0,271.1,-90,0,62,3.734,3.78,3.815,3.817,0,0,11.898,75.38,160.04659271992,106.6273,6,P-GPS,
25900,2023-07-02 19:20:14,52.2064018558592,0.0866012074177223,110.892392,110.892392,53.419292719916,164.31168471992,83.66142,0,0.36800854196,3.8202429044,11,4,14.99,164.31168471992,110.892392,13.197946,1.7125000548,0,0,-13.197946,271.4, -5.7, -0.6,0,0,1024,1024,1658,1024,0,0,96,0,271.1,-90,0,62,3.734,3.78,3.815,3.817,0,0,11.898,75.38,164.31168471992,110.892392,6,P-GPS,
26100,2023-07-02 19:20:14,52.2064018189903,0.0866011981336264,114.8294,114.8294,53.419292719916,168.24869271992,83.66142,0,0.38078741376,3.8338583904,11,4,15.001,168.24869271992,114.8294,13.197946,1.7125000548,0,0,-13.197946,271, -4.4, 0,0,0,1024,1024,1540,1024,0,0,78,0,271.1,-90,0,62,3.724,3.73,3.737,3.736,0,0,12.168,75.38,168.24869271992,114.8294,6,P-GPS,
26300,2023-07-02 19:20:14,52.2064018979874,0.0866012611256075,118.438324,118.438324,53.419292719916,171.85761671992,83.66142,0,0.34874344948,3.8659450056,11,4,15.001,171.85761671992,118.438324,13.197946,1.7125000548,0,0,-12.750558,271, -4.8, -0.7,0,0,1024,1024,1024,1024,0,0,0,0,271.1,-90,0,62,3.724,3.73,3.737,3.736,0,0,12.168,75.38,171.85761671992,118.438324,6,P-GPS,
26500,2023-07-02 19:20:15,52.2064020571769,0.0866014218788887,121.719164,121.719164,53.419292719916,175.13845671992,83.66142,0,0.28055447092,3.9342520944,11,4,15.001,175.13845671992,121.719164,13.197946,1.7125000548,0,0,-10.961006,271.1, -5.8, -0.9,0,0,1024,1024,1024,1024,0,0,0,0,271.1,-90,0,62,3.724,3.73,3.737,3.736,0,0,12.168,75.38,175.13845671992,121.719164,6,P-GPS,
26700,2023-07-02 19:20:15,52.2064022850161,0.086601641050021,124.343836,124.343836,53.419292719916,177.76312871992,83.66142,0,0.184194231616,4.0307415988,11,4,15.001,177.76312871992,124.343836,13.197946,1.7125000548,0,0,-8.724066,271.1, -6.9, -1.2,0,0,1024,1024,1024,1024,0,0,0,0,271.1,-89.9,0,62,3.724,3.73,3.737,3.736,0,0,12.168,75.38,177.76312871992,124.343836,6,P-GPS,
26900,2023-07-02 19:20:15,52.2064025639633,0.0866019224331776,126.31234,126.31234,53.419292719916,179.73163271992,83.66142,0,0.065809057224,4.1503938336,11,4,15.001,179.73163271992,126.31234,13.197946,1.7125000548,0,0,-6.263432,271.1, -8, -2,0,0,1024,1024,1024,1024,0,0,0,0,271.1,-90,0,62,3.724,3.73,3.737,3.736,0,0,12.168,75.38,179.73163271992,126.31234,6,P-GPS,
27100,2023-07-02 19:20:15,52.2064028371986,0.0866022426309111,126.968508,126.968508,53.419292719916,180.38780071992,83.66142,0,0.063458663448,4.273130058,11,4,15.12,180.38780071992,126.968508,13.197946,1.7125000548,0,0,-4.026492,271.2, -9, -2.2,0,0,1024,1024,1682,1024,0,0,100,0,271.1,-90,0,62,3.846,3.853,3.853,3.853,0,0,13.227,75.74,180.38780071992,126.968508,6,P-GPS,
27300,2023-07-02 19:20:15,52.2064030708987,0.0866025140691955,127.296592,127.296592,53.419292719916,180.71588471992,83.66142,0,0.165977367516,4.377788854,11,4,15.12,180.71588471992,127.296592,13.197946,1.7125000548,0,0,-1.789552,271.3, -9, -2.4,0,0,1024,1024,1024,1024,0,0,0,0,271.1,-90,0,62,3.846,3.853,3.853,3.853,0,0,13.227,75.74,180.71588471992,127.296592,6,P-GPS,
27500,2023-07-02 19:20:16,52.2064032401942,0.0866025148343537,127.624676,127.624676,53.419292719916,181.04396871992,83.66142,0,0.21565453446,4.4395342628,11,4,15.12,181.04396871992,127.624676,13.197946,1.7125000548,0,0,-2.460634,271.1, -6.4, -1.8,0,0,1024,1024,1024,1024,0,0,0,0,271.1,-89.9,0,62,3.846,3.853,3.853,3.853,0,0,13.227,75.74,181.04396871992,127.624676,6,P-GPS,
27700,2023-07-02 19:20:16,52.20640335274,0.0866023764475332,127.95276,127.95276,53.419292719916,181.37205271992,83.66142,0,0.239391083776,4.4909450256,13,4,15.12,181.37205271992,127.95276,13.197946,1.7125000548,0,0,-0.894776,271.3, -9, -1.9,0,0,1024,1024,1024,1024,0,0,0,0,271.1,-90,0,62,3.846,3.853,3.853,3.853,0,0,13.227,75.74,181.37205271992,127.95276,6,P-GPS,
27900,2023-07-02 19:20:16,52.206403463217,0.0866020454616809,127.624676,127.624676,53.419292719916,181.04396871992,83.66142,0.223694,0.265513788024,4.5752298052,13,4,15.12,181.37205271992,127.95276,13.197946,1.7125000548,0,-0.223694,-0.223694,271.2, -6.1, -1.9,0,0,1024,1024,1024,1024,0,0,0,0,271.1,-90,0,62,3.846,3.853,3.853,3.853,0,0,13.227,75.74,181.04396871992,127.624676,6,P-GPS,
28100,2023-07-02 19:20:16,52.2064037119198,0.0866016285738797,127.296592,127.296592,53.419292719916,180.71588471992,83.66142,0.223694,0.3663221902,4.7053151112,13,4,15.12,181.37205271992,127.95276,13.197946,1.7125000548,0,-0.223694,0,271.4, -4.8, -2.3,0,0,1024,1024,1024,1024,0,0,0,0,271.1,-90,0,62,3.846,3.853,3.853,3.853,0,0,13.227,75.74,180.71588471992,127.296592,6,P-GPS,
28300,2023-07-02 19:20:16,52.2064041558896,0.0866011765755183,127.296592,127.296592,53.419292719916,180.71588471992,83.66142,0.223694,0.55077757668,4.8962271908,12,4,15.12,181.37205271992,127.95276,13.197946,1.7125000548,0,-0.223694,-1.11847,272.7, -2.7, -1.4,0,0,1024,1024,1024,1024,0,0,0,0,271.1,-89.9,0,62,3.846,3.853,3.853,3.853,0,0,13.227,75.74,180.71588471992,127.296592,6,P-GPS,
28500,2023-07-02 19:20:17,52.2064047486762,0.0866008627085992,127.624676,127.5918676,53.452101119916,181.04396871992,83.66142,0.223694,0.77807089104,5.1236222112,12,4,15.12,181.37205271992,127.95276,13.197946,1.7125000548,0,-0.223694,-0.894776,272.9, -6.4, -2,0,0,1024,1024,1332,1024,0,0,47,0,271.1,-89.9,0,62,3.846,3.853,3.853,3.853,0,0,13.227,75.74,181.04396871992,127.624676,6,P-GPS,
28700,2023-07-02 19:20:17,52.2064053956121,0.0866005919758485,127.624676,127.5918676,53.452101119916,181.04396871992,83.66142,0.223694,1.0210630248,5.367290198,12,4,15.497,181.37205271992,127.95276,13.197946,1.7125000548,0,-0.223694,-0.223694,272.9, -4.2, -2,0,0,1024,1024,1024,1024,0,0,0,0,271.1,-90,0,62,3.842,3.837,3.839,3.851,0,0,5.446,75.74,181.04396871992,127.624676,6,P-GPS,
28900,2023-07-02 19:20:17,52.2064059737228,0.0866003010942075,127.624676,127.5918676,53.452101119916,181.04396871992,83.66142,0,1.24175856992,5.5880251132,12,4,15.497,181.37205271992,127.95276,13.197946,1.7125000548,0,0,-1.11847,272.8, -1.9, -1.5,0,0,1024,1024,1024,1024,0,0,0,0,271.1,-89.9,0,62,3.842,3.837,3.839,3.851,0,0,5.446,75.74,181.04396871992,127.624676,6,P-GPS,
29100,2023-07-02 19:20:17,52.2064064407631,0.0866001333560455,127.95276,127.9199516,53.452101119916,181.37205271992,83.66142,0,1.41552497968,5.7625001844,12,4,15.497,181.37205271992,127.95276,13.197946,1.7125000548,0,0,-0.671082,272.9, -6.9, -1.5,0,0,1024,1024,1024,1024,0,0,0,0,271.1,-89.9,0,62,3.842,3.837,3.839,3.851,0,0,5.446,75.74,181.37205271992,127.95276,6,P-GPS,
29300,2023-07-02 19:20:17,52.2064068768629,0.0865999244381531,127.95276,127.8871432,53.484909519916,181.37205271992,83.66142,0,1.5813320716,5.928313838,12,4,15.497,181.37205271992,127.95276,13.197946,1.7125000548,0,0,0,272.9, -4.7, -1.6,0,0,1024,1024,1684,1024,0,0,100,0,271.1,-90,0,62,3.842,3.837,3.839,3.851,0,0,5.446,75.74,181.37205271992,127.95276,6,P-GPS,
29500,2023-07-02 19:20:17,52.2064072545104,0.086599622596462,127.624676,127.5590592,53.484909519916,181.04396871992,83.66142,0,1.73306107908,6.0817259164,13,4,15.497,181.37205271992,127.95276,13.197946,1.73306107908,0,0,0,272.8, -3.7, -1.8,0,0,1024,1024,1024,1024,0,0,0,0,271.1,-90,0,62,3.842,3.837,3.839,3.851,0,0,5.446,75.74,181.04396871992,127.624676,6,P-GPS,
29700,2023-07-02 19:20:18,52.2064075237174,0.0865993421397737,127.95276,127.8871432,53.484909519916,181.37205271992,83.66142,0,1.8460630512,6.1982613532,13,4,15.176,181.37205271992,127.95276,13.197946,1.8460630512,0,0,-1.565858,272.9, -2.9, -1.5,0,0,1024,1024,1024,1024,0,0,0,0,271.1,-89.9,0,62,3.841,3.844,3.842,3.836,0,0,7.646,75.74,181.37205271992,127.95276,6,P-GPS,
29900,2023-07-02 19:20:18,52.2064076777618,0.0865991588640731,128.280844,128.2152272,53.484909519916,181.70013671992,83.66142,0,1.91260832892,6.2678151612,13,4,15.176,181.70013671992,128.280844,13.197946,1.91260832892,0,0,-0.894776,273, -6.8, -2.4,0,0,1024,1024,1279,1024,0,0,39,0,271.1,-90,0,62,3.841,3.844,3.842,3.836,0,0,7.646,75.74,181.70013671992,128.280844,6,P-GPS,
30100,2023-07-02 19:20:18,52.2064077091696,0.0865989150317701,128.280844,128.2152272,53.484909519916,181.70013671992,83.66142,0,1.94217853984,6.3235238244,13,4,15.176,181.70013671992,128.280844,13.197946,1.94217853984,0,0,-0.223694,272.9, -4, -2.3,0,0,1024,1024,1598,1024,0,0,87,0,271.1,-90,0,62,3.841,3.844,3.842,3.836,0,0,7.646,75.74,181.70013671992,128.280844,6,P-GPS,
30300,2023-07-02 19:20:18,52.2064075550251,0.0865986821242135,128.280844,128.2152272,53.484909519916,181.70013671992,83.66142,0.223694,1.90943903748,6.4001642468,13,4,15.176,181.70013671992,128.280844,13.197946,1.94217853984,-0.223694,0,-1.11847,272.8, -2.2, -1.1,0,0,1024,1024,1024,1024,0,0,0,0,271.1,-90,0,62,3.841,3.844,3.842,3.836,0,0,7.646,75.74,181.70013671992,128.280844,6,P-GPS,
30500,2023-07-02 19:20:18,52.2064072877638,0.0865985675949074,128.608928,128.5433112,53.484909519916,182.02822071992,83.66142,0.223694,1.83066606908,6.50098446,13,4,15.176,182.02822071992,128.608928,13.197946,1.94217853984,-0.223694,0,-1.565858,272.7, -6.4, 0,0,0,1024,1024,1024,1024,0,0,0,0,271.1,-90,0,62,3.841,3.844,3.842,3.836,0,0,7.646,75.74,182.02822071992,128.608928,6,P-GPS,
30700,2023-07-02 19:20:19,52.2064070100044,0.0865984240835148,128.937012,128.8713952,53.484909519916,182.35630471992,83.66142,0,1.75369756268,6.607283676,13,4,15.323,182.35630471992,128.937012,13.197946,1.94217853984,0,0,-0.447388,272.9, -4.8, -0.2,0,0,1024,1024,1684,1024,0,0,100,0,271.1,-89.9,0,61,3.772,3.776,3.855,3.863,0,0,6.764,75.92,182.35630471992,128.937012,6,P-GPS,
30900,2023-07-02 19:20:19,52.2064067470473,0.0865982317699701,128.937012,128.8713952,53.484909519916,182.35630471992,83.66142,0,1.69004926668,6.712434598,13,4,15.323,182.35630471992,128.937012,13.197946,1.94217853984,0,0,-0.447388,272.8, -1.6, 0,0,0,1024,1024,1024,1024,0,0,0,0,271.1,-90,0,61,3.772,3.776,3.855,3.863,0,0,6.764,75.92,182.35630471992,128.937012,6,P-GPS,
31100,2023-07-02 19:20:19,52.2064065117285,0.0865982721944809,129.265096,129.1994792,53.484909519916,182.68438871992,83.66142,0,1.6115650122,6.7987534984,13,4,15.323,182.68438871992,129.265096,13.197946,1.94217853984,0,0,-1.565858,272.8, -4.3, 1.4,0,0,1024,1024,1024,1024,0,0,0,0,271.1,-90,0,61,3.772,3.776,3.855,3.863,0,0,6.764,75.92,182.68438871992,129.265096,6,P-GPS,
31300,2023-07-02 19:20:19,52.2064063159965,0.0865984092434213,129.59318,129.5603716,53.452101119916,183.01247271992,83.66142,0,1.53465556092,6.876476598,13,4,15.323,183.01247271992,129.59318,13.197946,1.94217853984,0,0,-0.447388,272.9, -6.4, 0.5,0,0,1024,1024,1684,1024,0,0,100,0,271.1,-89.9,0,61,3.772,3.776,3.855,3.863,0,0,6.764,75.92,183.01247271992,129.59318,6,P-GPS,
31500,2023-07-02 19:20:19,52.2064061712244,0.0865983844778958,129.59318,129.5603716,53.452101119916,183.01247271992,83.66142,0,1.49295608452,6.9295933976,13,4,15.323,183.01247271992,129.59318,13.197946,1.94217853984,0,0,-0.223694,273, -3.4, -0.3,0,0,1024,1024,1684,1024,0,0,100,0,271.1,-90,0,61,3.772,3.776,3.855,3.863,0,0,6.764,75.92,183.01247271992,129.59318,6,P-GPS,
31700,2023-07-02 19:20:20,52.2064060086179,0.0865983491255342,129.59318,129.5603716,53.452101119916,183.01247271992,83.66142,0,1.4479659256,6.9894359192,13,4,15.176,183.01247271992,129.59318,13.197946,1.94217853984,0,0,-1.565858,272.8, -1.2, 0.5,0,0,1024,1024,1024,1024,0,0,0,0,271.1,-89.9,0,61,3.839,3.848,3.847,3.845,0,0,8.784,76.1,183.01247271992,129.59318,6,P-GPS,
31900,2023-07-02 19:20:20,52.2064058599902,0.0865985170490335,130.577432,130.5446236,53.452101119916,183.99672471992,83.66142,0,1.38200791824,7.0553808032,13,4,15.176,183.99672471992,130.577432,13.197946,1.94217853984,0,0,-3.131716,273, -6.3, 0.1,0,0,1024,1024,1024,1024,0,0,0,0,271.1,-89.9,0,61,3.839,3.848,3.847,3.845,0,0,8.784,76.1,183.99672471992,130.577432,6,P-GPS,
32100,2023-07-02 19:20:20,52.2064057226279,0.0865986356446213,131.2336,131.2007916,53.452101119916,184.65289271992,83.66142,0,1.32569558048,7.1120737184,13,4,15.176,184.65289271992,131.2336,13.197946,1.94217853984,0,0,-1.789552,272.8, -7.8, -0.6,0,0,1024,1024,1024,1024,0,0,0,0,271.1,-90,0,61,3.839,3.848,3.847,3.845,0,0,8.784,76.1,184.65289271992,131.2336,6,P-GPS,
32300,2023-07-02 19:20:20,52.2064055747647,0.0865986116191347,131.561684,131.5288756,53.452101119916,184.98097671992,83.66142,0,1.28488849256,7.1663060036,13,4,15.176,184.98097671992,131.561684,13.197946,1.94217853984,0,0,-0.447388,272.9, -5.1, 0,0,0,1024,1024,1024,1024,0,0,0,0,271.1,-90,0,61,3.839,3.848,3.847,3.845,0,0,8.784,76.1,184.98097671992,131.561684,6,P-GPS,
32500,2023-07-02 19:20:20,52.2064054746247,0.0865984811121548,131.561684,131.5288756,53.452101119916,184.98097671992,83.66142,0,1.27350397776,7.2130579736,13,4,15.176,184.98097671992,131.561684,13.197946,1.94217853984,0,0,0,272.8, -2.8, 1.8,0,0,1024,1024,1024,1024,0,0,0,0,271.1,-90,0,61,3.839,3.848,3.847,3.845,0,0,8.784,76.1,184.98097671992,131.561684,6,P-GPS,
32700,2023-07-02 19:20:21,52.2064054699834,0.0865984176035881,131.561684,131.5288756,53.452101119916,184.98097671992,83.66142,0,1.28103350556,7.227362436,15,5,15.371,184.98097671992,131.561684,13.197946,1.94217853984,0,0,0,273.4, -3.4, 1,0,0,1024,1024,1024,1024,0,0,0,0,271.1,-89.9,0,61,3.777,3.782,3.779,3.77,0,0,6.549,76.1,184.98097671992,131.561684,6,P-GPS,
32900,2023-07-02 19:20:21,52.2064055375416,0.0865984546640677,131.561684,131.5288756,53.452101119916,184.98097671992,83.66142,0.223694,1.29521657688,7.2533466888,15,5,15.371,184.98097671992,131.561684,13.197946,1.94217853984,0.223694,0,0,275, -3.9, -1.7,0,0,1024,1024,1024,364,0,0,0,-100,271.1,-90,0,61,3.777,3.782,3.779,3.77,0,0,6.549,76.1,184.98097671992,131.561684,6,P-GPS,
33100,2023-07-02 19:20:21,52.2064055057916,0.0865984475911053,131.561684,131.5288756,53.452101119916,184.98097671992,83.66142,0,1.28707025116,7.2650592876,15,5,15.371,184.98097671992,131.561684,13.197946,1.94217853984,0,0,0,275.1, -4.6, -2.1,0,0,1024,1024,1024,521,0,0,0,-76,268.1,-89.9,0,61,3.777,3.782,3.779,3.77,0,0,6.549,76.1,184.98097671992,131.561684,6,P-GPS,
33300,2023-07-02 19:20:21,52.2064053073669,0.0865983116284143,131.2336,131.2007916,53.452101119916,184.65289271992,83.66142,0,1.2509350794,7.3435697888,15,5,15.371,184.98097671992,131.561684,13.197946,1.94217853984,0,0,0,269.6, -3.9, -1.4,0,0,1024,1024,1024,1024,0,0,0,0,262.1,-89.9,0,61,3.777,3.782,3.779,3.77,0,0,6.549,76.1,184.65289271992,131.2336,6,P-GPS,
33500,2023-07-02 19:20:21,52.2064050501418,0.0865981274273376,131.2336,131.2007916,53.452101119916,184.65289271992,83.66142,0,1.21135830648,7.4460632304,15,5,15.371,184.98097671992,131.561684,13.197946,1.94217853984,0,0,0,265.2, -3.1, -1.2,0,0,1024,1024,1024,1684,0,0,0,100,261.9,-89.9,0,61,3.777,3.782,3.779,3.77,0,0,6.549,76.1,184.65289271992,131.2336,6,P-GPS,
33700,2023-07-02 19:20:22,52.2064047446383,0.0865979949582064,131.2336,131.2007916,53.452101119916,184.65289271992,83.66142,0,1.1592684098,7.5613847564,15,5,15.398,184.98097671992,131.561684,13.197946,1.94217853984,0,0,0,266.1, -3.1, -0.7,0,0,1024,1024,1038,1369,0,0,2,52,267,-89.9,0,61,3.832,3.831,3.831,3.828,0,0,7.743,76.1,184.65289271992,131.2336,6,P-GPS,
33900,2023-07-02 19:20:22,52.2064044740292,0.0865979222354139,131.2336,131.2336,53.419292719916,184.65289271992,83.66142,0,1.11283140044,7.6614503764,15,5,15.398,184.98097671992,131.561684,13.197946,1.94217853984,0,0,0,274.2, -3.3, -0.6,0,0,1024,1024,1024,1024,0,0,0,0,277.1,-90,0,61,3.832,3.831,3.831,3.828,0,0,7.743,76.1,184.65289271992,131.2336,6,P-GPS,
34100,2023-07-02 19:20:22,52.2064042834306,0.0865979240710946,131.2336,131.2336,53.419292719916,184.65289271992,83.66142,0,1.07437339396,7.7310041844,15,5,15.398,184.98097671992,131.561684,13.197946,1.94217853984,0,0,0,283.4, -3.8, -0.4,0,0,1024,1024,1024,1024,0,0,0,0,278.7,-89.9,0,61,3.832,3.831,3.831,3.828,0,0,7.743,76.1,184.65289271992,131.2336,6,P-GPS,
34300,2023-07-02 19:20:22,52.2064042061986,0.0865979729440177,131.2336,131.2336,53.419292719916,184.65289271992,83.66142,0,1.0504265428,7.7612207208,15,5,15.398,184.98097671992,131.561684,13.197946,1.94217853984,0,0,0,282.6, -3.6, -1.7,0,0,1024,1024,1024,1024,0,0,0,0,278.7,-89.9,0,61,3.832,3.831,3.831,3.828,0,0,7.743,76.1,184.65289271992,131.2336,6,P-GPS,
34500,2023-07-02 19:20:23,52.2064041882774,0.0865980683456796,131.2336,131.2336,53.419292719916,184.65289271992,83.66142,0,1.02875987544,7.7835304328,15,5,15.398,184.98097671992,131.561684,13.197946,1.94217853984,0,0,0,282.7, -3.9, -1.9,0,0,1024,1024,1024,1024,0,0,0,0,278.7,-90,0,61,3.832,3.831,3.831,3.828,0,0,7.743,76.1,184.65289271992,131.2336,6,P-GPS,
34700,2023-07-02 19:20:23,52.206404140177,0.0865981506243215,131.2336,131.2336,53.419292719916,184.65289271992,83.66142,0,1.00396656756,7.8089569428,15,5,15.304,184.98097671992,131.561684,13.197946,1.94217853984,0,0,0,282.7, -4.1, -1.9,0,0,1024,1024,1059,1097,0,0,5,11,278.7,-90,0,61,3.825,3.829,3.827,3.826,0,0,7.2,76.1,184.65289271992,131.2336,6,P-GPS,
34900,2023-07-02 19:20:23,52.2064040671188,0.086598177327971,130.905516,130.905516,53.419292719916,184.32480871992,83.66142,0,0.98542982156,7.8362535316,15,5,15.304,184.98097671992,131.561684,13.197946,1.94217853984,0,0,0,282.6, -3.8, -2.2,0,0,1024,1024,1024,1024,0,0,0,0,278.7,-90,0,61,3.825,3.829,3.827,3.826,0,0,7.2,76.1,184.32480871992,130.905516,6,P-GPS,
35100,2023-07-02 19:20:23,52.2064039592301,0.0865982126617661,130.905516,130.905516,53.419292719916,184.32480871992,83.66142,0,0.95963257664,7.8764110132,15,5,15.304,184.98097671992,131.561684,13.197946,1.94217853984,0,0,0,282.8, -4.7, -1.8,0,0,1024,1024,1024,1024,0,0,0,0,279,-90,0,61,3.825,3.829,3.827,3.826,0,0,7.2,76.1,184.32480871992,130.905516,6,P-GPS,
35300,2023-07-02 19:20:23,52.2064038409476,0.0865982087267605,130.905516,130.905516,53.419292719916,184.32480871992,83.66142,0,0.94113191988,7.9195868676,15,5,15.304,184.98097671992,131.561684,13.197946,1.94217853984,0,0,0,283.1, -4.9, -1.3,0,0,1024,1024,1024,1024,0,0,0,0,279.1,-89.9,0,61,3.825,3.829,3.827,3.826,0,0,7.2,76.1,184.32480871992,130.905516,6,P-GPS,
35500,2023-07-02 19:20:24,52.2064037368931,0.0865981590489251,130.905516,130.905516,53.419292719916,184.32480871992,83.66142,0,0.93571853388,7.9591209896,15,5,15.304,184.98097671992,131.561684,13.197946,1.94217853984,0,0,0,283.2, -5.2, -1.7,0,0,1506,1024,1024,1024,73,0,0,0,279.1,-89.9,0,61,3.825,3.829,3.827,3.826,0,0,7.2,76.1,184.32480871992,130.905516,6,P-GPS,
35700,2023-07-02 19:20:24,52.2064036495378,0.0865980765948843,130.905516,130.905516,53.419292719916,184.32480871992,83.66142,0,0.94095803536,7.9959648228,15,5,15.306,184.98097671992,131.561684,13.197946,1.94217853984,0,0,0,283.3, -2.7, -1.4,0,0,1659,1024,1024,1024,96,0,0,0,279.1,-90,0,61,3.828,3.829,3.828,3.828,0,0,7.264,76.28,184.32480871992,130.905516,6,P-GPS,
35900,2023-07-02 19:20:24,52.2064036045921,0.0865979466328858,130.577432,130.577432,53.419292719916,183.99672471992,83.66142,0,0.9626640728,8.0293309656,15,5,15.306,184.98097671992,131.561684,13.197946,1.94217853984,0,0,0,283.1, -17, -0.9,0,0,1679,1024,1024,1024,99,0,0,0,279.1,-89.9,0,61,3.828,3.829,3.828,3.828,0,0,7.264,76.28,183.99672471992,130.577432,6,P-GPS,
