time(millisecond),datetime(utc),latitude,longitude,height_above_takeoff(feet),height_above_ground_at_drone_location(feet),ground_elevation_at_drone_location(feet),altitude_above_seaLevel(feet),height_sonar(feet),speed(mph),distance(feet),mileage(feet),satellites,gpslevel,voltage(v),max_altitude(feet),max_ascent(feet),max_speed(mph),max_distance(feet), xSpeed(mph), ySpeed(mph), zSpeed(mph), compass_heading(degrees), pitch(degrees), roll(degrees),isPhoto,isVideo,rc_elevator,rc_aileron,rc_throttle,rc_rudder,rc_elevator(percent),rc_aileron(percent),rc_throttle(percent),rc_rudder(percent),gimbal_heading(degrees),gimbal_pitch(degrees),gimbal_roll(degrees),battery_percent,voltageCell1,voltageCell2,voltageCell3,voltageCell4,voltageCell5,voltageCell6,current(A),battery_temperature(f),altitude(feet),ascent(feet),flycStateRaw,flycState,message
100,2023-07-27 15:11:43,52.2064263461187,0.0864423568117172,0,0,53.27457683602,53.27457683602,2.952756,0,0,0,26,5,0,53.27457683602,0,0,0,0,0,0,346.5, 2.4, -0.5,0,0,1024,1024,1024,1024,0,0,0,0,345.4,0.1,-0.6,77,4.049,4.054,4.049,4.053,0,0,0,75.02,53.27457683602,0,41,Motors_Started,
300,2023-07-27 15:11:43,52.2064263811943,0.0864424576553252,0,0,53.27457683602,53.27457683602,2.952756,0,0.025925853848,0.025925853848,26,5,0,53.27457683602,0,0,0.025925853848,0,0,0,345.9, 2.5, -0.6,0,0,1024,1024,1024,1024,0,0,0,0,345.6,0,0,77,4.049,4.054,4.049,4.053,0,0,0,75.02,53.27457683602,0,41,Motors_Started,"Setting new Return-To-Home altitude to 26m (85 ft). Data Recorder File Index is 76. Setting new Maximum Flight Altitude to 120m (394 ft)"
500,2023-07-27 15:11:43,52.2064264242292,0.0864425782537731,0,0,53.27457683602,53.27457683602,3.28084,0,0.0571276265,0.057128282668,26,5,0,53.27457683602,0,0,0.0571276265,0,0,0,346.8, 3.1, -1.1,0,0,1024,1024,1024,1024,0,0,0,0,345.6,0,0,77,4.049,4.054,4.049,4.053,0,0,0,75.02,53.27457683602,0,41,Motors_Started,
700,2023-07-27 15:11:43,52.2064264916733,0.0864427102219569,0,0,53.27457683602,53.27457683602,2.952756,0,0.09520505554,0.095548887572,26,5,0,53.27457683602,0,0,0.09520505554,0,0,0,346, 2.8, -0.8,0,0,1024,1024,1024,1024,0,0,0,0,345.7,0,0,77,4.049,4.054,4.049,4.053,0,0,0,75.02,53.27457683602,0,41,Motors_Started,
900,2023-07-27 15:11:43,52.2064265387004,0.0864428468503519,0,-0.032808400000005,53.30738523602,53.27457683602,2.952756,0,0.130160109152,0.1305856341,26,5,0,53.27457683602,0,0,0.130160109152,0,0,0,346.3, 2.4, -1.1,0,0,1024,1024,1024,1024,0,0,0,0,345.7,0,0,77,4.049,4.054,4.049,4.053,0,0,0,75.02,53.27457683602,0,41,Motors_Started,
1100,2023-07-27 15:11:44,52.2064265754198,0.0864430267004318,0,-0.032808400000005,53.30738523602,53.27457683602,2.952756,0,0.171559060608,0.17297080606,26,5,16.424,53.27457683602,0,0,0.171559060608,0,0,0,345.8, 2.3, -0.6,0,0,1024,1024,1024,1024,0,0,0,0,345.7,0,0,77,4.049,4.054,4.049,4.053,0,0,1.446,75.02,53.27457683602,0,41,Motors_Started,
1300,2023-07-27 15:11:44,52.2064266426466,0.0864432584493416,0,-0.032808400000005,53.30738523602,53.27457683602,2.952756,0,0.228789705484,0.2302985638,26,5,16.424,53.27457683602,0,0,0.228789705484,0,0,0,345.3, 2.9, 0,0,0,1024,1024,1024,1024,0,0,0,0,345.7,0,0,77,4.049,4.054,4.049,4.053,0,0,1.446,75.02,53.27457683602,0,41,Motors_Started,
1500,2023-07-27 15:11:44,52.2064266929601,0.0864435061880075,0,-0.032808400000005,53.30738523602,53.27457683602,2.952756,0,0.286452108904,0.288652240208,26,5,16.424,53.27457683602,0,0,0.286452108904,0,0,0,345.1, 2.7, 0,0,0,1024,1024,1024,1024,0,0,0,0,345.7,0,0,77,4.049,4.054,4.049,4.053,0,0,1.446,75.02,53.27457683602,0,41,Motors_Started,
1700,2023-07-27 15:11:44,52.2064267455316,0.0864437313885942,0,-0.032808400000005,53.30738523602,53.27457683602,2.952756,0,0.34013452532,0.34253281936,26,5,16.424,53.27457683602,0,0,0.34013452532,0,0,0,345.7, 1.4, -0.3,0,0,1024,1024,1024,1024,0,0,0,0,345.7,0,0,77,4.049,4.054,4.049,4.053,0,0,1.446,75.02,53.27457683602,0,11,AutoTakeoff,
1900,2023-07-27 15:11:44,52.2064268134507,0.0864438844514695,0,-0.032808400000005,53.30738523602,53.27457683602,2.952756,0,0.38175198072,0.38478675772,26,5,16.424,53.27457683602,0,0,0.38175198072,0,0,0,344.8, 0.7, -0.4,0,0,1024,1024,1024,1024,0,0,0,0,345.7,0,0,77,4.049,4.054,4.049,4.053,0,0,1.446,75.02,53.27457683602,0,11,AutoTakeoff,
2100,2023-07-27 15:11:45,52.2064269517475,0.0864440929502173,0,-0.032808400000005,53.30738523602,53.27457683602,3.28084,0,0.44666011928,0.45348098564,26,5,16.238,53.27457683602,0,0,0.44666011928,0,0,-0.223694,343.6, -0.2, 0.6,0,0,1024,1024,1024,1024,0,0,0,0,345.6,0,0,77,4.049,4.052,4.043,4.044,0,0,3.55,74.84,53.27457683602,0,11,AutoTakeoff,
2300,2023-07-27 15:11:45,52.2064272242399,0.0864443657915529,0,-0.032808400000005,53.30738523602,53.27457683602,3.28084,0.223694,0.55173230112,0.57012469016,26,5,16.238,53.27457683602,0,0.223694,0.55173230112,0.223694,0,-0.223694,341.2, -2.3, 3.5,0,0,1024,1024,1024,1024,0,0,0,0,345,0,0,77,4.049,4.052,4.043,4.044,0,0,3.55,74.84,53.27457683602,0,11,AutoTakeoff,
2500,2023-07-27 15:11:45,52.2064277810668,0.0864449140768217,0,-0.032808400000005,53.30738523602,53.27457683602,3.608924,1.006623,0.77525264948,0.80740488148,26,5,16.238,53.27457683602,0,1.006623,0.77525264948,0.894776,0.447388,-0.894776,339.8, -3.8, 4.1,0,0,1024,1024,1024,1024,0,0,0,0,343.5,0,0,77,4.049,4.052,4.043,4.044,0,0,3.55,74.84,53.27457683602,0,11,AutoTakeoff,
2700,2023-07-27 15:11:45,52.2064288275645,0.0864461374514267,0.656168,0.62335959999999,53.30738523602,53.93074483602,3.608924,1.2974252,1.23862864856,1.2770833742,26,5,16.238,53.93074483602,0.656168,1.2974252,1.23862864856,1.11847,0.671082,-1.11847,340, 7.2, -9.2,0,0,1024,1024,1684,1024,0,0,100,0,343,0,0,77,4.049,4.052,4.043,4.044,0,0,3.55,74.84,53.93074483602,0.656168,6,P-GPS,
2900,2023-07-27 15:11:45,52.2064296380204,0.0864472802754485,0.984252,0.9186352,53.34019363602,54.25882883602,3.937008,0.6263432,1.62920936972,1.66788719248,26,5,16.238,54.25882883602,0.984252,1.2974252,1.62920936972,0.447388,0.447388,-1.11847,342.5, 7.6, -10.2,0,0,1024,1024,1684,1024,0,0,100,0,343,0,0,77,4.049,4.052,4.043,4.044,0,0,3.55,74.84,54.25882883602,0.984252,6,P-GPS,
3100,2023-07-27 15:11:46,52.2064299828695,0.0864480513415327,1.312336,1.2467192,53.34019363602,54.58691283602,4.92126,0.223694,1.83893050504,1.881315677,26,5,16.238,54.58691283602,1.312336,1.2974252,1.83893050504,0,0.223694,-2.460634,342.9, 4.2, -8.1,0,0,1024,1024,1684,1024,0,0,100,0,343,0,0,77,4.049,4.052,4.043,4.044,0,0,3.55,74.84,54.58691283602,1.312336,6,P-GPS,
3300,2023-07-27 15:11:46,52.2064300253325,0.0864484292764755,2.624672,2.5590552,53.34019363602,55.89924883602,5.905512,0,1.90927499548,1.9672244724,26,5,15.957,55.89924883602,2.624672,1.2974252,1.90927499548,0,0,-4.026492,342.6, 3, -6.2,0,0,1024,1024,1684,1024,0,0,100,0,343,0,0,77,3.969,3.973,3.965,3.968,0,0,7.469,75.02,55.89924883602,2.624672,6,P-GPS,
3500,2023-07-27 15:11:46,52.2064298660071,0.0864485840503156,3.937008,3.8713912,53.34019363602,57.21158483602,7.545932,0.223694,1.89415360392,2.0348753932,26,5,15.957,57.21158483602,3.937008,1.2974252,1.90927499548,-0.223694,0,-6.039738,345, 1.4, -5.3,0,0,1024,1024,1684,1024,0,0,100,0,343,0,0,77,3.969,3.973,3.965,3.968,0,0,7.469,75.02,57.21158483602,3.937008,6,P-GPS,
3700,2023-07-27 15:11:46,52.206429690602,0.0864485998050407,6.56168,6.4960632,53.34019363602,59.83625683602,9.514436,0,1.85401252652,2.09896988344,25,5,15.957,59.83625683602,6.56168,1.2974252,1.90927499548,0,0,-8.052984,343.8, 0.1, -4.3,0,0,1024,1024,1684,1024,0,0,100,0,343,0,0,77,3.969,3.973,3.965,3.968,0,0,7.469,75.02,59.83625683602,6.56168,6,P-GPS,
3900,2023-07-27 15:11:46,52.2064296358053,0.086448555452542,9.84252,9.7769032,53.34019363602,63.11709683602,12.467192,0,1.83340885132,2.12128615712,26,5,15.957,63.11709683602,9.84252,1.2974252,1.90927499548,0,0,-10.06623,343.7, 1.8, -4.1,0,0,1024,1024,1684,1024,0,0,100,0,343,0,0,77,3.969,3.973,3.965,3.968,0,0,7.469,75.02,63.11709683602,9.84252,6,P-GPS,
4100,2023-07-27 15:11:47,52.2064295965618,0.0864484636569739,13.779528,13.7139112,53.34019363602,67.05410483602,15.748032,0.223694,1.80852039908,2.1463091238,26,5,15.957,67.05410483602,13.779528,1.2974252,1.90927499548,-0.223694,0,-12.30317,343.5, 0.3, -3.5,0,0,1024,1024,1684,1024,0,0,100,0,343,0,0,77,3.969,3.973,3.965,3.968,0,0,7.469,75.02,67.05410483602,13.779528,6,P-GPS,
4300,2023-07-27 15:11:47,52.2064296912354,0.08644847653934,18.700788,18.6351712,53.34019363602,71.97536483602,19.68504,0,1.83350727652,2.1809711984,25,5,15.65,71.97536483602,18.700788,1.2974252,1.90927499548,0,0,-13.197946,344.1, 0.7, -4.3,0,0,1024,1024,1684,1024,0,0,100,0,343,0,0,77,3.866,3.878,3.876,3.891,0,0,12.971,74.84,71.97536483602,18.700788,6,P-GPS,
4500,2023-07-27 15:11:47,52.2064299244281,0.0864485276627422,23.293964,23.2283472,53.34019363602,76.56854083602,23.622048,0,1.8994915306,2.26681765784,26,5,15.65,76.56854083602,23.293964,1.2974252,1.90927499548,0,0,-13.42164,343.3, -0.6, -3.7,0,0,1024,1024,1684,1024,0,0,100,0,343,0,0,77,3.866,3.878,3.876,3.891,0,0,12.971,74.84,76.56854083602,23.293964,6,P-GPS,
4700,2023-07-27 15:11:47,52.2064303707513,0.0864486652290772,27.88714,27.8215232,53.34019363602,81.16171683602,27.88714,0.223694,2.0360728998,2.43253616708,25,5,15.65,81.16171683602,27.88714,1.2974252,2.0360728998,0.223694,0,-13.42164,343.4, 1.3, -4.4,0,0,1024,1024,1684,1024,0,0,100,0,343,0,0,77,3.866,3.878,3.876,3.891,0,0,12.971,74.84,81.16171683602,27.88714,6,P-GPS,
4900,2023-07-27 15:11:47,52.2064309230394,0.0864489576828361,31.824148,31.7585312,53.34019363602,85.09872483602,32.480316,0.223694,2.2286089952,2.64438328672,25,5,15.65,85.09872483602,31.824148,1.2974252,2.2286089952,0.223694,0,-13.42164,343.7, 2.6, -6.2,0,0,1024,1024,1684,1024,0,0,100,0,343,0,0,77,3.866,3.878,3.876,3.891,0,0,12.971,74.84,85.09872483602,31.824148,6,P-GPS,
5100,2023-07-27 15:11:48,52.2064314074056,0.0864492191419852,35.761156,35.6955392,53.34019363602,89.03573283602,36.417324,0,2.40085637604,2.83052174412,25,5,15.65,89.03573283602,35.761156,1.2974252,2.40085637604,0,0,-13.42164,343.7, 2.2, -6.7,0,0,1024,1024,1684,1024,0,0,100,0,343,0,0,77,3.866,3.878,3.876,3.891,0,0,12.971,74.84,89.03573283602,35.761156,6,P-GPS,
5300,2023-07-27 15:11:48,52.2064318759113,0.0864493978754492,40.026248,39.9278228,53.37300203602,93.30082483602,40.354332,0,2.5590716042,3.00606308832,26,5,15.704,93.30082483602,40.026248,1.2974252,2.5590716042,0,0,-13.42164,343.9, 1.8, -6.5,0,0,1024,1024,1684,1024,0,0,100,0,343,0,0,77,3.937,3.946,3.939,3.944,0,0,15.155,75.02,93.30082483602,40.026248,6,P-GPS,
5500,2023-07-27 15:11:48,52.2064322827705,0.0864495027390492,43.635172,43.5367468,53.37300203602,96.90974883602,42.979004,0,2.69151255332,3.1563485262,25,5,15.704,96.90974883602,43.635172,1.2974252,2.69151255332,0,0,-13.197946,343.9, 2.4, -6.4,0,0,1024,1024,1684,1024,0,0,100,0,343,-1,0,77,3.937,3.946,3.939,3.944,0,0,15.155,75.02,96.90974883602,43.635172,6,P-GPS,
5700,2023-07-27 15:11:48,52.2064326188283,0.0864495527346956,47.57218,47.4737548,53.37300203602,100.84675683602,46.916012,0,2.79754602128,3.27946532804,25,5,15.704,100.84675683602,47.57218,1.2974252,2.79754602128,0,0,-13.197946,344.2, 2.3, -6.8,0,0,1024,1024,1684,1024,0,0,100,0,343,-3.5,0,77,3.937,3.946,3.939,3.944,0,0,15.155,75.02,100.84675683602,47.57218,6,P-GPS,
5900,2023-07-27 15:11:48,52.2064329621819,0.0864495767563536,51.509188,51.4107628,53.37300203602,104.78376483602,50.85302,0,2.9039042924,3.404855752,25,5,15.704,104.78376483602,51.509188,1.2974252,2.9039042924,0,0,-13.197946,344.6, 2.5, -7.2,0,0,1024,1024,1684,1024,0,0,100,0,343,-6.3,0,77,3.937,3.946,3.939,3.944,0,0,15.155,75.02,104.78376483602,51.509188,6,P-GPS,
6100,2023-07-27 15:11:49,52.2064332814861,0.0864495948760239,55.446196,55.3477708,53.37300203602,108.72077283602,54.790028,0,3.00362214336,3.5214239972,25,5,15.704,108.72077283602,55.446196,1.2974252,3.00362214336,0,0,-13.197946,345.1, 2.5, -7.1,0,0,1024,1024,1684,1024,0,0,100,0,343,-9.2,0,77,3.937,3.946,3.939,3.944,0,0,15.155,75.02,108.72077283602,55.446196,6,P-GPS,
6300,2023-07-27 15:11:49,52.2064334858393,0.0864495563138951,58.727036,58.6286108,53.37300203602,112.00161283602,58.727036,0,3.0621556098,3.5964896164,25,5,15.714,112.00161283602,58.727036,1.2974252,3.0621556098,0,0,-13.197946,346.6, 2.6, -6.7,0,0,1024,1024,1684,1024,0,0,100,0,343,-12.2,0,77,3.914,3.919,3.909,3.921,0,0,12.449,75.2,112.00161283602,58.727036,6,P-GPS,
6500,2023-07-27 15:11:49,52.2064336198806,0.0864494847552426,62.007876,61.9094508,53.37300203602,115.28245283602,62.33596,0,3.09559721192,3.6479331876,25,5,15.714,115.28245283602,62.007876,1.2974252,3.09559721192,0,0,-13.197946,347.5, 3.3, -6.3,0,0,1024,1024,1684,1024,0,0,100,0,343,-15.1,0,77,3.914,3.919,3.909,3.921,0,0,12.449,75.2,115.28245283602,62.007876,6,P-GPS,
6700,2023-07-27 15:11:49,52.206433723838,0.086449357604103,66.601052,66.5026268,53.37300203602,119.87562883602,66.601052,0,3.11378618888,3.6953413256,25,5,15.714,119.87562883602,66.601052,1.2974252,3.11378618888,0,0,-13.42164,347.4, 2.7, -6.8,0,0,1024,1024,1684,1024,0,0,100,0,343,-18,0,77,3.914,3.919,3.909,3.921,0,0,12.449,75.2,119.87562883602,66.601052,6,P-GPS,
6900,2023-07-27 15:11:49,52.2064337037411,0.086449227411321,70.209976,70.1115508,53.37300203602,123.48455283602,70.53806,0,3.09288723808,3.7253610116,26,5,15.714,123.48455283602,70.209976,1.2974252,3.11378618888,0,0,-13.197946,346.7, 2.3, -6.5,0,0,1024,1024,1684,1024,0,0,100,0,343,-20.9,0,77,3.914,3.919,3.909,3.921,0,0,12.449,75.2,123.48455283602,70.209976,6,P-GPS,
7100,2023-07-27 15:11:50,52.2064336392804,0.0864490955060451,73.8189,73.7204748,53.37300203602,127.09347683602,74.475068,0,3.05786099024,3.7630578632,25,5,15.714,127.09347683602,73.8189,1.2974252,3.11378618888,0,0,-13.42164,345.5, 1.7, -5.7,0,0,1024,1024,1684,1024,0,0,100,0,343,-23.8,0,77,3.914,3.919,3.909,3.921,0,0,12.449,75.2,127.09347683602,73.8189,6,P-GPS,
7300,2023-07-27 15:11:50,52.2064335652579,0.0864490581529282,77.427824,77.3293988,53.37300203602,130.70240083602,78.412076,0,3.0302494408,3.791338704,26,5,15.651,130.70240083602,77.427824,1.2974252,3.11378618888,0,0,-13.197946,344.7, 1.3, -5.9,0,0,1024,1024,1684,1024,0,0,100,0,343,-26.8,0,77,3.912,3.92,3.91,3.919,0,0,13.49,75.38,130.70240083602,77.427824,6,P-GPS,
7500,2023-07-27 15:11:50,52.2064334703053,0.0864490391599734,81.036748,80.9383228,53.37300203602,134.31132483602,82.349084,0,2.99806768124,3.8262468416,26,5,15.651,134.31132483602,81.036748,1.2974252,3.11378618888,0,0,-13.197946,344.7, 0.7, -6.2,0,0,1024,1024,1684,1024,0,0,100,0,343,-29.7,0,77,3.912,3.92,3.91,3.919,0,0,13.49,75.38,134.31132483602,81.036748,6,P-GPS,
7700,2023-07-27 15:11:50,52.2064333839508,0.0864490241597068,84.645672,84.5472468,53.37300203602,137.92024883602,83.66142,0,2.96910770656,3.857939756,26,5,15.651,137.92024883602,84.645672,1.2974252,3.11378618888,0,0,-13.197946,344.4, 1.2, -6.8,0,0,1024,1024,1684,1024,0,0,100,0,343,-32.6,0,77,3.912,3.92,3.91,3.919,0,0,13.49,75.38,137.92024883602,84.645672,6,P-GPS,
7900,2023-07-27 15:11:50,52.2064332987399,0.0864489724740649,88.254596,88.1561708,53.37300203602,141.52917283602,83.66142,0,2.93642397848,3.8911090484,25,5,15.651,141.52917283602,88.254596,1.2974252,3.11378618888,0,0,-13.197946,344.4, 1.5, -7.1,0,0,1024,1024,1684,1024,0,0,100,0,343,-35.5,0,77,3.912,3.92,3.91,3.919,0,0,13.49,75.38,141.52917283602,88.254596,6,P-GPS,
8100,2023-07-27 15:11:51,52.2064331908481,0.0864488053344464,91.86352,91.7650948,53.37300203602,145.13809683602,83.66142,0,2.88362213952,3.945374142,25,5,15.651,145.13809683602,91.86352,1.2974252,3.11378618888,0,0,-13.197946,344.5, 1.3, -5.4,0,0,1024,1024,1684,1024,0,0,100,0,343,-38.4,0,77,3.912,3.92,3.91,3.919,0,0,13.49,75.38,145.13809683602,91.86352,6,P-GPS,
8300,2023-07-27 15:11:51,52.2064331018613,0.0864485944122141,95.472444,95.3740188,53.37300203602,148.74702083602,83.66142,0,2.83203421136,4.0026248,25,5,15.642,148.74702083602,95.472444,1.2974252,3.11378618888,0,0,-13.197946,344.5, 0.8, -4.4,0,0,1024,1024,1684,1024,0,0,100,0,343,-41.3,0,77,3.906,3.908,3.904,3.909,0,0,13.204,75.56,148.74702083602,95.472444,6,P-GPS,
8500,2023-07-27 15:11:51,52.2064331063429,0.0864485143352151,99.409452,99.3110268,53.37300203602,152.68402883602,83.66142,0,2.82468512976,4.0206038032,26,5,15.642,152.68402883602,99.409452,1.2974252,3.11378618888,0,0,-13.197946,344.4, 1.6, -5.5,0,0,1024,1024,1684,1024,0,0,100,0,343,-44.3,0,77,3.906,3.908,3.904,3.909,0,0,13.204,75.56,152.68402883602,99.409452,6,P-GPS,
8700,2023-07-27 15:11:51,52.2064331486303,0.0864484900641097,103.34646,103.2480348,53.37300203602,156.62103683602,83.66142,0,2.83554142932,4.0369751948,26,5,15.642,156.62103683602,103.34646,1.2974252,3.11378618888,0,0,-13.197946,344.4, 1.9, -5.8,0,0,1024,1024,1684,1024,0,0,100,0,343,-47.2,0,77,3.906,3.908,3.904,3.909,0,0,13.204,75.56,156.62103683602,103.34646,6,P-GPS,
8900,2023-07-27 15:11:51,52.2064332012783,0.086448470291577,107.283468,107.1850428,53.37300203602,160.55804483602,83.66142,0,2.8502461542,4.0566602348,26,5,15.642,160.55804483602,107.283468,1.2974252,3.11378618888,0,0,-13.42164,344.4, 1.8, -5.8,0,0,1024,1024,1684,1024,0,0,100,0,343,-50.1,0,77,3.906,3.908,3.904,3.909,0,0,13.204,75.56,160.55804483602,107.283468,6,P-GPS,
9100,2023-07-27 15:11:52,52.2064332889211,0.086448535953921,110.892392,110.7939668,53.37300203602,164.16696883602,83.66142,0,2.88534786136,4.091863648,25,5,15.642,164.16696883602,110.892392,1.2974252,3.11378618888,0,0,-13.197946,344.4, 2.5, -6.7,0,0,1024,1024,1684,1024,0,0,100,0,343,-53,0,77,3.906,3.908,3.904,3.909,0,0,13.204,75.56,164.16696883602,110.892392,6,P-GPS,
9300,2023-07-27 15:11:52,52.2064333501275,0.086448643415313,115.157484,115.0590588,53.37300203602,168.43206083602,83.66142,0,2.91647319044,4.124672048,26,5,15.642,168.43206083602,115.157484,1.2974252,3.11378618888,0,0,-13.197946,344.4, 3.2, -6.6,0,0,1024,1024,1648,1024,0,0,95,0,343,-55.9,0,77,3.906,3.908,3.904,3.909,0,0,13.204,75.56,168.43206083602,115.157484,6,P-GPS,
9500,2023-07-27 15:11:52,52.206433331306,0.0864487396729761,119.094492,118.9960668,53.37300203602,172.36906883602,83.66142,0,2.9209154478,4.1472442272,25,5,15.642,172.36906883602,119.094492,1.2974252,3.11378618888,0,0,-13.197946,344.4, 1.8, -6.3,0,0,1024,1024,1545,1024,0,0,79,0,343,-58.8,0,77,3.906,3.908,3.904,3.909,0,0,13.204,75.56,172.36906883602,119.094492,6,P-GPS,
9700,2023-07-27 15:11:52,52.2064332793583,0.08644879628313,122.703416,122.6049908,53.37300203602,175.97799283602,83.66142,0,2.91063329524,4.1700460652,26,5,15.642,175.97799283602,122.703416,1.2974252,3.11378618888,0,0,-12.526864,344.4, 1, -6.5,0,0,1024,1024,1684,1024,0,0,100,0,343,-61,0,77,3.906,3.908,3.904,3.909,0,0,13.204,75.56,175.97799283602,122.703416,6,P-GPS,
9900,2023-07-27 15:11:52,52.2064332794772,0.086448925837877,125.984256,125.8858308,53.37300203602,179.25883283602,83.66142,0,2.92510508048,4.1990158824,25,5,15.642,179.25883283602,125.984256,1.2974252,3.11378618888,0,0,-11.408394,344.7, 1.4, -6.8,0,0,1024,1024,1684,1024,0,0,100,0,343,-61.6,0,77,3.906,3.908,3.904,3.909,0,0,13.204,75.56,179.25883283602,125.984256,6,P-GPS,
10100,2023-07-27 15:11:53,52.206433281213,0.0864490014256956,129.59318,129.4947548,53.37300203602,182.86775683602,83.66142,0,2.93417660308,4.2159122084,26,5,15.642,182.86775683602,129.59318,1.2974252,3.11378618888,0,0,-12.30317,344.5, 2.6, -6.4,0,0,1024,1024,1684,1024,0,0,100,0,343,-61.7,0,77,3.906,3.908,3.904,3.909,0,0,13.204,75.56,182.86775683602,129.59318,6,P-GPS,
10300,2023-07-27 15:11:53,52.2064332131178,0.0864490987678653,133.530188,133.4317628,53.37300203602,186.80476483602,83.66142,0,2.92393710144,4.2489502672,26,5,15.559,186.80476483602,133.530188,1.2974252,3.11378618888,0,0,-12.974252,344.4, 2.3, -7.8,0,0,1024,1024,1684,1024,0,0,100,0,343,-63.1,0,76,3.858,3.877,3.866,3.859,0,0,13.716,75.92,186.80476483602,133.530188,6,P-GPS,
10500,2023-07-27 15:11:53,52.2064330597399,0.0864490815376434,137.139112,137.0406868,53.37300203602,190.41368883602,83.66142,0,2.87411754604,4.3050526312,26,5,15.559,190.41368883602,137.139112,1.2974252,3.11378618888,0,0,-13.197946,344.6, 0.8, -7.4,0,0,1024,1024,1684,1024,0,0,100,0,343,-65.8,0,76,3.858,3.877,3.866,3.859,0,0,13.716,75.92,190.41368883602,137.139112,6,P-GPS,
10700,2023-07-27 15:11:53,52.2064328901877,0.0864488361521275,141.07612,140.9776948,53.37300203602,194.35069683602,83.66142,0,2.79272974816,4.3877297992,25,5,15.559,194.35069683602,141.07612,1.2974252,3.11378618888,0,0,-13.197946,344.4, 0.5, -5,0,0,1024,1024,1684,1024,0,0,100,0,343,-68.7,0,76,3.858,3.877,3.866,3.859,0,0,13.716,75.92,194.35069683602,141.07612,6,P-GPS,
10900,2023-07-27 15:11:53,52.2064327737964,0.0864485745066573,145.013128,144.9147028,53.37300203602,198.28770483602,83.66142,0,2.72622384052,4.4600067044,25,5,15.559,198.28770483602,145.013128,1.2974252,3.11378618888,0,0,-13.42164,344.5, 0.8, -3.7,0,0,1024,1024,1684,1024,0,0,100,0,343,-71.6,0,76,3.858,3.877,3.866,3.859,0,0,13.716,75.92,198.28770483602,145.013128,6,P-GPS,
11100,2023-07-27 15:11:54,52.2064327467785,0.0864485120084952,148.950136,148.8517108,53.37300203602,202.22471283602,83.66142,0,2.71062672716,4.4771326892,25,5,15.559,202.22471283602,148.950136,1.2974252,3.11378618888,0,0,-13.42164,344.5, 1.5, -4.8,0,0,1024,1024,1684,1024,0,0,100,0,343,-74.5,0,76,3.858,3.877,3.866,3.859,0,0,13.716,75.92,202.22471283602,148.950136,6,P-GPS,
11300,2023-07-27 15:11:54,52.2064327544566,0.086448586234619,152.55906,152.4606348,53.37300203602,205.83363683602,83.66142,0,2.72149615008,4.4939633984,25,5,15.449,205.83363683602,152.55906,1.2974252,3.11378618888,0,0,-13.42164,344.6, 1.7, -5.8,0,0,1024,1024,1684,1024,0,0,100,0,343,-77.4,0,76,3.862,3.869,3.873,3.876,0,0,16.085,76.1,205.83363683602,152.55906,6,P-GPS,
11500,2023-07-27 15:11:54,52.2064327398842,0.0864486853768732,156.496068,156.3976428,53.37300203602,209.77064483602,83.66142,0,2.72835966736,4.516732428,25,5,15.449,209.77064483602,156.496068,1.2974252,3.11378618888,0,0,-13.197946,344.5, 1.5, -6.1,0,0,1024,1024,1572,1024,0,0,83,0,343,-80,0,76,3.862,3.869,3.873,3.876,0,0,16.085,76.1,209.77064483602,156.496068,6,P-GPS,
11700,2023-07-27 15:11:54,52.2064327305667,0.0864488110188775,160.104992,160.0065668,53.37300203602,213.37956883602,83.66142,0,2.74014444464,4.5450460772,25,5,15.449,213.37956883602,160.104992,1.2974252,3.11378618888,0,0,-13.42164,344.4, 1.2, -5.9,0,0,1024,1024,1024,1024,0,0,0,0,343,-81.2,0,76,3.862,3.869,3.873,3.876,0,0,16.085,76.1,213.37956883602,160.104992,6,P-GPS,
11900,2023-07-27 15:11:54,52.2064327491815,0.086448977155027,163.713916,163.6154908,53.37300203602,216.98849283602,83.66142,0,2.76562016724,4.5828085456,25,5,15.449,216.98849283602,163.713916,1.2974252,3.11378618888,0,0,-12.526864,344.5, 0.7, -7,0,0,1024,1024,1024,1024,0,0,0,0,343,-81.2,0,76,3.862,3.869,3.873,3.876,0,0,16.085,76.1,216.98849283602,163.713916,6,P-GPS,
12100,2023-07-27 15:11:55,52.2064328392231,0.0864492297976724,166.994756,166.8963308,53.37300203602,220.26933283602,83.66142,0.223694,2.82376649456,4.6481628784,25,5,15.449,220.26933283602,166.994756,1.2974252,3.11378618888,0,0.223694,-10.513618,344.5, 1.3, -8.8,0,0,1024,1024,1024,1024,0,0,0,0,343,-81.2,0,76,3.862,3.869,3.873,3.876,0,0,16.085,76.1,220.26933283602,166.994756,6,P-GPS,
12300,2023-07-27 15:11:55,52.2064329940434,0.0864495510564953,168.96326,168.8648348,53.37300203602,222.23783683602,83.66142,0.3131716,2.91039379392,4.7395342724,26,5,15.481,222.23783683602,168.96326,1.2974252,3.11378618888,0.223694,0.223694,-8.276678,344.3, 2.8, -10.5,0,0,1024,1024,1024,1024,0,0,0,0,343,-81.2,0,76,3.894,3.928,3.927,3.938,0,0,14.79,76.46,222.23783683602,168.96326,6,P-GPS,
12500,2023-07-27 15:11:55,52.2064331605704,0.0864499206299248,170.275596,170.1771708,53.37300203602,223.55017283602,83.66142,0.3131716,3.0069062642,4.8420933308,25,5,15.481,223.55017283602,170.275596,1.2974252,3.11378618888,0.223694,0.223694,-5.816044,344.3, 3.1, -12.1,0,0,1024,1024,1024,1024,0,0,0,0,343,-81.2,0,76,3.894,3.928,3.927,3.938,0,0,14.79,76.46,223.55017283602,170.275596,6,P-GPS,
12700,2023-07-27 15:11:55,52.2064332906988,0.0864502417013344,170.931764,170.8333388,53.37300203602,224.20634083602,83.66142,0.3131716,3.08670941636,4.928149764,25,5,15.481,224.20634083602,170.931764,1.2974252,3.11378618888,0.223694,0.223694,-3.35541,344.2, 4.3, -13.6,0,0,1152,1024,1024,1024,19,0,0,0,343,-81.2,0,76,3.894,3.928,3.927,3.938,0,0,14.79,76.46,224.20634083602,170.931764,6,P-GPS,
12900,2023-07-27 15:11:55,52.2064333576514,0.0864504764178388,171.587932,171.4895068,53.37300203602,224.86250883602,83.66142,0.223694,3.13687017912,4.98605659,26,5,15.481,224.86250883602,171.587932,1.2974252,3.13687017912,0,0.223694,-1.11847,344, 5.2, -15.4,0,0,1684,1024,1024,1024,100,0,0,0,343,-81.2,0,76,3.894,3.928,3.927,3.938,0,0,14.79,76.46,224.86250883602,171.587932,6,P-GPS,
13100,2023-07-27 15:11:56,52.2064333386318,0.086450540088535,171.587932,171.4895068,53.37300203602,224.86250883602,83.66142,0.223694,3.13948828944,5.0018702388,26,5,15.481,224.86250883602,171.587932,1.2974252,3.13948828944,0.223694,0,-0.223694,345.1, -11.7, -4.8,0,0,1684,1024,1024,1024,100,0,0,0,343,-81.2,0,76,3.894,3.928,3.927,3.938,0,0,14.79,76.46,224.86250883602,171.587932,6,P-GPS,
13300,2023-07-27 15:11:56,52.2064339641948,0.0864504963504809,171.587932,171.4895068,53.37300203602,224.86250883602,83.66142,1.789552,3.3222442008,5.230315128,26,5,15.968,224.86250883602,171.587932,1.789552,3.3222442008,1.789552,0,0,346.1, -26.6, -3.6,0,0,1684,1024,1024,1024,100,0,0,0,343,-81.2,0,76,3.998,4.003,3.994,3.987,0,0,6.304,76.82,224.86250883602,171.587932,6,P-GPS,
13500,2023-07-27 15:11:56,52.2064362513166,0.0864501349046259,171.587932,171.4566984,53.40581043602,224.86250883602,83.66142,4.026492,4.0105644328,6.0687009816,26,5,15.968,224.86250883602,171.587932,4.026492,4.0105644328,4.026492,0,0,346.9, -26.1, -6.9,0,0,1684,1024,1024,1024,100,0,0,0,343,-81.2,0,76,3.998,4.003,3.994,3.987,0,0,6.304,76.82,224.86250883602,171.587932,6,P-GPS,
13700,2023-07-27 15:11:56,52.206440258053,0.0864489128089442,171.587932,171.42389,53.43861883602,224.86250883602,83.66142,6.3081708,5.2831694604,7.5558729452,26,5,15.968,224.86250883602,171.587932,6.3081708,5.2831694604,6.263432,-0.671082,0,346.3, -24.8, -9.2,0,0,1684,1024,1024,1024,100,0,0,0,343,-81.2,0,76,3.998,4.003,3.994,3.987,0,0,6.304,76.82,224.86250883602,171.587932,6,P-GPS,
13900,2023-07-27 15:11:56,52.2064458326195,0.0864468138341162,171.587932,171.3254648,53.53704403602,224.86250883602,83.66142,8.2095698,7.179134088,9.6431761616,26,5,15.968,224.86250883602,171.587932,8.2095698,7.179134088,8.052984,-1.565858,0,343.9, -24.2, -8.8,0,0,1684,1024,1024,1024,100,0,0,0,343,-81.2,0,76,3.998,4.003,3.994,3.987,0,0,6.304,76.82,224.86250883602,171.587932,6,P-GPS,
14100,2023-07-27 15:11:57,52.2064528420277,0.0864437547661012,171.587932,171.259848,53.60266083602,224.86250883602,83.66142,9.8649054,9.672080362,12.2904531492,26,5,15.968,224.86250883602,171.587932,9.8649054,9.672080362,9.618842,-2.23694,0,343.6, -25, -7.9,0,0,1684,1024,1024,1024,100,0,0,0,343,-81.2,0,76,3.998,4.003,3.994,3.987,0,0,6.304,76.82,224.86250883602,171.587932,6,P-GPS,
14300,2023-07-27 15:11:57,52.2064612077915,0.0864399227891597,171.259848,170.8333388,53.70108603602,224.53442483602,83.66142,11.5649798,12.7309059192,15.4606632244,26,5,15.725,224.86250883602,171.587932,11.5649798,12.7309059192,11.1847,-2.908022,0,343.2, -25.4, -8,0,0,1684,1024,1024,1024,100,0,0,0,343,-81.2,0,76,3.921,3.919,3.916,3.92,0,0,9.058,77,224.53442483602,171.259848,6,P-GPS,
14500,2023-07-27 15:11:57,52.2064708917197,0.0864353728480784,171.587932,171.0301892,53.83231963602,224.86250883602,83.66142,13.1755766,16.327264302,19.1373693788,26,5,15.725,224.86250883602,171.587932,13.1755766,16.327264302,12.750558,-3.35541,0,343.4, -25, -8.5,0,0,1684,1024,1024,1024,100,0,0,0,343,-81.2,0,76,3.921,3.919,3.916,3.92,0,0,9.058,77,224.86250883602,171.587932,6,P-GPS,
14700,2023-07-27 15:11:57,52.2064818777687,0.0864301986745917,171.587932,170.8989556,53.96355323602,224.86250883602,83.66142,14.875651,20.4422250636,23.309219906,26,5,15.725,224.86250883602,171.587932,14.875651,20.4422250636,14.316416,-4.026492,0,343, -23.7, -8.5,0,0,1684,1024,1096,1024,100,0,11,0,343,-81.2,0,76,3.921,3.919,3.916,3.92,0,0,9.058,77,224.86250883602,171.587932,6,P-GPS,
14900,2023-07-27 15:11:57,52.2064940576267,0.08642435392084,171.587932,170.767722,54.09478683602,224.86250883602,83.66142,16.2849232,25.0302829532,27.9412082432,26,5,15.725,224.86250883602,171.587932,16.2849232,25.0302829532,15.65858,-4.47388,0,343.1, -22.7, -8.5,0,0,1684,1024,1161,1024,100,0,21,0,343,-81.2,0,76,3.921,3.919,3.916,3.92,0,0,9.058,77,224.86250883602,171.587932,6,P-GPS,
15100,2023-07-27 15:11:58,52.2065073246099,0.0864178785254999,171.587932,170.60368,54.25882883602,224.86250883602,83.66142,17.6941954,30.0476059484,32.993439376,26,5,15.725,224.86250883602,171.587932,17.6941954,30.0476059484,17.000744,-4.921268,0,343.1, -21.7, -8.3,0,0,1684,1024,1201,1024,100,0,27,0,343,-81.2,0,76,3.921,3.919,3.916,3.92,0,0,9.058,77,224.86250883602,171.587932,6,P-GPS,
15300,2023-07-27 15:11:58,52.2065216330053,0.0864107579323739,171.587932,170.439638,54.42287083602,224.86250883602,83.66142,18.902143,35.476051004,38.4514448,26,5,15.66,224.86250883602,171.587932,18.902143,35.476051004,18.119214,-5.368656,-0.447388,343, -20.2, -7.9,0,0,1684,1024,1094,1024,100,0,11,0,343,-81.2,0,76,3.911,3.916,3.915,3.918,0,0,10.819,77.18,224.86250883602,171.587932,6,P-GPS,
15500,2023-07-27 15:11:58,52.206536879607,0.0864030330857919,171.916016,170.60368,54.58691283602,225.19059283602,83.66142,20.0877212,41.275263788,44.275920052,26,5,15.66,225.19059283602,171.916016,20.0877212,41.275263788,19.237684,-5.816044,-0.671082,342.8, -20.2, -7.8,0,0,1681,1024,1024,1024,100,0,0,0,343,-81.2,0,76,3.911,3.916,3.915,3.918,0,0,10.819,77.18,225.19059283602,171.916016,6,P-GPS,
15700,2023-07-27 15:11:58,52.2065528292447,0.0863949515197505,171.916016,170.4068296,54.78376323602,225.19059283602,83.66142,21.027236,47.348754796,50.369424184,26,5,15.66,225.19059283602,171.916016,21.027236,47.348754796,20.13246,-6.039738,-0.223694,343.1, -20.8, -8.3,0,0,1181,1024,1024,1024,24,0,0,0,343,-81.2,0,76,3.911,3.916,3.915,3.918,0,0,10.819,77.18,225.19059283602,171.916016,6,P-GPS,
15900,2023-07-27 15:11:58,52.2065694815498,0.0863865264099679,171.916016,170.2099792,54.98061363602,225.19059283602,83.66142,21.7206874,53.693899356,56.730316776,26,5,15.66,225.19059283602,171.916016,21.7206874,53.693899356,20.803542,-6.263432,0,343, -20.5, -7.9,0,0,1024,1024,1024,1024,0,0,0,0,343,-81.2,0,76,3.911,3.916,3.915,3.918,0,0,10.819,77.18,225.19059283602,171.916016,6,P-GPS,
16100,2023-07-27 15:11:59,52.206586716654,0.0863778796510574,171.916016,170.0131288,55.17746403602,225.19059283602,83.66142,22.2128142,60.2608287,63.309057144,26,5,15.66,225.19059283602,171.916016,22.2128142,60.2608287,21.25093,-6.487126,-0.223694,342.5, 6.6, -8.5,0,0,1024,1024,1024,1024,0,0,0,0,343,-81.2,0,76,3.911,3.916,3.915,3.918,0,0,10.819,77.18,225.19059283602,171.916016,6,P-GPS,
16300,2023-07-27 15:11:59,52.2066032158082,0.086369573273017,171.916016,169.8162784,55.37431443602,225.19059283602,83.66142,20.0877212,66.551183232,69.608598028,26,5,15.716,225.19059283602,171.916016,22.2128142,66.551183232,19.237684,-5.816044,-0.447388,339.7, 26.5, -7.9,0,0,1421,1024,1024,1024,60,0,0,0,343,-81.2,0,76,3.93,3.935,3.925,3.923,0,0,10.824,77.36,225.19059283602,171.916016,6,P-GPS,
16500,2023-07-27 15:11:59,52.2066179084729,0.0863621299778988,171.916016,169.6522364,55.53835643602,225.19059283602,83.66142,17.8284118,72.156498372,75.2214591,26,5,15.716,225.19059283602,171.916016,22.2128142,72.156498372,17.000744,-5.368656,0,339.4, 26.2, -7.1,0,0,1684,1024,1024,1024,100,0,0,0,343,-81.2,0,76,3.93,3.935,3.925,3.923,0,0,10.824,77.36,225.19059283602,171.916016,6,P-GPS,
16700,2023-07-27 15:11:59,52.2066308393672,0.0863554703968551,171.587932,169.1601104,55.70239843602,224.86250883602,83.66142,15.8599046,77.096787244,80.16896582,26,5,15.716,225.19059283602,171.916016,22.2128142,77.096787244,15.211192,-4.47388,0,340.6, 15.7, -7,0,0,1672,1024,1024,1024,98,0,0,0,343,-81.2,0,76,3.93,3.935,3.925,3.923,0,0,10.824,77.36,224.86250883602,171.587932,6,P-GPS,
16900,2023-07-27 15:11:59,52.2066425271669,0.086349487292822,171.587932,169.0288768,55.83363203602,224.86250883602,83.66142,14.4506324,81.561026232,84.638126068,26,5,15.716,225.19059283602,171.916016,22.2128142,81.561026232,13.869028,-4.026492,0.223694,341.4, 14.6, -6.3,0,0,1215,1024,1024,1024,29,0,0,0,343,-81.2,0,76,3.93,3.935,3.925,3.923,0,0,10.824,77.36,224.86250883602,171.587932,6,P-GPS,
17100,2023-07-27 15:12:00,52.2066530716253,0.0863440376550881,171.587932,168.8976432,55.96486563602,224.86250883602,83.66142,13.086099,85.591866256,88.673559268,26,5,15.716,225.19059283602,171.916016,22.2128142,85.591866256,12.526864,-3.802798,0,341.5, 19.1, -5.1,0,0,1024,1024,1024,1024,0,0,0,0,343,-81.2,0,76,3.93,3.935,3.925,3.923,0,0,10.824,77.36,224.86250883602,171.587932,6,P-GPS,
17300,2023-07-27 15:12:00,52.2066622588263,0.0863393549629686,171.587932,168.799218,56.06329083602,224.86250883602,83.66142,10.961006,89.100396552,92.18504232,26,5,15.883,225.19059283602,171.916016,22.2128142,89.100396552,10.513618,-3.131716,0,341.2, 27.4, -4.7,0,0,1024,1024,1024,1024,0,0,0,0,343,-81.2,0,76,3.958,3.965,3.96,3.968,0,0,7.412,77.54,224.86250883602,171.587932,6,P-GPS,
17500,2023-07-27 15:12:00,52.2066694964701,0.0863357772557602,171.587932,168.7336012,56.12890763602,224.86250883602,83.66142,8.5674802,91.857942572,94.94422876,26,5,15.883,225.19059283602,171.916016,22.2128142,91.857942572,8.276678,-2.23694,0,340.8, 28.5, -5.6,0,0,1153,1024,1024,1024,20,0,0,0,343,-81.2,0,76,3.958,3.965,3.96,3.968,0,0,7.412,77.54,224.86250883602,171.587932,6,P-GPS,
17700,2023-07-27 15:12:00,52.2066751818391,0.0863330824125255,171.587932,168.7336012,56.12890763602,224.86250883602,83.66142,6.0173686,94.017719544,97.104333816,26,5,15.883,225.19059283602,171.916016,22.2128142,94.017719544,5.816044,-1.565858,0.223694,339.7, 28.9, -6.8,0,0,1067,1024,1024,1024,7,0,0,0,343,-81.2,0,76,3.958,3.965,3.96,3.968,0,0,7.412,77.54,224.86250883602,171.587932,6,P-GPS,
17900,2023-07-27 15:12:00,52.2066787674727,0.086331510238322,171.587932,168.7336012,56.12890763602,224.86250883602,83.66142,3.4225182,95.37237838,98.458992652,26,5,15.883,225.19059283602,171.916016,22.2128142,95.37237838,3.35541,-0.671082,0.223694,340.4, 27, -4.9,0,0,1024,1024,1024,1024,0,0,0,0,343,-81.2,0,76,3.958,3.965,3.96,3.968,0,0,7.412,77.54,224.86250883602,171.587932,6,P-GPS,
18100,2023-07-27 15:12:01,52.2066805781258,0.0863310185988113,171.587932,168.7336012,56.12890763602,224.86250883602,83.66142,1.5882274,96.038716984,99.128612096,25,5,15.883,225.19059283602,171.916016,22.2128142,96.038716984,1.565858,-0.223694,0,340.6, 14, -11.6,0,0,1024,1024,1024,1024,0,0,0,0,343,-81.3,0,76,3.958,3.965,3.96,3.968,0,0,7.412,77.54,224.86250883602,171.587932,6,P-GPS,
18300,2023-07-27 15:12:01,52.206681344951,0.0863306329172366,171.587932,168.7336012,56.12890763602,224.86250883602,83.66142,0.8052984,96.331367912,99.421263024,26,5,15.78,225.19059283602,171.916016,22.2128142,96.331367912,0.671082,-0.447388,0,341.4, 6.4, -10.9,0,0,1024,1024,1024,1024,0,0,0,0,343,-82.5,0,76,3.928,3.934,3.929,3.931,0,0,8.005,77.54,224.86250883602,171.587932,6,P-GPS,
18500,2023-07-27 15:12:01,52.2066816388307,0.0863299612352089,171.587932,168.7336012,56.12890763602,224.86250883602,83.66142,0.6263432,96.473756368,99.605974316,26,5,15.78,225.19059283602,171.916016,22.2128142,96.473756368,0.447388,-0.447388,0,341.8, 3.8, -8,0,0,1024,1024,1024,1024,0,0,0,0,343,-85.1,0,76,3.928,3.934,3.929,3.931,0,0,8.005,77.54,224.86250883602,171.587932,6,P-GPS,
18700,2023-07-27 15:12:01,52.2066817280637,0.086329173627832,171.916016,169.0616852,56.12890763602,225.19059283602,83.66142,0.4921268,96.551184192,99.78510818,26,5,15.78,225.19059283602,171.916016,22.2128142,96.551184192,0.223694,-0.447388,0,341.9, 3.1, -6,0,0,1024,1024,1024,1024,0,0,0,0,343,-88,0,76,3.928,3.934,3.929,3.931,0,0,8.005,77.54,225.19059283602,171.916016,6,P-GPS,
18900,2023-07-27 15:12:01,52.2066817578937,0.0863284749163605,171.916016,169.0616852,56.12890763602,225.19059283602,83.66142,0.4921268,96.603021464,99.941604248,26,5,15.78,225.19059283602,171.916016,22.2128142,96.603021464,0.223694,-0.447388,0,341.8, 3.2, -5.8,0,0,1024,1024,1024,1024,0,0,0,0,343,-90,0,76,3.928,3.934,3.929,3.931,0,0,8.005,77.54,225.19059283602,171.916016,6,P-GPS,
19100,2023-07-27 15:12:02,52.2066817615604,0.0863279944255343,171.916016,169.0616852,56.12890763602,225.19059283602,83.66142,0.223694,96.632549024,100.0492158,26,5,15.78,225.19059283602,171.916016,22.2128142,96.632549024,0,-0.223694,0,341.9, 3.2, -6.6,0,0,1024,1024,1024,1024,0,0,0,0,343,-90,0,76,3.928,3.934,3.929,3.931,0,0,8.005,77.54,225.19059283602,171.916016,6,P-GPS,
19300,2023-07-27 15:12:02,52.2066817175093,0.0863276949697725,171.916016,169.0616852,56.12890763602,225.19059283602,83.66142,0,96.634845612,100.117785356,26,5,15.779,225.19059283602,171.916016,22.2128142,96.634845612,0,0,0,341.9, 2.7, -7.8,0,0,1024,1024,1024,1024,0,0,0,0,343,-89.9,0,76,3.949,3.956,3.952,3.956,0,0,8.999,77.72,225.19059283602,171.916016,6,P-GPS,
19500,2023-07-27 15:12:02,52.2066816321827,0.0863274795450355,171.916016,169.0616852,56.12890763602,225.19059283602,83.66142,0,96.61745716,100.175200056,26,5,15.779,225.19059283602,171.916016,22.2128142,96.634845612,0,0,0,341.9, 2.4, -7.8,0,0,1024,1024,1024,1024,0,0,0,0,343,-89.9,0,76,3.949,3.956,3.952,3.956,0,0,8.999,77.72,225.19059283602,171.916016,6,P-GPS,
19700,2023-07-27 15:12:02,52.2066815165978,0.08632732263866,172.2441,169.3897692,56.12890763602,225.51867683602,83.66142,0,96.58628918,100.229990084,26,5,15.779,225.51867683602,172.2441,22.2128142,96.634845612,0,0,0,342, 2.1, -8.3,0,0,1024,1024,1024,1024,0,0,0,0,343,-90,0,76,3.949,3.956,3.952,3.956,0,0,8.999,77.72,225.51867683602,172.2441,6,P-GPS,
19900,2023-07-27 15:12:02,52.206681411002,0.0863272069020346,172.2441,169.3897692,56.12890763602,225.51867683602,83.66142,0,96.556105452,100.276578012,26,5,15.779,225.51867683602,172.2441,22.2128142,96.634845612,0,0,0,342, 1.8, -8.6,0,0,1024,1024,1024,1024,0,0,0,0,343,-90,0,76,3.949,3.956,3.952,3.956,0,0,8.999,77.72,225.51867683602,172.2441,6,P-GPS,
20100,2023-07-27 15:12:03,52.2066813209807,0.0863271266874246,172.2441,169.3897692,56.12890763602,225.51867683602,83.66142,0,96.529202564,100.313979588,26,5,15.779,225.51867683602,172.2441,22.2128142,96.634845612,0,0,0,341.9, 2.1, -8.9,0,0,1024,1024,1024,1024,0,0,0,0,343,-89.9,0,76,3.949,3.956,3.952,3.956,0,0,8.999,77.72,225.51867683602,172.2441,6,P-GPS,
20300,2023-07-27 15:12:03,52.2066812011638,0.086327053993808,172.2441,169.3897692,56.12890763602,225.51867683602,83.66142,0,96.491472904,100.360567516,26,5,15.815,225.51867683602,172.2441,22.2128142,96.634845612,0,0,0,342.1, 1.7, -8.9,0,0,1024,1024,1024,1024,0,0,0,0,343,-90,0,76,3.949,3.959,3.955,3.959,0,0,7.696,77.9,225.51867683602,172.2441,6,P-GPS,
20500,2023-07-27 15:12:03,52.2066810954994,0.0863269521808061,172.572184,169.7178532,56.12890763602,225.84676083602,83.66142,0,96.460304924,100.405515024,26,5,15.815,225.84676083602,172.572184,22.2128142,96.634845612,0,0,0,342.1, 1.4, -8.7,0,0,1024,1024,1024,1024,0,0,0,0,343,-89.9,0,76,3.949,3.959,3.955,3.959,0,0,7.696,77.9,225.84676083602,172.572184,6,P-GPS,
20700,2023-07-27 15:12:03,52.206681029654,0.0863268034944011,172.572184,169.7178532,56.12890763602,225.84676083602,83.66142,0,96.446197312,100.446525524,26,5,15.815,225.84676083602,172.572184,22.2128142,96.634845612,0,0,0,342, 2, -8.2,0,0,1024,1024,1024,1024,0,0,0,0,343,-90,0,76,3.949,3.959,3.955,3.959,0,0,7.696,77.9,225.84676083602,172.572184,6,P-GPS,
20900,2023-07-27 15:12:03,52.206680986768,0.0863266446728283,172.572184,169.7178532,56.12890763602,225.84676083602,83.66142,0,96.440619884,100.485239436,26,5,15.815,225.84676083602,172.572184,22.2128142,96.634845612,0,0,0,342, 2.9, -7.8,0,0,1024,1024,1024,1024,0,0,0,0,343,-90,0,76,3.949,3.959,3.955,3.959,0,0,7.696,77.9,225.84676083602,172.572184,6,P-GPS,
21100,2023-07-27 15:12:04,52.2066809095458,0.0863265305997684,172.572184,169.7178532,56.12890763602,225.84676083602,83.66142,0,96.420278676,100.52329718,26,5,15.815,225.84676083602,172.572184,22.2128142,96.634845612,0,0,0,342, 2.2, -7.4,0,0,1024,1024,1024,1024,0,0,0,0,343,-89.9,0,76,3.949,3.959,3.955,3.959,0,0,7.696,77.9,225.84676083602,172.572184,6,P-GPS,
21300,2023-07-27 15:12:04,52.2066808234311,0.086326458325538,172.572184,169.7178532,56.12890763602,225.84676083602,83.66142,0,96.39436004,100.558402168,26,5,15.823,225.84676083602,172.572184,22.2128142,96.634845612,0,0,0,342.1, 2.1, -7.9,0,0,1024,1024,1024,1024,0,0,0,0,343,-89.9,0,76,3.952,3.957,3.95,3.954,0,0,7.519,77.9,225.84676083602,172.572184,6,P-GPS,
21500,2023-07-27 15:12:04,52.20668075212,0.0863263776496032,172.572184,169.7178532,56.12890763602,225.84676083602,83.66142,0,96.374018832,100.590226316,26,5,15.823,225.84676083602,172.572184,22.2128142,96.634845612,0,0,0,341.9, 2.2, -7.2,0,0,1024,1024,1024,1024,0,0,0,0,343,-89.9,0,76,3.952,3.957,3.95,3.954,0,0,7.519,77.9,225.84676083602,172.572184,6,P-GPS,
21700,2023-07-27 15:12:04,52.2066806901812,0.0863263307622204,172.572184,169.7178532,56.12890763602,225.84676083602,83.66142,0,96.35498996,100.6151607,26,5,15.823,225.84676083602,172.572184,22.2128142,96.634845612,0,0,0,342.1, 2.5, -6.9,0,0,1024,1024,1024,1024,0,0,0,0,343,-90,0,76,3.952,3.957,3.95,3.954,0,0,7.519,77.9,225.84676083602,172.572184,6,P-GPS,
21900,2023-07-27 15:12:04,52.2066806499509,0.0863264088798992,172.572184,169.7178532,56.12890763602,225.84676083602,83.66142,0,96.336289172,100.637798496,26,5,15.823,225.84676083602,172.572184,22.2128142,96.634845612,0,0,0,341.8, 3.6, -8.5,0,0,1024,1024,1024,1024,0,0,0,0,343,-90,0,76,3.952,3.957,3.95,3.954,0,0,7.519,77.9,225.84676083602,172.572184,6,P-GPS,
22100,2023-07-27 15:12:05,52.2066805826149,0.0863265361077078,172.572184,169.7178532,56.12890763602,225.84676083602,83.66142,0,96.305121192,100.675528156,26,5,15.823,225.84676083602,172.572184,22.2128142,96.634845612,0,0,0,342, 2.1, -8.5,0,0,1024,1024,1024,1024,0,0,0,0,343,-89.9,0,76,3.952,3.957,3.95,3.954,0,0,7.519,77.9,225.84676083602,172.572184,6,P-GPS,
22300,2023-07-27 15:12:05,52.206680538204,0.0863265730556364,172.572184,169.7178532,56.12890763602,225.84676083602,83.66142,0,96.287076572,100.693572776,26,5,15.794,225.84676083602,172.572184,22.2128142,96.634845612,0,0,0,341.8, 3.1, -7.6,0,0,1024,1024,1024,1024,0,0,0,0,343,-90,0,76,3.934,3.943,3.94,3.946,0,0,7.972,77.9,225.84676083602,172.572184,6,P-GPS,
22500,2023-07-27 15:12:05,52.2066805120063,0.0863265735449204,172.2441,169.3897692,56.12890763602,225.51867683602,83.66142,0,96.27789022,100.703087212,26,5,15.794,225.84676083602,172.572184,22.2128142,96.634845612,0,0,0,341.9, 3.2, -7.7,0,0,1024,1024,1024,1024,0,0,0,0,343,-89.9,0,76,3.934,3.943,3.94,3.946,0,0,7.972,77.9,225.51867683602,172.2441,6,P-GPS,
22700,2023-07-27 15:12:05,52.2066804354009,0.0863265332558813,172.2441,169.3897692,56.12890763602,225.51867683602,83.66142,0,96.25328392,100.732614772,26,5,15.794,225.84676083602,172.572184,22.2128142,96.634845612,0,0,0,341.9, 3, -7,0,0,1024,1024,1024,1024,0,0,0,0,343,-90,0,76,3.934,3.943,3.94,3.946,0,0,7.972,77.9,225.51867683602,172.2441,6,P-GPS,
22900,2023-07-27 15:12:05,52.2066803425012,0.0863264762892491,172.2441,169.3897692,56.12890763602,225.51867683602,83.66142,0,96.224084444,100.768704012,26,5,15.794,225.84676083602,172.572184,22.2128142,96.634845612,0,0,0,342, 2.7, -6.1,0,0,1024,1024,1024,1024,0,0,0,0,343,-90,0,76,3.934,3.943,3.94,3.946,0,0,7.972,77.9,225.51867683602,172.2441,6,P-GPS,
23100,2023-07-27 15:12:06,52.2066802604301,0.0863264774355715,172.2441,169.3897692,56.12890763602,225.51867683602,83.66142,0,96.195213052,100.79888774,26,5,15.794,225.84676083602,172.572184,22.2128142,96.634845612,0,0,0,342, 2.9, -6.5,0,0,1024,1024,1024,1024,0,0,0,0,343,-90,0,76,3.934,3.943,3.94,3.946,0,0,7.972,77.9,225.51867683602,172.2441,6,P-GPS,
23300,2023-07-27 15:12:06,52.2066801928714,0.0863265350452627,172.2441,169.3897692,56.12890763602,225.51867683602,83.66142,0,96.16798208,100.826446796,26,5,15.794,225.84676083602,172.572184,22.2128142,96.634845612,0,0,0,342, 3, -7,0,0,1024,1024,1024,1024,0,0,0,0,343,-90,0,76,3.934,3.943,3.94,3.946,0,0,7.972,77.9,225.51867683602,172.2441,6,P-GPS,
23500,2023-07-27 15:12:06,52.2066801479636,0.0863266095422401,172.2441,169.3897692,56.12890763602,225.51867683602,83.66142,0,96.147968956,100.850068844,26,5,15.766,225.84676083602,172.572184,22.2128142,96.634845612,0,0,0,341.9, 3.2, -7.1,0,0,1024,1024,1024,1024,0,0,0,0,343,-90,0,76,3.939,3.944,3.94,3.948,0,0,8.443,78.08,225.51867683602,172.2441,6,P-GPS,
23700,2023-07-27 15:12:06,52.2066801284824,0.0863266950970351,172.2441,169.3897692,56.12890763602,225.51867683602,83.66142,0,96.135829848,100.870410052,26,5,15.766,225.84676083602,172.572184,22.2128142,96.634845612,0,0,0,341.9, 3.4, -7.2,0,0,1024,1024,1024,1024,0,0,0,0,343,-90,0,76,3.939,3.944,3.94,3.948,0,0,8.443,78.08,225.51867683602,172.2441,6,P-GPS,
23900,2023-07-27 15:12:06,52.2066801017193,0.0863268360667331,172.2441,169.3897692,56.12890763602,225.51867683602,83.66142,0,96.118113312,100.903218452,26,5,15.766,225.84676083602,172.572184,22.2128142,96.634845612,0,0,0,341.9, 3.2, -7.6,0,0,1024,1024,1024,1024,0,0,0,0,343,-90,0,76,3.939,3.944,3.94,3.948,0,0,8.443,78.08,225.51867683602,172.2441,6,P-GPS,
24100,2023-07-27 15:12:07,52.2066800528707,0.0863269599534313,172.2441,169.3897692,56.12890763602,225.51867683602,83.66142,0,96.093507012,100.936354936,26,5,15.766,225.84676083602,172.572184,22.2128142,96.634845612,0,0,0,342, 3, -7.6,0,0,1024,1024,1684,1024,0,0,100,0,343,-90,0,76,3.939,3.944,3.94,3.948,0,0,8.443,78.08,225.51867683602,172.2441,6,P-GPS,
24300,2023-07-27 15:12:07,52.2066799897497,0.0863270530012605,172.2441,169.3897692,56.12890763602,225.51867683602,83.66142,0,96.065619872,100.967194832,26,5,15.766,225.84676083602,172.572184,22.2128142,96.634845612,0,0,-1.11847,342.3, 2.2, -6,0,0,1024,1024,1684,1024,0,0,100,0,343,-89.9,0,76,3.939,3.944,3.94,3.948,0,0,8.443,78.08,225.51867683602,172.2441,6,P-GPS,
24500,2023-07-27 15:12:07,52.2066799405755,0.086327169436863,173.228352,170.3740212,56.12890763602,226.50292883602,83.66142,0,96.041341656,100.99901898,26,5,15.766,226.50292883602,173.228352,22.2128142,96.634845612,0,0,-3.35541,342.2, 2.4, -6.8,0,0,1024,1024,1684,1024,0,0,100,0,343,-89.9,0,76,3.939,3.944,3.94,3.948,0,0,8.443,78.08,226.50292883602,173.228352,6,P-GPS,
24700,2023-07-27 15:12:07,52.2066798734451,0.0863271770137746,174.540688,171.6863572,56.12890763602,227.81526483602,83.66142,0,96.017391524,101.02362528,26,5,15.766,227.81526483602,174.540688,22.2128142,96.634845612,0,0,-5.59235,341.8, 3.2, -7.2,0,0,1024,1024,1629,1024,0,0,92,0,343,-89.9,0,76,3.939,3.944,3.94,3.948,0,0,8.443,78.08,227.81526483602,174.540688,6,P-GPS,
24900,2023-07-27 15:12:07,52.2066796967267,0.086327018765363,177.16536,174.3110292,56.12890763602,230.43993683602,83.66142,0,95.96457,101.097116096,26,5,15.766,230.43993683602,177.16536,22.2128142,96.634845612,0,0,-7.82929,342, 1.8, -5.5,0,0,1024,1024,1684,1024,0,0,100,0,343,-89.9,0,76,3.939,3.944,3.94,3.948,0,0,8.443,78.08,230.43993683602,177.16536,6,P-GPS,
25100,2023-07-27 15:12:08,52.2066795573429,0.0863268697154899,180.4462,177.5918692,56.12890763602,233.72077683602,83.66142,0,95.924543752,101.157811636,26,5,15.756,233.72077683602,180.4462,22.2128142,96.634845612,0,0,-9.618842,341.9, 2, -4.1,0,0,1024,1024,1684,1024,0,0,100,0,343,-89.9,0,76,3.938,3.943,3.92,3.887,0,0,8.51,78.08,233.72077683602,180.4462,6,P-GPS,
25300,2023-07-27 15:12:08,52.2066794940333,0.0863268232754525,184.383208,181.5288772,56.12890763602,237.65778483602,83.66142,0,95.905186796,101.183074104,26,5,15.756,237.65778483602,184.383208,22.2128142,96.634845612,0,0,-11.855782,341.8, 2.1, -3.6,0,0,1024,1024,1684,1024,0,0,100,0,343,-90,0,76,3.938,3.943,3.92,3.887,0,0,8.51,78.08,237.65778483602,184.383208,6,P-GPS,
25500,2023-07-27 15:12:08,52.2066795101391,0.0863269362860673,188.6483,185.7939692,56.12890763602,241.92287683602,83.66142,0,95.904202544,101.20899274,26,5,15.756,241.92287683602,188.6483,22.2128142,96.634845612,0,0,-12.974252,341.7, 1.2, -3.5,0,0,1024,1024,1684,1024,0,0,100,0,343,-89.9,0,76,3.938,3.943,3.92,3.887,0,0,8.51,78.08,241.92287683602,188.6483,6,P-GPS,
25700,2023-07-27 15:12:08,52.206679631224,0.0863272200008652,192.913392,190.0590612,56.12890763602,246.18796883602,83.66142,0,95.929465012,101.286420564,26,5,15.756,246.18796883602,192.913392,22.2128142,96.634845612,0,0,-13.42164,341.9, 1, -3.3,0,0,1024,1024,1684,1024,0,0,100,0,343,-90,0,76,3.938,3.943,3.92,3.887,0,0,8.51,78.08,246.18796883602,192.913392,6,P-GPS,
25900,2023-07-27 15:12:08,52.2066799078842,0.086327695165486,197.178484,194.3241532,56.12890763602,250.45306083602,83.66142,0.3131716,95.998362652,101.433074112,26,5,15.756,250.45306083602,197.178484,22.2128142,96.634845612,0.223694,0.223694,-13.42164,342, 1.5, -4.1,0,0,1024,1024,1684,1024,0,0,100,0,343,-89.9,0,76,3.938,3.943,3.92,3.887,0,0,8.51,78.08,250.45306083602,197.178484,6,P-GPS,
26100,2023-07-27 15:12:09,52.2066803105295,0.0863283111879686,200.787408,197.9330772,56.12890763602,254.06198483602,83.66142,0.3131716,96.103349532,101.634189604,26,5,15.355,254.06198483602,200.787408,22.2128142,96.634845612,0.223694,0.223694,-13.42164,341.7, 2.7, -5.5,0,0,1024,1024,1684,1024,0,0,100,0,343,-89.9,0,75,3.804,3.804,3.804,3.809,0,0,13.674,77.9,254.06198483602,200.787408,6,P-GPS,
26300,2023-07-27 15:12:09,52.2066807577571,0.0863289515348537,204.724416,201.8700852,56.12890763602,257.99899283602,83.66142,0.3131716,96.222772108,101.851381212,26,5,15.355,257.99899283602,204.724416,22.2128142,96.634845612,0.223694,0.223694,-13.42164,341.8, 3.5, -6.4,0,0,1024,1024,1684,1024,0,0,100,0,343,-89.9,0,75,3.804,3.804,3.804,3.809,0,0,13.674,77.9,257.99899283602,204.724416,6,P-GPS,
26500,2023-07-27 15:12:09,52.2066811314633,0.0863295394724371,208.661424,205.8070932,56.12890763602,261.93600083602,83.66142,0.3131716,96.319884972,102.04068568,26,5,15.355,261.93600083602,208.661424,22.2128142,96.634845612,0.223694,0.223694,-13.42164,341.9, 3.9, -6.8,0,0,1024,1024,1684,1024,0,0,100,0,343,-89.9,0,75,3.804,3.804,3.804,3.809,0,0,13.674,77.9,261.93600083602,208.661424,6,P-GPS,
26700,2023-07-27 15:12:09,52.2066814007217,0.0863300412121667,212.270348,209.4160172,56.12890763602,265.54492483602,83.66142,0,96.385501772,102.1899639,26,5,15.355,265.54492483602,212.270348,22.2128142,96.634845612,0,0,-13.197946,341.8, 3.5, -7,0,0,1024,1024,1684,1024,0,0,100,0,343,-89.9,0,75,3.804,3.804,3.804,3.809,0,0,13.674,77.9,265.54492483602,212.270348,6,P-GPS,
26900,2023-07-27 15:12:09,52.2066815868466,0.0863304081401863,215.879272,213.0249412,56.12890763602,269.15384883602,83.66142,0,96.429465028,102.296263116,26,5,15.355,269.15384883602,215.879272,22.2128142,96.634845612,0,0,-13.197946,341.8, 4, -7.4,0,0,1024,1024,1684,1024,0,0,100,0,343,-90,0,75,3.804,3.804,3.804,3.809,0,0,13.674,77.9,269.15384883602,215.879272,6,P-GPS,
27100,2023-07-27 15:12:10,52.2066816740407,0.0863306161557661,219.488196,216.6338652,56.12890763602,272.76277283602,83.66142,0,96.448165816,102.352693564,26,5,15.381,272.76277283602,219.488196,22.2128142,96.634845612,0,0,-13.197946,342.1, 3, -6.9,0,0,1024,1024,1684,1024,0,0,100,0,343,-89.9,0,75,3.859,3.86,3.852,3.862,0,0,17.128,78.08,272.76277283602,219.488196,6,P-GPS,
27300,2023-07-27 15:12:10,52.2066816788553,0.0863306522299734,223.09712,220.2427892,56.12890763602,276.37169683602,83.66142,0,96.447837732,102.360895664,25,5,15.381,276.37169683602,223.09712,22.2128142,96.634845612,0,0,-13.42164,341.9, 2.9, -5.6,0,0,1024,1024,1658,1024,0,0,96,0,343,-90,0,75,3.859,3.86,3.852,3.862,0,0,17.128,78.08,276.37169683602,223.09712,6,P-GPS,
27500,2023-07-27 15:12:10,52.2066816720361,0.0863306240611969,226.706044,223.8517132,56.12890763602,279.98062083602,83.66142,0,96.447181564,102.367785428,25,5,15.381,279.98062083602,226.706044,22.2128142,96.634845612,0,0,-13.42164,342.1, 2.9, -5.3,0,0,1024,1024,1024,1024,0,0,0,0,343,-89.9,0,75,3.859,3.86,3.852,3.862,0,0,17.128,78.08,279.98062083602,226.706044,6,P-GPS,
27700,2023-07-27 15:12:10,52.2066816621841,0.0863306292056683,229.986884,227.1325532,56.12890763602,283.26146083602,83.66142,0,96.443244556,102.371394352,26,5,15.381,283.26146083602,229.986884,22.2128142,96.634845612,0,0,-12.30317,342, 2.9, -6.1,0,0,1024,1024,1024,1024,0,0,0,0,343,-90,0,75,3.859,3.86,3.852,3.862,0,0,17.128,78.08,283.26146083602,229.986884,6,P-GPS,
27900,2023-07-27 15:12:10,52.2066816923739,0.0863307205969218,232.611556,229.7572252,56.12890763602,285.88613283602,83.66142,0,96.448821984,102.394688316,26,5,15.381,285.88613283602,232.611556,22.2128142,96.634845612,0,0,-10.289924,342.1, 3.2, -7.4,0,0,1024,1024,1024,1024,0,0,0,0,343,-89.9,0,75,3.859,3.86,3.852,3.862,0,0,17.128,78.08,285.88613283602,232.611556,6,P-GPS,
28100,2023-07-27 15:12:11,52.206681769322,0.0863308350963577,234.58006,231.7257292,56.12890763602,287.85463683602,83.66142,0,96.469163192,102.43274606,26,5,15.398,287.85463683602,234.58006,22.2128142,96.634845612,0,0,-8.052984,342, 3.9, -7.8,0,0,1024,1024,1024,1024,0,0,0,0,343,-90,0,75,3.843,3.853,3.849,3.853,0,0,14.335,78.26,287.85463683602,234.58006,6,P-GPS,
28300,2023-07-27 15:12:11,52.2066818598744,0.086330969258019,235.564312,232.7099812,56.12890763602,288.83888883602,83.66142,0,96.493441408,102.477365484,26,5,15.398,288.83888883602,235.564312,22.2128142,96.634845612,0,0,-5.816044,342, 4.6, -8.9,0,0,1024,1024,1024,1024,0,0,0,0,343,-90,0,75,3.843,3.853,3.849,3.853,0,0,14.335,78.26,288.83888883602,235.564312,6,P-GPS,
28500,2023-07-27 15:12:11,52.2066819416713,0.0863311190208488,235.892396,233.0380652,56.12890763602,289.16697283602,83.66142,0,96.513454532,102.522312992,26,5,15.398,289.16697283602,235.892396,22.2128142,96.634845612,0,0,-3.35541,341.9, 5.5, -10.3,0,0,1024,1024,1684,1024,0,0,100,0,343,-89.9,0,75,3.843,3.853,3.849,3.853,0,0,14.335,78.26,289.16697283602,235.892396,6,P-GPS,
28700,2023-07-27 15:12:11,52.206681966584,0.086331196698172,236.548564,233.6942332,56.12890763602,289.82314083602,83.66142,0,96.517719624,102.541998032,26,5,15.398,289.82314083602,236.548564,22.2128142,96.634845612,0,0,-1.342164,341.8, 6, -11,0,0,1024,1024,1684,1024,0,0,100,0,343,-90,0,75,3.843,3.853,3.849,3.853,0,0,14.335,78.26,289.82314083602,236.548564,6,P-GPS,
28900,2023-07-27 15:12:11,52.2066817259563,0.0863310194725326,237.204732,234.3504012,56.12890763602,290.47930883602,83.66142,0.223694,96.443244556,102.638126644,26,5,15.398,290.47930883602,237.204732,22.2128142,96.634845612,-0.223694,0,-2.684328,342.3, 4.6, -9.2,0,0,1024,1024,1684,1024,0,0,100,0,343,-90,0,75,3.843,3.853,3.849,3.853,0,0,14.335,78.26,290.47930883602,237.204732,6,P-GPS,
29100,2023-07-27 15:12:12,52.2066811560504,0.0863304401253776,238.188984,235.3346532,56.12890763602,291.46356083602,83.66142,0.4921268,96.275921716,102.883205392,26,5,15.659,291.46356083602,238.188984,22.2128142,96.634845612,-0.447388,-0.223694,-4.697574,342.3, 3.6, -7,0,0,1024,1024,1684,1024,0,0,100,0,343,-89.9,0,75,3.954,3.962,3.96,3.966,0,0,12.62,78.62,291.46356083602,238.188984,6,P-GPS,
29300,2023-07-27 15:12:12,52.2066803652207,0.0863295987876324,240.157488,237.3031572,56.12890763602,293.43206483602,83.66142,0.8052984,96.046591,103.227693592,26,5,15.659,293.43206483602,240.157488,22.2128142,96.634845612,-0.671082,-0.447388,-6.934514,342.2, 1.8, -5,0,0,1024,1024,1673,1024,0,0,98,0,343,-89.9,0,75,3.954,3.962,3.96,3.966,0,0,12.62,78.62,293.43206483602,240.157488,6,P-GPS,
29500,2023-07-27 15:12:12,52.2066795768241,0.0863287369768484,244.094496,241.2401652,56.12890763602,297.36907283602,83.66142,0.6263432,95.819884956,103.573822212,26,5,15.659,297.36907283602,244.094496,22.2128142,96.634845612,-0.447388,-0.447388,-9.395148,342.2, 0.9, -3.4,0,0,1024,1024,1349,1024,0,0,49,0,343,-89.9,0,75,3.954,3.962,3.96,3.966,0,0,12.62,78.62,297.36907283602,244.094496,6,P-GPS,
29700,2023-07-27 15:12:12,52.2066789202723,0.0863280209167657,248.359588,245.5052572,56.12890763602,301.63416483602,83.66142,0.4921268,95.63156474,103.861879964,26,5,15.659,301.63416483602,248.359588,22.2128142,96.634845612,-0.447388,-0.223694,-11.1847,342.1, -0.4, -2.4,0,0,1024,1024,1024,1024,0,0,0,0,343,-89.9,0,75,3.954,3.962,3.96,3.966,0,0,12.62,78.62,301.63416483602,248.359588,6,P-GPS,
29900,2023-07-27 15:12:12,52.2066785002533,0.0863275434455204,250.98426,248.1299292,56.12890763602,304.25883683602,83.66142,0.3131716,95.512798332,104.04855976,26,5,15.659,304.25883683602,250.98426,22.2128142,96.634845612,-0.223694,-0.223694,-10.289924,342.1, -1.4, -2.2,0,0,1024,1024,1024,1024,0,0,0,0,343,-89.9,0,75,3.954,3.962,3.96,3.966,0,0,12.62,78.62,304.25883683602,250.98426,6,P-GPS,
30100,2023-07-27 15:12:13,52.206678341731,0.0863273284401698,252.952764,250.0984332,56.12890763602,306.22734083602,83.66142,0,95.469819328,104.12401908,26,5,15.812,306.22734083602,252.952764,22.2128142,96.634845612,0,0,-8.276678,342.1, -1.5, -1.5,0,0,1024,1024,1024,1024,0,0,0,0,343,-89.9,0,75,3.837,3.837,3.833,3.831,0,0,6.7,78.62,306.22734083602,252.952764,6,P-GPS,
30300,2023-07-27 15:12:13,52.206678425841,0.0863274229418714,253.937016,251.0826852,56.12890763602,307.21159283602,83.66142,0,95.49376946,104.161092572,26,5,15.812,307.21159283602,253.937016,22.2128142,96.634845612,0,0,-6.039738,342.2, -1.2, -1.9,0,0,1024,1024,1024,1024,0,0,0,0,343,-90,0,75,3.837,3.837,3.833,3.831,0,0,6.7,78.62,307.21159283602,253.937016,6,P-GPS,
30500,2023-07-27 15:12:13,52.2066787108796,0.0863277910931009,254.921268,252.0669372,56.12890763602,308.19584483602,83.66142,0.3131716,95.571853452,104.293638508,26,5,15.812,308.19584483602,254.921268,22.2128142,96.634845612,0.223694,0.223694,-3.579104,342.3, -0.1, -3.9,0,0,1024,1024,1024,1024,0,0,0,0,343,-90,0,75,3.837,3.837,3.833,3.831,0,0,6.7,78.62,308.19584483602,254.921268,6,P-GPS,
30700,2023-07-27 15:12:13,52.2066791387459,0.0863283873904502,255.249352,252.3950212,56.12890763602,308.52392883602,83.66142,0.4921268,95.686682852,104.499019092,26,5,15.812,308.52392883602,255.249352,22.2128142,96.634845612,0.447388,0.223694,-1.11847,342.3, 1.6, -7.5,0,0,1024,1024,1024,1024,0,0,0,0,343,-90,0,75,3.837,3.837,3.833,3.831,0,0,6.7,78.62,308.52392883602,255.249352,6,P-GPS,
30900,2023-07-27 15:12:13,52.2066796069625,0.0863289703792759,255.249352,252.3950212,56.12890763602,308.52392883602,83.66142,0.4921268,95.816604116,104.713914112,26,5,15.812,308.52392883602,255.249352,22.2128142,96.634845612,0.447388,0.223694,0,342.2, 2.7, -8.6,0,0,1024,1024,1024,1024,0,0,0,0,343,-90,0,75,3.837,3.837,3.833,3.831,0,0,6.7,78.62,308.52392883602,255.249352,6,P-GPS,
31100,2023-07-27 15:12:14,52.206679977242,0.0863293633302123,255.249352,252.3950212,56.12890763602,308.52392883602,83.66142,0.3131716,95.923887584,104.875003356,26,5,15.312,308.52392883602,255.249352,22.2128142,96.634845612,0.223694,0.223694,0,342.1, 4.3, -10,0,0,1024,1024,1024,1024,0,0,0,0,343,-89.9,0,75,3.95,3.96,3.957,3.966,0,0,15.888,78.98,308.52392883602,255.249352,6,P-GPS,
31300,2023-07-27 15:12:14,52.206680121389,0.0863294953669832,254.921268,252.0669372,56.12890763602,308.19584483602,83.66142,0,95.966866588,104.935370812,26,5,15.312,308.52392883602,255.249352,22.2128142,96.634845612,0,0,0,341.8, 4.1, -10.4,0,0,1024,1024,1024,1024,0,0,0,0,343,-90,0,75,3.95,3.96,3.957,3.966,0,0,15.888,78.98,308.19584483602,254.921268,6,P-GPS,
31500,2023-07-27 15:12:14,52.2066800098648,0.0863293066431708,254.921268,252.0669372,56.12890763602,308.19584483602,83.66142,0,95.938651364,104.994097848,26,5,15.312,308.52392883602,255.249352,22.2128142,96.634845612,0,0,0,342.2, 2.6, -9.5,0,0,1024,1014,1024,1024,0,-2,0,0,343,-90,0,75,3.95,3.96,3.957,3.966,0,0,15.888,78.98,308.19584483602,254.921268,6,P-GPS,
31700,2023-07-27 15:12:14,52.206679765896,0.0863288247124518,254.921268,252.0669372,56.12890763602,308.19584483602,83.66142,0.223694,95.881236664,105.133861632,26,5,15.312,308.52392883602,255.249352,22.2128142,96.634845612,0,-0.223694,0,341.8, 1.1, -5.8,0,0,1024,364,1024,1024,0,-100,0,0,343,-89.9,0,75,3.95,3.96,3.957,3.966,0,0,15.888,78.98,308.19584483602,254.921268,6,P-GPS,
