time(millisecond),datetime(utc),latitude,longitude,height_above_takeoff(feet),height_above_ground_at_drone_location(feet),ground_elevation_at_drone_location(feet),altitude_above_seaLevel(feet),height_sonar(feet),speed(mph),distance(feet),mileage(feet),satellites,gpslevel,voltage(v),max_altitude(feet),max_ascent(feet),max_speed(mph),max_distance(feet), xSpeed(mph), ySpeed(mph), zSpeed(mph), compass_heading(degrees), pitch(degrees), roll(degrees),isPhoto,isVideo,rc_elevator,rc_aileron,rc_throttle,rc_rudder,rc_elevator(percent),rc_aileron(percent),rc_throttle(percent),rc_rudder(percent),gimbal_heading(degrees),gimbal_pitch(degrees),gimbal_roll(degrees),battery_percent,voltageCell1,voltageCell2,voltageCell3,voltageCell4,voltageCell5,voltageCell6,current(A),battery_temperature(f),altitude(feet),ascent(feet),flycStateRaw,flycState,message
100,2023-07-25 12:02:16,0,0,0,,,53.134316660928,0.328084,0,0,0,6,0,0,53.134316660928,0,0,0,0,0,0,291.3, 4.2, 0.7,0,0,1024,1024,1024,1024,0,0,0,0,291.2,0,0,96,4.244,4.25,4.245,4.247,0,0,0,70.34,53.134316660928,0,41,Motors_Started,
300,2023-07-25 12:02:16,0,0,0,,,53.134316660928,0.328084,0,0,0,6,0,0,53.134316660928,0,0,0,0,0,0,291.3, 4.2, 0.7,0,0,1024,1024,1024,1024,0,0,0,0,291.2,0,0,96,4.244,4.25,4.245,4.247,0,0,0,70.34,53.134316660928,0,41,Motors_Started,
500,2023-07-25 12:02:16,0,0,0,,,53.134316660928,0,0,0,0,6,0,0,53.134316660928,0,0,0,0,0,0,291.3, 4.2, 0.7,0,0,1024,1024,1190,1024,0,0,25,0,291.2,0,0,96,4.244,4.25,4.245,4.247,0,0,0,70.34,53.134316660928,0,41,Motors_Started,
700,2023-07-25 12:02:16,0,0,0,,,53.134316660928,0,0,0,0,6,0,0,53.134316660928,0,0,0,0,0,0,291.3, 4.1, 0.7,0,0,1024,1024,1684,1024,0,0,100,0,291.2,0,0,96,4.244,4.25,4.245,4.247,0,0,0,70.34,53.134316660928,0,41,Motors_Started,"No GPS. Fly with caution GPS signal weak. Hovering unstable. Fly with caution (Code: 30002)"
900,2023-07-25 12:02:17,0,0,0,,,53.134316660928,0,0,0,0,6,0,17.074,53.134316660928,0,0,0,0,0,0,291.3, 4.2, 0.7,0,0,1024,1024,1684,1024,0,0,100,0,291.2,0,0,96,4.244,4.25,4.245,4.247,0,0,1.885,70.34,53.134316660928,0,41,Motors_Started,"Setting new Return-To-Home altitude to 26m (85 ft). Data Recorder File Index is 73. Setting new Maximum Flight Altitude to 30m (98 ft)"
1100,2023-07-25 12:02:17,0,0,0,,,53.134316660928,0,0,0,0,7,0,17.074,53.134316660928,0,0,0,0,0,0,291.3, 4.1, 0.7,0,0,1024,1024,1684,1024,0,0,100,0,291.2,0,0,96,4.244,4.25,4.245,4.247,0,0,1.885,70.34,53.134316660928,0,41,Motors_Started,
1300,2023-07-25 12:02:17,0,0,0,,,53.134316660928,0,0,0,0,7,0,17.074,53.134316660928,0,0,0,0,0,0,291.3, 4.2, 0.7,0,0,1024,1024,1684,1024,0,0,100,0,291.2,0,0,96,4.244,4.25,4.245,4.247,0,0,1.885,70.34,53.134316660928,0,41,Motors_Started,
1500,2023-07-25 12:02:17,0,0,0,,,53.134316660928,0,0,0,0,9,0,17.074,53.134316660928,0,0,0,0,0,0,291.3, 4.2, 0.7,0,0,1024,1024,1684,1024,0,0,100,0,291.2,0,0,96,4.244,4.25,4.245,4.247,0,0,1.885,70.34,53.134316660928,0,41,Motors_Started,
1700,2023-07-25 12:02:17,0,0,0,,,53.134316660928,0,0,0,0,9,0,17.074,53.134316660928,0,0,0,0,0,0,291.3, 4.1, 0.7,0,0,1024,1024,1684,1024,0,0,100,0,291.2,0,0,96,4.244,4.25,4.245,4.247,0,0,1.885,70.34,53.134316660928,0,11,AutoTakeoff,
1900,2023-07-25 12:02:18,0,0,0,,,53.134316660928,0,0,0,0,9,0,17.074,53.134316660928,0,0,0,0,0,0,291.2, 4, 0.7,0,0,1024,1024,1684,1024,0,0,100,0,291.2,0,0,96,4.274,4.27,4.263,4.262,0,0,1.885,70.34,53.134316660928,0,11,AutoTakeoff,
2100,2023-07-25 12:02:18,0,0,0,,,53.134316660928,0,0,0,0,9,0,17.074,53.134316660928,0,0,0,0,0,-0.223694,292.5, -0.8, 0.3,0,0,1024,1024,1684,1024,0,0,100,0,291.2,0,0,96,4.274,4.27,4.263,4.262,0,0,1.885,70.34,53.134316660928,0,11,AutoTakeoff,
2300,2023-07-25 12:02:18,0,0,0,,,53.134316660928,0.328084,0,0,0,9,0,17.074,53.134316660928,0,0,0,0,0,-1.11847,292, -0.5, -1,0,0,1024,1024,1684,1024,0,0,100,0,291.3,0,0,96,4.274,4.27,4.263,4.262,0,0,1.885,70.34,53.134316660928,0,11,AutoTakeoff,
2500,2023-07-25 12:02:18,0,0,0.656168,,,53.790484660928,0.656168,0,0,0,9,0,17.074,53.790484660928,0.656168,0,0,0,0,-2.23694,292.8, 1, -0.4,0,0,1024,1024,1684,1024,0,0,100,0,291.4,0,0,96,4.274,4.27,4.263,4.262,0,0,1.885,70.34,53.790484660928,0.656168,11,AutoTakeoff,
2700,2023-07-25 12:02:18,0,0,1.312336,,,54.446652660928,1.64042,0.223694,0,0,8,0,17.074,54.446652660928,1.312336,0.223694,0,0,0.223694,-3.579104,292.8, 0.3, 0,0,0,1024,1024,1684,1024,0,0,100,0,291.5,0,0,96,4.274,4.27,4.263,4.262,0,0,1.885,70.34,54.446652660928,1.312336,11,AutoTakeoff,
2900,2023-07-25 12:02:19,0,0,2.952756,,,56.087072660928,2.952756,0.223694,0,0,8,2,17.003,56.087072660928,2.952756,0.223694,0,0,0.223694,-5.59235,292.8, -1.3, -1.5,0,0,1024,1024,1684,1024,0,0,100,0,291.6,-0.1,0,96,4.127,4.132,4.121,4.121,0,0,4.236,70.52,56.087072660928,2.952756,11,AutoTakeoff,
3100,2023-07-25 12:02:19,0,0,4.92126,,,58.055576660928,4.92126,0,0,0,8,2,17.003,58.055576660928,4.92126,0.223694,0,0,0,-7.381902,292.9, -2.9, -2,0,0,1024,1024,1684,1024,0,0,100,0,291.6,-1.8,0,96,4.127,4.132,4.121,4.121,0,0,4.236,70.52,58.055576660928,4.92126,6,P-GPS,
3300,2023-07-25 12:02:19,0,0,8.2021,,,61.336416660928,7.874016,0,0,0,9,2,17.003,61.336416660928,8.2021,0.223694,0,0,0,-9.395148,292.1, -3, -0.4,0,0,1024,1024,1684,1024,0,0,100,0,291.6,-4.5,0,96,4.127,4.132,4.121,4.121,0,0,4.236,70.52,61.336416660928,8.2021,6,P-GPS,
3500,2023-07-25 12:02:19,0,0,12.139108,,,65.273424660928,10.826772,0,0,0,9,2,17.003,65.273424660928,12.139108,0.223694,0,0,0,-11.632088,291.9, -1.3, 0.3,0,0,1024,1024,1684,1024,0,0,100,0,291.6,-7.3,0,96,4.127,4.132,4.121,4.121,0,0,4.236,70.52,65.273424660928,12.139108,6,P-GPS,
3700,2023-07-25 12:02:19,0,0,16.732284,,,69.866600660928,14.76378,0,0,0,9,2,17.003,69.866600660928,16.732284,0.223694,0,0,0,-12.974252,291.4, -2.2, 0.4,0,0,1024,1024,1684,1024,0,0,100,0,291.6,-10.3,0,96,4.127,4.132,4.121,4.121,0,0,4.236,70.52,69.866600660928,16.732284,6,P-GPS,
3900,2023-07-25 12:02:20,0,0,21.653544,,,74.787860660928,18.700788,0,0,0,9,2,16.806,74.787860660928,21.653544,0.223694,0,0,0,-13.42164,291.7, -1.9, 1.1,0,0,1024,1024,1684,1024,0,0,100,0,291.6,-13.2,0,96,4.07,4.083,4.081,4.09,0,0,5.128,70.34,74.787860660928,21.653544,6,P-GPS,
4100,2023-07-25 12:02:20,0,0,26.24672,,,79.381036660928,22.637796,0,0,0,9,2,16.806,79.381036660928,26.24672,0.223694,0,0,0,-13.645334,291.9, -2.5, 0.3,0,0,1024,1024,1684,1024,0,0,100,0,291.6,-16.1,0,96,4.07,4.083,4.081,4.09,0,0,5.128,70.34,79.381036660928,26.24672,6,P-GPS,
4300,2023-07-25 12:02:20,0,0,30.183728,,,83.318044660928,26.902888,0,0,0,9,2,16.806,83.318044660928,30.183728,0.223694,0,0,0,-13.42164,292.4, -2.8, -0.4,0,0,1024,1024,1684,1024,0,0,100,0,291.6,-19,0,96,4.07,4.083,4.081,4.09,0,0,5.128,70.34,83.318044660928,30.183728,6,P-GPS,
4500,2023-07-25 12:02:20,0,0,34.44882,,,87.583136660928,30.839896,0.223694,0,0,9,2,16.806,87.583136660928,34.44882,0.223694,0,0.223694,0,-13.42164,293.3, -2.4, -1.7,0,0,1024,1024,1684,1024,0,0,100,0,291.6,-21.9,0,96,4.07,4.083,4.081,4.09,0,0,5.128,70.34,87.583136660928,34.44882,6,P-GPS,
4700,2023-07-25 12:02:20,0,0,38.385828,,,91.520144660928,35.433072,0,0,0,9,2,16.806,91.520144660928,38.385828,0.223694,0,0,0,-13.42164,293.7, -2.9, -2.8,0,0,1024,1024,1024,1024,0,0,0,0,291.6,-24.8,0,96,4.07,4.083,4.081,4.09,0,0,5.128,70.34,91.520144660928,38.385828,6,P-GPS,
4900,2023-07-25 12:02:21,0,0,41.994752,,,95.129068660928,39.37008,0,0,0,9,2,16.295,95.129068660928,41.994752,0.223694,0,0,0,-12.526864,292.6, -5.3, -2.4,0,0,1024,1024,1024,1024,0,0,0,0,291.6,-27.8,0,96,4.102,4.11,4.104,4.111,0,0,13.562,70.16,95.129068660928,41.994752,6,P-GPS,
5100,2023-07-25 12:02:21,0,0,44.947508,,,98.081824660928,42.65092,0,0,0,9,2,16.295,98.081824660928,44.947508,0.223694,0,0,0,-10.737312,292.2, -5.5, -2.5,0,0,1024,1024,1024,1024,0,0,0,0,291.6,-30.7,0,96,4.102,4.11,4.104,4.111,0,0,13.562,70.16,98.081824660928,44.947508,6,P-GPS,
5300,2023-07-25 12:02:21,0,0,47.244096,,,100.37841266093,44.619424,0,0,0,9,2,16.295,100.37841266093,47.244096,0.223694,0,0,0,-8.276678,291.9, -5.3, -3.3,0,0,1024,1024,1024,1024,0,0,0,0,291.6,-33.6,0,96,4.102,4.11,4.104,4.111,0,0,13.562,70.16,100.37841266093,47.244096,6,P-GPS,
5500,2023-07-25 12:02:21,0,0,48.884516,,,102.01883266093,46.259844,0,0,0,9,2,16.295,102.01883266093,48.884516,0.223694,0,0,0,-6.039738,291.9, -6.2, -4.3,0,0,1024,1024,1024,1024,0,0,0,0,291.6,-36.5,0,96,4.102,4.11,4.104,4.111,0,0,13.562,70.16,102.01883266093,48.884516,6,P-GPS,
5700,2023-07-25 12:02:21,0,0,49.868768,,,103.00308466093,47.244096,0,0,0,9,2,16.295,103.00308466093,49.868768,0.223694,0,0,0,-3.579104,291.7, -7, -4.6,0,0,1024,1024,1024,1024,0,0,0,0,291.6,-39.4,0,96,4.102,4.11,4.104,4.111,0,0,13.562,70.16,103.00308466093,49.868768,6,P-GPS,
5900,2023-07-25 12:02:22,0,0,49.868768,,,103.00308466093,47.900264,0,0,0,9,2,16.461,103.00308466093,49.868768,0.223694,0,0,0,-1.342164,292.1, -7.5, -4.7,0,0,1024,1024,1024,1024,0,0,0,0,291.6,-42.3,0,96,4.237,4.244,4.241,4.244,0,0,13.216,70.34,103.00308466093,49.868768,6,P-GPS,
6100,2023-07-25 12:02:22,0,0,49.868768,,,103.00308466093,47.900264,0,0,0,9,2,16.461,103.00308466093,49.868768,0.223694,0,0,0,-0.223694,291.6, -6.4, -3.7,0,0,1024,1024,1024,1024,0,0,0,0,291.6,-45.3,0,96,4.237,4.244,4.241,4.244,0,0,13.216,70.34,103.00308466093,49.868768,6,P-GPS,
6300,2023-07-25 12:02:22,0,0,49.540684,,,102.67500066093,47.900264,0,0,0,9,2,16.461,103.00308466093,49.868768,0.223694,0,0,0,0,291.6, -5.6, -2.2,0,0,1024,1024,1024,1024,0,0,0,0,291.6,-48.2,0,96,4.237,4.244,4.241,4.244,0,0,13.216,70.34,102.67500066093,49.540684,6,P-GPS,
6500,2023-07-25 12:02:22,0,0,49.2126,,,102.34691666093,47.900264,0.223694,0,0,8,2,16.461,103.00308466093,49.868768,0.223694,0,0,-0.223694,0,291.5, -4.9, -1.3,0,0,1024,1024,1024,1024,0,0,0,0,291.6,-51.1,0,96,4.237,4.244,4.241,4.244,0,0,13.216,70.34,102.34691666093,49.2126,6,P-GPS,
6700,2023-07-25 12:02:22,0,0,48.884516,,,102.01883266093,47.900264,0.223694,0,0,8,2,16.461,103.00308466093,49.868768,0.223694,0,0,-0.223694,0,291.6, -3.9, -0.2,0,0,1024,1024,1024,1024,0,0,0,0,291.6,-54,0,96,4.237,4.244,4.241,4.244,0,0,13.216,70.34,102.01883266093,48.884516,6,P-GPS,
6900,2023-07-25 12:02:23,0,0,48.556432,,,101.69074866093,47.900264,0.223694,0,0,8,2,16.85,103.00308466093,49.868768,0.223694,0,0,-0.223694,0,291.5, -3.2, -0.5,0,0,1024,1024,1024,1024,0,0,0,0,291.6,-56.9,0,96,4.195,4.2,4.192,4.198,0,0,7.94,70.7,101.69074866093,48.556432,6,P-GPS,
7100,2023-07-25 12:02:23,0,0,48.556432,,,101.69074866093,47.900264,0,0,0,8,2,16.85,103.00308466093,49.868768,0.223694,0,0,0,0,291.5, -3.7, -0.9,0,0,1024,1024,1024,1024,0,0,0,0,291.6,-59.8,0,96,4.195,4.2,4.192,4.198,0,0,7.94,70.7,101.69074866093,48.556432,6,P-GPS,
7300,2023-07-25 12:02:23,0,0,48.228348,,,101.36266466093,47.900264,0,0,0,8,2,16.85,103.00308466093,49.868768,0.223694,0,0,0,0,291.6, -3.3, -1.8,0,0,1024,1024,1024,1024,0,0,0,0,291.6,-62.7,0,96,4.195,4.2,4.192,4.198,0,0,7.94,70.7,101.36266466093,48.228348,6,P-GPS,
7500,2023-07-25 12:02:23,0,0,48.228348,,,101.36266466093,47.900264,0,0,0,8,2,16.85,103.00308466093,49.868768,0.223694,0,0,0,0,291.5, -3.5, -2.5,0,0,1024,1024,1024,1024,0,0,0,0,291.6,-65.7,0,96,4.195,4.2,4.192,4.198,0,0,7.94,70.7,101.36266466093,48.228348,6,P-GPS,
7700,2023-07-25 12:02:23,0,0,47.900264,,,101.03458066093,47.900264,0,0,0,8,2,16.85,103.00308466093,49.868768,0.223694,0,0,0,0,291.8, -3.8, -2.7,0,0,1024,1024,1024,1024,0,0,0,0,291.6,-68.6,0,96,4.195,4.2,4.192,4.198,0,0,7.94,70.7,101.03458066093,47.900264,6,P-GPS,
7900,2023-07-25 12:02:24,0,0,47.900264,,,101.03458066093,47.900264,0,0,0,8,2,16.814,103.00308466093,49.868768,0.223694,0,0,0,0,291.6, -4.1, -2.6,0,0,1024,1024,1024,1024,0,0,0,0,291.6,-71.5,0,96,4.201,4.204,4.196,4.194,0,0,4.783,70.7,101.03458066093,47.900264,6,P-GPS,
8100,2023-07-25 12:02:24,0,0,47.900264,,,101.03458066093,48.228348,0,0,0,8,2,16.814,103.00308466093,49.868768,0.223694,0,0,0,0,291.6, -4.7, -2.1,0,0,1024,1024,1024,1024,0,0,0,0,291.6,-74.4,0,96,4.201,4.204,4.196,4.194,0,0,4.783,70.7,101.03458066093,47.900264,6,P-GPS,
8300,2023-07-25 12:02:24,0,0,47.57218,,,100.70649666093,48.228348,0,0,0,8,2,16.814,103.00308466093,49.868768,0.223694,0,0,0,0,291.6, -5, -1.3,0,0,1024,1024,1024,1024,0,0,0,0,291.6,-77.3,0,96,4.201,4.204,4.196,4.194,0,0,4.783,70.7,100.70649666093,47.57218,6,P-GPS,
8500,2023-07-25 12:02:24,0,0,47.57218,,,100.70649666093,48.228348,0,0,0,8,2,16.814,103.00308466093,49.868768,0.223694,0,0,0,0,291.7, -5.4, -1.2,0,0,1024,1024,1024,1024,0,0,0,0,291.6,-80.2,0,96,4.201,4.204,4.196,4.194,0,0,4.783,70.7,100.70649666093,47.57218,6,P-GPS,
8700,2023-07-25 12:02:24,0,0,47.57218,,,100.70649666093,48.228348,0,0,0,8,2,16.814,103.00308466093,49.868768,0.223694,0,0,0,0,291.9, -4.7, -2,0,0,1024,1024,1024,1024,0,0,0,0,291.6,-83.1,0,96,4.201,4.204,4.196,4.194,0,0,4.783,70.7,100.70649666093,47.57218,6,P-GPS,
8900,2023-07-25 12:02:25,0,0,47.57218,,,100.70649666093,48.228348,0,0,0,8,2,16.791,103.00308466093,49.868768,0.223694,0,0,0,0,291.9, -5.4, -2.9,0,0,1024,1024,1024,1024,0,0,0,0,291.6,-86,0,96,4.192,4.199,4.193,4.198,0,0,6.123,70.88,100.70649666093,47.57218,6,P-GPS,
9100,2023-07-25 12:02:25,0,0,47.57218,,,100.70649666093,48.228348,0,0,0,8,2,16.791,103.00308466093,49.868768,0.223694,0,0,0,0,292.4, -4.2, -3.1,0,0,1024,1024,1024,1024,0,0,0,0,291.6,-88.9,0,96,4.192,4.199,4.193,4.198,0,0,6.123,70.88,100.70649666093,47.57218,6,P-GPS,
9300,2023-07-25 12:02:25,0,0,47.57218,,,100.70649666093,48.228348,0,0,0,8,2,16.791,103.00308466093,49.868768,0.223694,0,0,0,0,291.8, -2.4, -3.9,0,0,1024,1024,1024,1024,0,0,0,0,291.6,-90,0,96,4.192,4.199,4.193,4.198,0,0,6.123,70.88,100.70649666093,47.57218,6,P-GPS,
9500,2023-07-25 12:02:25,0,0,47.57218,,,100.70649666093,48.228348,0,0,0,9,2,16.791,103.00308466093,49.868768,0.223694,0,0,0,0,292.1, -3, -5,0,0,1024,1024,1024,1024,0,0,0,0,291.6,-90,0,96,4.192,4.199,4.193,4.198,0,0,6.123,70.88,100.70649666093,47.57218,6,P-GPS,
9700,2023-07-25 12:02:25,0,0,47.57218,,,100.70649666093,48.228348,0,0,0,9,2,16.791,103.00308466093,49.868768,0.223694,0,0,0,0,292, -3.1, -5.3,0,0,1024,1024,1024,1024,0,0,0,0,291.6,-90,0,96,4.192,4.199,4.193,4.198,0,0,6.123,70.88,100.70649666093,47.57218,6,P-GPS,
9900,2023-07-25 12:02:26,0,0,47.57218,,,100.70649666093,48.228348,0,0,0,9,2,16.788,103.00308466093,49.868768,0.223694,0,0,0,0,292, -2.8, -5.2,0,0,1024,1024,1024,1024,0,0,0,0,291.6,-89.9,0,96,4.184,4.19,4.179,4.18,0,0,6.164,70.88,100.70649666093,47.57218,6,P-GPS,
10100,2023-07-25 12:02:26,0,0,47.57218,,,100.70649666093,48.228348,0,0,0,9,2,16.788,103.00308466093,49.868768,0.223694,0,0,0,0,291.8, -2.6, -4.9,0,0,1024,1024,1024,1679,0,0,0,99,291.7,-90,0,96,4.184,4.19,4.179,4.18,0,0,6.164,70.88,100.70649666093,47.57218,6,P-GPS,
10300,2023-07-25 12:02:26,0,0,47.900264,,,101.03458066093,48.228348,0.223694,0,0,9,2,16.788,103.00308466093,49.868768,0.223694,0,-0.223694,0,0,293.3, -3.4, -3.7,0,0,1024,1024,1024,1024,0,0,0,0,298.9,-89.9,0,96,4.184,4.19,4.179,4.18,0,0,6.164,70.88,101.03458066093,47.900264,6,P-GPS,
10500,2023-07-25 12:02:26,0,0,47.900264,,,101.03458066093,48.228348,0.223694,0,0,9,2,16.788,103.00308466093,49.868768,0.223694,0,-0.223694,0,0,301.8, -4.2, -1.8,0,0,1024,1024,1024,1024,0,0,0,0,300.8,-90,0,96,4.184,4.19,4.179,4.18,0,0,6.164,70.88,101.03458066093,47.900264,6,P-GPS,
10700,2023-07-25 12:02:26,0,0,47.900264,,,101.03458066093,48.556432,0,0,0,9,2,16.788,103.00308466093,49.868768,0.223694,0,0,0,0,300.8, -2.6, -3.5,0,0,1024,1024,1019,364,0,0,-1,-100,300.7,-90,0,96,4.184,4.19,4.179,4.18,0,0,6.164,70.88,101.03458066093,47.900264,6,P-GPS,
10900,2023-07-25 12:02:27,0,0,48.228348,,,101.36266466093,48.556432,0,0,0,9,2,16.695,103.00308466093,49.868768,0.223694,0,0,0,0,299.6, -2, -3.9,0,0,1024,1024,1024,608,0,0,0,-63,293.2,-90,0,96,4.173,4.174,4.167,4.172,0,0,6.679,70.88,101.36266466093,48.228348,6,P-GPS,
11100,2023-07-25 12:02:27,0,0,48.228348,,,101.36266466093,48.884516,0,0,0,9,2,16.695,103.00308466093,49.868768,0.223694,0,0,0,0,288.1, -1.5, -4.5,0,0,1024,1024,1024,1024,0,0,0,0,283,-89.9,0,96,4.173,4.174,4.167,4.172,0,0,6.679,70.88,101.36266466093,48.228348,6,P-GPS,
11300,2023-07-25 12:02:27,0,0,48.228348,,,101.36266466093,48.884516,0.223694,0,0,9,2,16.695,103.00308466093,49.868768,0.223694,0,-0.223694,0,0,280.6, -1.6, -5.1,0,0,1024,1024,1024,1024,0,0,0,0,281.4,-89.9,0,96,4.173,4.174,4.167,4.172,0,0,6.679,70.88,101.36266466093,48.228348,6,P-GPS,
11500,2023-07-25 12:02:27,0,0,48.228348,,,101.36266466093,48.556432,0.223694,0,0,9,2,16.695,103.00308466093,49.868768,0.223694,0,-0.223694,0,0,281.1, -3.7, -2.1,0,0,1024,1024,1024,1024,0,0,0,0,281.4,-89.9,0,96,4.173,4.174,4.167,4.172,0,0,6.679,70.88,101.36266466093,48.228348,6,P-GPS,
11700,2023-07-25 12:02:27,0,0,47.900264,,,101.03458066093,48.556432,0.223694,0,0,9,2,16.695,103.00308466093,49.868768,0.223694,0,-0.223694,0,0,281.3, -4.5, 0,0,0,1024,1024,1024,1024,0,0,0,0,281.4,-89.9,0,96,4.173,4.174,4.167,4.172,0,0,6.679,70.88,101.03458066093,47.900264,6,P-GPS,
11900,2023-07-25 12:02:28,0,0,47.900264,,,101.03458066093,48.884516,0,0,0,9,2,16.709,103.00308466093,49.868768,0.223694,0,0,0,0,281.4, -4, -0.2,0,0,1024,1024,1024,1024,0,0,0,0,281.4,-89.9,0,96,4.191,4.194,4.188,4.187,0,0,7.073,71.06,101.03458066093,47.900264,6,P-GPS,
12100,2023-07-25 12:02:28,0,0,47.900264,,,101.03458066093,48.884516,0,0,0,9,2,16.709,103.00308466093,49.868768,0.223694,0,0,0,0,281.5, -3.9, -1.6,0,0,1024,1024,1024,1024,0,0,0,0,281.4,-90,0,96,4.191,4.194,4.188,4.187,0,0,7.073,71.06,101.03458066093,47.900264,6,P-GPS,
12300,2023-07-25 12:02:28,0,0,47.900264,,,101.03458066093,48.884516,0,0,0,9,2,16.709,103.00308466093,49.868768,0.223694,0,0,0,0,281.5, -3.1, -1.4,0,0,1024,1024,1024,1024,0,0,0,0,281.4,-89.9,0,96,4.191,4.194,4.188,4.187,0,0,7.073,71.06,101.03458066093,47.900264,6,P-GPS,
12500,2023-07-25 12:02:28,0,0,47.900264,,,101.03458066093,48.884516,0,0,0,9,2,16.709,103.00308466093,49.868768,0.223694,0,0,0,0,281.5, -2.2, -2.2,0,0,1024,1024,1024,1024,0,0,0,0,281.4,-90,0,96,4.191,4.194,4.188,4.187,0,0,7.073,71.06,101.03458066093,47.900264,6,P-GPS,
12700,2023-07-25 12:02:28,0,0,47.900264,,,101.03458066093,48.884516,0,0,0,9,2,16.709,103.00308466093,49.868768,0.223694,0,0,0,0,281.4, -2.8, -2.8,0,0,1421,1024,1024,1024,60,0,0,0,281.4,-90,0,96,4.191,4.194,4.188,4.187,0,0,7.073,71.06,101.03458066093,47.900264,6,P-GPS,
12900,2023-07-25 12:02:29,0,0,47.900264,,,101.03458066093,48.884516,0,0,0,9,2,16.756,103.00308466093,49.868768,0.223694,0,0,0,0,281.4, -2.1, -1.2,0,0,1684,1024,1024,1024,100,0,0,0,281.4,-89.9,0,95,4.182,4.191,4.185,4.187,0,0,6.737,71.06,101.03458066093,47.900264,6,P-GPS,
13100,2023-07-25 12:02:29,0,0,47.57218,,,100.70649666093,48.884516,0,0,0,9,2,16.756,103.00308466093,49.868768,0.223694,0,0,0,0,281.2, -19.6, -0.2,0,0,1684,1024,1024,1024,100,0,0,0,281.4,-89.9,0,95,4.182,4.191,4.185,4.187,0,0,6.737,71.06,100.70649666093,47.57218,6,P-GPS,
13300,2023-07-25 12:02:29,0,0,47.57218,,,100.70649666093,48.556432,1.5882274,0,0,9,2,16.756,103.00308466093,49.868768,1.5882274,0,0.223694,-1.565858,0.223694,281.4, -29.1, 0.4,0,0,1684,1024,1024,1024,100,0,0,0,281.4,-89.9,0,95,4.182,4.191,4.185,4.187,0,0,6.737,71.06,100.70649666093,47.57218,6,P-GPS,
13500,2023-07-25 12:02:29,0,0,47.57218,,,100.70649666093,48.556432,3.6462122,0,0,9,2,16.756,103.00308466093,49.868768,3.6462122,0,0.671082,-3.579104,0,281.5, -29.3, 0.2,0,0,1684,1024,1024,1024,100,0,0,0,281.4,-89.9,0,95,4.182,4.191,4.185,4.187,0,0,6.737,71.06,100.70649666093,47.57218,6,P-GPS,
13700,2023-07-25 12:02:29,0,0,47.57218,,,100.70649666093,40.026248,5.480503,0,0,9,2,16.756,103.00308466093,49.868768,5.480503,0,1.11847,-5.368656,0,281.5, -28.9, -0.2,0,0,1684,1024,1161,1024,100,0,21,0,281.4,-90,0,95,4.182,4.191,4.185,4.187,0,0,6.737,71.06,100.70649666093,47.57218,6,P-GPS,
13900,2023-07-25 12:02:30,0,0,47.57218,,,100.70649666093,40.354332,7.0687304,0,0,9,2,16.717,103.00308466093,49.868768,7.0687304,0,1.342164,-6.934514,0,281.5, -20.4, -0.1,0,0,1660,1024,1684,1024,96,0,100,0,281.4,-89.9,0,95,4.153,4.158,4.146,4.146,0,0,6.465,71.24,100.70649666093,47.57218,6,P-GPS,
14100,2023-07-25 12:02:30,0,0,47.900264,,,101.03458066093,41.0105,8.6793272,0,0,9,2,16.717,103.00308466093,49.868768,8.6793272,0,1.789552,-8.500372,-1.11847,281.5, -21.4, -0.5,0,0,1649,1024,1684,1024,95,0,100,0,281.4,-89.9,0,95,4.153,4.158,4.146,4.146,0,0,6.465,71.24,101.03458066093,47.900264,6,P-GPS,
14300,2023-07-25 12:02:30,0,0,48.556432,,,101.69074866093,47.57218,10.5359874,0,0,11,2,16.717,103.00308466093,49.868768,10.5359874,0,2.23694,-10.289924,-3.131716,282, -21.2, -1.4,0,0,1649,1024,1663,1024,95,0,97,0,281.4,-90,0,95,4.153,4.158,4.146,4.146,0,0,6.465,71.24,101.69074866093,48.556432,6,P-GPS,
14500,2023-07-25 12:02:30,0,0,50.196852,,,103.33116866093,49.2126,12.1018454,0,0,11,2,16.717,103.33116866093,50.196852,12.1018454,0,2.460634,-11.855782,-5.59235,282.1, -18.7, -2.3,0,0,1658,1024,1024,1024,96,0,0,0,281.4,-90,0,95,4.153,4.158,4.146,4.146,0,0,6.465,71.24,103.33116866093,50.196852,6,P-GPS,
14700,2023-07-25 12:02:30,0,0,52.165356,,,105.29967266093,52.165356,13.0189908,0,0,11,2,16.717,105.29967266093,52.165356,13.0189908,0,2.684328,-12.750558,-5.816044,282.1, -25, -3.6,0,0,1656,1024,1024,1024,96,0,0,0,281.4,-90,0,95,4.153,4.158,4.146,4.146,0,0,6.465,71.24,105.29967266093,52.165356,6,P-GPS,
14900,2023-07-25 12:02:31,0,0,53.805776,,,106.94009266093,54.461944,13.4663788,0,0,11,2,16.599,106.94009266093,53.805776,13.4663788,0,2.684328,-13.197946,-3.579104,281.9, -29.3, -3.9,0,0,1642,1024,1024,1024,94,0,0,0,281.5,-89.9,0,95,4.038,4.042,4.028,4.032,0,0,7.212,71.06,106.94009266093,53.805776,6,P-GPS,
15100,2023-07-25 12:02:31,0,0,54.790028,,,107.92434466093,55.118112,14.1598302,0,0,11,2,16.599,107.92434466093,54.790028,14.1598302,0,2.908022,-13.869028,-1.342164,282.2, -30.1, -4.3,0,0,1024,1024,1024,1024,0,0,0,0,281.4,-89.9,0,95,4.038,4.042,4.028,4.032,0,0,7.212,71.06,107.92434466093,54.790028,6,P-GPS,
15300,2023-07-25 12:02:31,0,0,55.118112,,,108.25242866093,62.664044,15.1440838,0,0,11,2,16.599,108.25242866093,55.118112,15.1440838,0,3.35541,-14.763804,-0.447388,284, -17.5, -4.6,0,0,1024,1024,1024,1024,0,0,0,0,281.5,-90,0,95,4.038,4.042,4.028,4.032,0,0,7.212,71.06,108.25242866093,55.118112,6,P-GPS,
15500,2023-07-25 12:02:31,0,0,55.118112,,,108.25242866093,63.648296,14.6966958,0,0,11,2,16.599,108.25242866093,55.118112,15.1440838,0,3.35541,-14.316416,-0.671082,282.5, 20.4, -3.6,0,0,1024,1024,1024,1024,0,0,0,0,281.4,-89.9,0,95,4.038,4.042,4.028,4.032,0,0,7.212,71.06,108.25242866093,55.118112,6,P-GPS,
15700,2023-07-25 12:02:31,0,0,54.790028,,,107.92434466093,63.648296,12.3702782,0,0,11,2,16.599,108.25242866093,55.118112,15.1440838,0,2.684328,-12.079476,-0.223694,282.7, 27.3, -2.4,0,0,1024,1024,1024,1024,0,0,0,0,281.4,-90,0,95,4.038,4.042,4.028,4.032,0,0,7.212,71.06,107.92434466093,54.790028,6,P-GPS,
15900,2023-07-25 12:02:32,0,0,54.790028,,,107.92434466093,50.524936,9.8649054,0,0,11,2,16.263,108.25242866093,55.118112,15.1440838,0,2.23694,-9.618842,0,282.2, 29, -3.1,0,0,1024,1024,1024,1024,0,0,0,0,281.5,-90,0,95,4.212,4.225,4.187,4.2,0,0,11.508,71.06,107.92434466093,54.790028,6,P-GPS,
16100,2023-07-25 12:02:32,0,0,54.461944,,,107.59626066093,50.524936,7.1134692,0,0,11,2,16.263,108.25242866093,55.118112,15.1440838,0,1.565858,-6.934514,0,281.9, 29.7, -3,0,0,1024,1024,1024,1024,0,0,0,0,281.4,-90,0,95,4.212,4.225,4.187,4.2,0,0,11.508,71.06,107.59626066093,54.461944,6,P-GPS,
16300,2023-07-25 12:02:32,0,0,54.13386,,,107.26817666093,50.85302,4.5633576,0,0,11,2,16.263,108.25242866093,55.118112,15.1440838,0,0.894776,-4.47388,0,282.5, 30.1, -1.7,0,0,1024,1024,1024,1024,0,0,0,0,281.4,-89.9,0,95,4.212,4.225,4.187,4.2,0,0,11.508,71.06,107.26817666093,54.13386,6,P-GPS,
16500,2023-07-25 12:02:32,0,0,54.13386,,,107.26817666093,51.181104,2.23694,0,0,11,2,16.263,108.25242866093,55.118112,15.1440838,0,0.223694,-2.23694,0,282.7, 19.7, -0.8,0,0,1024,1024,1024,1024,0,0,0,0,281.4,-89.9,0,95,4.212,4.225,4.187,4.2,0,0,11.508,71.06,107.26817666093,54.13386,6,P-GPS,
16700,2023-07-25 12:02:32,0,0,53.805776,,,106.94009266093,51.837272,0.894776,0,0,11,2,16.263,108.25242866093,55.118112,15.1440838,0,0,-0.894776,0,282.9, 8.5, -0.7,0,0,1024,1024,1024,1024,0,0,0,0,281.4,-89.9,0,95,4.212,4.225,4.187,4.2,0,0,11.508,71.06,106.94009266093,53.805776,6,P-GPS,
16900,2023-07-25 12:02:33,0,0,53.805776,,,106.94009266093,52.165356,0.447388,0,0,11,2,16.631,108.25242866093,55.118112,15.1440838,0,0,-0.447388,0,283.2, 2.8, -1.3,0,0,1024,1024,1024,1024,0,0,0,0,281.4,-89.9,0,95,4.175,4.197,4.185,4.191,0,0,7.771,71.24,106.94009266093,53.805776,6,P-GPS,
17100,2023-07-25 12:02:33,0,0,53.805776,,,106.94009266093,57.4147,0,0,0,11,2,16.631,108.25242866093,55.118112,15.1440838,0,0,0,0,283.2, -0.3, -2.4,0,0,1024,1024,1024,1024,0,0,0,0,281.4,-90,0,95,4.175,4.197,4.185,4.191,0,0,7.771,71.24,106.94009266093,53.805776,6,P-GPS,
17300,2023-07-25 12:02:33,0,0,53.805776,,,106.94009266093,56.758532,0,0,0,11,2,16.631,108.25242866093,55.118112,15.1440838,0,0,0,0,283.1, -2.2, -2.8,0,0,1024,1024,1054,1024,0,0,5,0,281.4,-90,0,95,4.175,4.197,4.185,4.191,0,0,7.771,71.24,106.94009266093,53.805776,6,P-GPS,
17500,2023-07-25 12:02:33,0,0,53.805776,,,106.94009266093,55.77428,0,0,0,11,2,16.631,108.25242866093,55.118112,15.1440838,0,0,0,0,283.3, -4.6, -2.8,0,0,1024,1024,1508,1024,0,0,73,0,281.4,-90,0,95,4.175,4.197,4.185,4.191,0,0,7.771,71.24,106.94009266093,53.805776,6,P-GPS,
17700,2023-07-25 12:02:33,0,0,53.805776,,,106.94009266093,55.118112,0,0,0,11,2,16.631,108.25242866093,55.118112,15.1440838,0,0,0,-0.223694,283.3, -5.6, -3.4,0,0,1024,1024,1684,1024,0,0,100,0,281.4,-90,0,95,4.175,4.197,4.185,4.191,0,0,7.771,71.24,106.94009266093,53.805776,6,P-GPS,
17900,2023-07-25 12:02:34,0,0,54.13386,,,107.26817666093,54.461944,0,0,0,11,2,16.736,108.25242866093,55.118112,15.1440838,0,0,0,-2.013246,283.6, -4.7, -2.5,0,0,1024,1024,1684,1024,0,0,100,0,281.4,-89.9,0,95,4.159,4.167,4.16,4.165,0,0,5.571,71.42,107.26817666093,54.13386,6,P-GPS,
18100,2023-07-25 12:02:34,0,0,55.118112,,,108.25242866093,55.446196,0,0,0,11,2,16.736,108.25242866093,55.118112,15.1440838,0,0,0,-4.250186,283.6, -4.6, -4.6,0,0,1024,1024,1684,1024,0,0,100,0,281.4,-90,0,95,4.159,4.167,4.16,4.165,0,0,5.571,71.42,108.25242866093,55.118112,6,P-GPS,
18300,2023-07-25 12:02:34,0,0,57.086616,,,110.22093266093,57.086616,0,0,0,11,2,16.736,110.22093266093,57.086616,15.1440838,0,0,0,-6.487126,283.2, -5.9, -4.2,0,0,1024,1024,1684,1024,0,0,100,0,281.4,-90,0,95,4.159,4.167,4.16,4.165,0,0,5.571,71.42,110.22093266093,57.086616,6,P-GPS,
18500,2023-07-25 12:02:34,0,0,61.023624,,,114.15794066093,59.05512,0,0,0,11,2,16.736,114.15794066093,61.023624,15.1440838,0,0,0,-8.724066,283.4, -7.8, -3,0,0,1024,1024,1684,1024,0,0,100,0,281.4,-90,0,95,4.159,4.167,4.16,4.165,0,0,5.571,71.42,114.15794066093,61.023624,6,P-GPS,
18700,2023-07-25 12:02:34,0,0,65.6168,,,118.75111666093,61.679792,0,0,0,11,2,16.736,118.75111666093,65.6168,15.1440838,0,0,0,-10.961006,283.3, -7.3, -1.5,0,0,1024,1024,1684,1024,0,0,100,0,281.4,-90,0,95,4.159,4.167,4.16,4.165,0,0,5.571,71.42,118.75111666093,65.6168,6,P-GPS,
18900,2023-07-25 12:02:35,0,0,70.53806,,,123.67237666093,64.960632,0.223694,0,0,11,2,16.655,123.67237666093,70.53806,15.1440838,0,0,-0.223694,-12.526864,283.2, -6.3, -1.5,0,0,1024,1024,1684,1024,0,0,100,0,281.4,-89.9,0,95,4.029,4.037,4.021,4.03,0,0,6.509,71.6,123.67237666093,70.53806,6,P-GPS,
19100,2023-07-25 12:02:35,0,0,74.803152,,,127.93746866093,68.89764,0,0,0,11,2,16.655,127.93746866093,74.803152,15.1440838,0,0,0,-13.42164,283.1, -6.5, -2.2,0,0,1024,1024,1684,1024,0,0,100,0,281.4,-89.9,0,95,4.029,4.037,4.021,4.03,0,0,6.509,71.6,127.93746866093,74.803152,6,P-GPS,
19300,2023-07-25 12:02:35,0,0,78.74016,,,131.87447666093,72.834648,0,0,0,11,2,16.655,131.87447666093,78.74016,15.1440838,0,0,0,-12.750558,283, -7.9, -2.5,0,0,1024,1024,1684,1024,0,0,100,0,281.4,-90,0,95,4.029,4.037,4.021,4.03,0,0,6.509,71.6,131.87447666093,78.74016,6,P-GPS,
19500,2023-07-25 12:02:35,0,0,82.677168,,,135.81148466093,76.771656,0,0,0,11,2,16.655,135.81148466093,82.677168,15.1440838,0,0,0,-10.961006,283, -9.3, -2.3,0,0,1024,1024,1684,1024,0,0,100,0,281.4,-89.9,0,95,4.029,4.037,4.021,4.03,0,0,6.509,71.6,135.81148466093,82.677168,6,P-GPS,
19700,2023-07-25 12:02:35,0,0,85.30184,,,138.43615666093,80.052496,0,0,0,11,2,16.655,138.43615666093,85.30184,15.1440838,0,0,0,-8.94776,283.1, -10.1, -2.2,0,0,1024,1024,1684,1024,0,0,100,0,281.4,-89.9,0,95,4.029,4.037,4.021,4.03,0,0,6.509,71.6,138.43615666093,85.30184,6,P-GPS,
19900,2023-07-25 12:02:36,0,0,87.598428,,,140.73274466093,82.677168,0,0,0,11,2,16.238,140.73274466093,87.598428,15.1440838,0,0,0,-7.158208,283.1, -10.4, -2.2,0,0,1024,1024,1657,1024,0,0,96,0,281.4,-89.9,0,95,4.152,4.163,4.16,4.167,0,0,12.355,71.42,140.73274466093,87.598428,6,P-GPS,
20100,2023-07-25 12:02:36,0,0,88.910764,,,142.04508066093,83.66142,0,0,0,11,2,16.238,142.04508066093,88.910764,15.1440838,0,0,0,-6.039738,283.2, -10.2, -2.1,0,0,1024,1024,1656,1024,0,0,96,0,281.4,-90,0,95,4.152,4.163,4.16,4.167,0,0,12.355,71.42,142.04508066093,88.910764,6,P-GPS,
20300,2023-07-25 12:02:36,0,0,89.895016,,,143.02933266093,83.66142,0,0,0,12,2,16.238,143.02933266093,89.895016,15.1440838,0,0,0,-5.144962,283.2, -9.4, -1.9,0,0,1024,1024,1678,1024,0,0,99,0,281.4,-90,0,95,4.152,4.163,4.16,4.167,0,0,12.355,71.42,143.02933266093,89.895016,6,P-GPS,
20500,2023-07-25 12:02:36,0,0,90.879268,,,144.01358466093,83.66142,0,0,0,12,2,16.238,144.01358466093,90.879268,15.1440838,0,0,0,-4.47388,283.3, -8.5, -1.5,0,0,1024,1024,1684,1024,0,0,100,0,281.4,-89.9,0,95,4.152,4.163,4.16,4.167,0,0,12.355,71.42,144.01358466093,90.879268,6,P-GPS,
20700,2023-07-25 12:02:36,0,0,91.207352,,,144.34166866093,83.66142,0,0,0,12,2,16.238,144.34166866093,91.207352,15.1440838,0,0,0,-4.026492,283.3, -8.1, -1.9,0,0,1024,1024,1684,1024,0,0,100,0,281.4,-89.9,0,95,4.152,4.163,4.16,4.167,0,0,12.355,71.42,144.34166866093,91.207352,6,P-GPS,
20900,2023-07-25 12:02:37,0,0,91.535436,,,144.66975266093,83.66142,0.3131716,0,0,12,2,16.464,144.66975266093,91.535436,15.1440838,0,0.223694,-0.223694,-3.802798,283.3, -6, -2.9,0,0,1024,1024,1684,1024,0,0,100,0,281.4,-90,0,95,4.154,4.16,4.151,4.156,0,0,13.711,71.78,144.66975266093,91.535436,6,P-GPS,
21100,2023-07-25 12:02:37,0,0,91.86352,,,144.99783666093,83.66142,0,0,0,12,2,16.464,144.99783666093,91.86352,15.1440838,0,0,0,-3.579104,283.1, -4.4, -2.2,0,0,1024,1024,1684,1024,0,0,100,0,281.4,-90,0,95,4.154,4.16,4.151,4.156,0,0,13.711,71.78,144.99783666093,91.86352,6,P-GPS,
21300,2023-07-25 12:02:37,0,0,92.191604,,,145.32592066093,83.66142,0,0,0,12,2,16.464,145.32592066093,92.191604,15.1440838,0,0,0,-3.35541,283.1, -4.8, -1.2,0,0,1024,1024,1684,1024,0,0,100,0,281.4,-90,0,95,4.154,4.16,4.151,4.156,0,0,13.711,71.78,145.32592066093,92.191604,6,P-GPS,
21500,2023-07-25 12:02:37,0,0,92.519688,,,145.65400466093,83.66142,0,0,0,12,2,16.464,145.65400466093,92.519688,15.1440838,0,0,0,-3.35541,283.1, -5.8, -1.2,0,0,1024,1024,1684,1024,0,0,100,0,281.4,-90,0,95,4.154,4.16,4.151,4.156,0,0,13.711,71.78,145.65400466093,92.519688,6,P-GPS,
21700,2023-07-25 12:02:37,0,0,93.175856,,,146.31017266093,83.66142,0,0,0,12,2,16.464,146.31017266093,93.175856,15.1440838,0,0,0,-3.131716,283.2, -6.4, -1.5,0,0,1024,1024,1684,1024,0,0,100,0,281.4,-90,0,95,4.154,4.16,4.151,4.156,0,0,13.711,71.78,146.31017266093,93.175856,6,P-GPS,
21900,2023-07-25 12:02:38,0,0,93.832024,,,146.96634066093,83.66142,0.223694,0,0,12,2,16.627,146.96634066093,93.832024,15.1440838,0,0,0.223694,-2.684328,283.2, -6.9, -2.1,0,0,1024,1024,1684,1024,0,0,100,0,281.4,-89.9,0,95,4.155,4.159,4.152,4.156,0,0,6.735,71.78,146.96634066093,93.832024,6,P-GPS,"Max altitude reached (Code: 20000001)"
22100,2023-07-25 12:02:38,0,0,94.488192,,,147.62250866093,83.66142,0.223694,0,0,13,2,16.627,147.62250866093,94.488192,15.1440838,0,0,0.223694,-2.23694,283.3, -7.5, -2.8,0,0,1024,1024,1684,1024,0,0,100,0,281.4,-89.9,0,95,4.155,4.159,4.152,4.156,0,0,6.735,71.78,147.62250866093,94.488192,6,P-GPS,
22300,2023-07-25 12:02:38,0,0,95.472444,,,148.60676066093,83.66142,0.223694,0,0,13,2,16.627,148.60676066093,95.472444,15.1440838,0,0,0.223694,-2.013246,283.3, -8.1, -3.4,0,0,1024,1024,1684,1024,0,0,100,0,281.4,-89.9,0,95,4.155,4.159,4.152,4.156,0,0,6.735,71.78,148.60676066093,95.472444,6,P-GPS,
22500,2023-07-25 12:02:38,0,0,96.128612,,,149.26292866093,83.66142,0,0,0,13,2,16.627,149.26292866093,96.128612,15.1440838,0,0,0,-1.565858,283.3, -8.8, -3.8,0,0,1024,1024,1024,1024,0,0,0,0,281.4,-90,0,95,4.155,4.159,4.152,4.156,0,0,6.735,71.78,149.26292866093,96.128612,6,P-GPS,
22700,2023-07-25 12:02:38,0,0,96.456696,,,149.59101266093,83.66142,0,0,0,13,2,16.627,149.59101266093,96.456696,15.1440838,0,0,0,-0.894776,283.2, -8.8, -3.5,0,0,1024,1024,1024,1024,0,0,0,0,281.4,-89.9,0,95,4.155,4.159,4.152,4.156,0,0,6.735,71.78,149.59101266093,96.456696,6,P-GPS,
22900,2023-07-25 12:02:39,0,0,96.456696,,,149.59101266093,83.66142,0,0,0,13,2,16.623,149.59101266093,96.456696,15.1440838,0,0,0,-0.223694,283.2, -8, -3.1,0,0,1024,1024,1024,1024,0,0,0,0,281.4,-90,0,95,4.161,4.166,4.159,4.165,0,0,7.114,71.96,149.59101266093,96.456696,6,P-GPS,
23100,2023-07-25 12:02:39,0,0,96.456696,,,149.59101266093,83.66142,0,0,0,13,2,16.623,149.59101266093,96.456696,15.1440838,0,0,0,0,283.1, -7.9, -3,0,0,1024,1024,1024,1024,0,0,0,0,281.4,-89.9,0,95,4.161,4.166,4.159,4.165,0,0,7.114,71.96,149.59101266093,96.456696,6,P-GPS,
23300,2023-07-25 12:02:39,0,0,96.456696,,,149.59101266093,83.66142,0,0,0,13,2,16.623,149.59101266093,96.456696,15.1440838,0,0,0,0,283.2, -7.2, -2.9,0,0,1024,1024,1024,1024,0,0,0,0,281.4,-89.9,0,95,4.161,4.166,4.159,4.165,0,0,7.114,71.96,149.59101266093,96.456696,6,P-GPS,
23500,2023-07-25 12:02:39,52.2064116690061,0.0865148549913767,96.456696,96.456696,53.134316660928,149.59101266093,83.66142,0,0,0,13,2,16.623,149.59101266093,96.456696,15.1440838,0,0,0,0,283.2, -6.8, -2.8,0,0,1024,1024,1024,1024,0,0,0,0,281.4,-89.9,0,95,4.161,4.166,4.159,4.165,0,0,7.114,71.96,149.59101266093,96.456696,6,P-GPS,"No GPS. Fly with caution GPS signal weak. Hovering unstable. Fly with caution (Code: 30002)"
23700,2023-07-25 12:02:39,52.2064116538176,0.0865149180078274,96.456696,96.456696,53.134316660928,149.59101266093,83.66142,0,0.0151402235816,0.0151402235816,13,2,16.623,149.59101266093,96.456696,15.1440838,0.0151402235816,0,0,0,283.2, -7.2, -2.6,0,0,1024,1024,1024,1024,0,0,0,0,281.4,-89.9,0,95,4.161,4.166,4.159,4.165,0,0,7.114,71.96,149.59101266093,96.456696,6,P-GPS,
23900,2023-07-25 12:02:40,52.206411767383,0.0865152681743476,96.456696,96.456696,53.134316660928,149.59101266093,83.66142,0,0.099109911308,0.103720803844,13,2,16.64,149.59101266093,96.456696,15.1440838,0.099109911308,0,0,0,283.2, -7.5, -2.5,0,0,1024,1024,1024,1024,0,0,0,0,281.4,-89.9,0,95,4.155,4.162,4.155,4.157,0,0,6.909,72.14,149.59101266093,96.456696,6,P-GPS,
24100,2023-07-25 12:02:40,52.2064118566375,0.0865154785628703,96.128612,96.128612,53.134316660928,149.26292866093,83.66142,0,0.155322183448,0.160932747932,13,2,16.64,149.59101266093,96.456696,15.1440838,0.155322183448,0,0,0,283.3, -7.7, -2.6,0,0,1024,1024,1024,1024,0,0,0,0,281.4,-90,0,95,4.155,4.162,4.155,4.157,0,0,6.909,72.14,149.26292866093,96.128612,6,P-GPS,
24300,2023-07-25 12:02:40,52.2064119308748,0.0865157131063893,96.128612,96.128612,53.134316660928,149.26292866093,83.66142,0,0.21433563678,0.219955387616,13,2,16.64,149.59101266093,96.456696,15.1440838,0.21433563678,0,0,0,283.2, -8, -3.1,0,0,1024,1024,1024,1024,0,0,0,0,281.4,-89.9,0,95,4.155,4.162,4.155,4.157,0,0,6.909,72.14,149.26292866093,96.128612,6,P-GPS,"GPS signal weak. Altitude limit set. Wait for GPS signal to return to normal to continue ascending (Code: 30214)"
24500,2023-07-25 12:02:40,52.2064120045882,0.0865159247787298,96.128612,96.128612,53.134316660928,149.26292866093,83.66142,0,0.268705389176,0.274390100644,13,4,16.64,149.59101266093,96.456696,15.1440838,0.268705389176,0,0,0,283.2, -8.4, -3.2,0,0,1024,1024,1024,1024,0,0,0,0,281.4,-89.9,0,95,4.155,4.162,4.155,4.157,0,0,6.909,72.14,149.26292866093,96.128612,6,P-GPS,
24700,2023-07-25 12:02:40,52.2064120922866,0.0865161007274065,96.128612,96.128612,53.134316660928,149.26292866093,83.66142,0,0.318478684732,0.325099091768,13,4,16.64,149.59101266093,96.456696,15.1440838,0.318478684732,0,0,0,283.3, -8.2, -3.4,0,0,1024,1024,1024,1024,0,0,0,0,281.4,-90,0,95,4.155,4.162,4.155,4.157,0,0,6.909,72.14,149.26292866093,96.128612,6,P-GPS,
24900,2023-07-25 12:02:41,52.2064122169737,0.0865162640294677,96.128612,96.128612,53.134316660928,149.26292866093,83.66142,0,0.37312337152,0.3834317708,13,4,16.632,149.59101266093,96.456696,15.1440838,0.37312337152,0,0,0,283.3, -7.9, -3.6,0,0,1024,1024,1024,1024,0,0,0,0,281.4,-90,0,95,4.16,4.165,4.159,4.162,0,0,6.534,72.14,149.26292866093,96.128612,6,P-GPS,"Setting new Maximum Flight Altitude to 120m (394 ft)"
25100,2023-07-25 12:02:41,52.2064124029449,0.0865164692826099,96.128612,96.128612,53.134316660928,149.26292866093,83.66142,0,0.44941930572,0.46534450308,13,4,16.632,149.59101266093,96.456696,15.1440838,0.44941930572,0,0,0,283.3, -8.2, -3.8,0,0,1024,1024,1550,1024,0,0,80,0,281.4,-89.9,0,95,4.16,4.165,4.159,4.162,0,0,6.534,72.14,149.26292866093,96.128612,6,P-GPS,
25300,2023-07-25 12:02:41,52.2064126193976,0.086516683196908,96.128612,96.0958036,53.167125060928,149.26292866093,83.66142,0,0.5360236392,0.55767062152,13,5,16.632,149.59101266093,96.456696,15.1440838,0.5360236392,0,0,-0.447388,283.3, -7.2, -3.4,0,0,1024,1024,1684,1024,0,0,100,0,281.4,-90,0,95,4.16,4.165,4.159,4.162,0,0,6.534,72.14,149.26292866093,96.128612,6,P-GPS,
25500,2023-07-25 12:02:41,52.206412845931,0.0865168528923927,96.456696,96.4238876,53.167125060928,149.59101266093,83.66142,0,0.6196194424,0.64861550632,13,5,16.632,149.59101266093,96.456696,15.1440838,0.6196194424,0,0,-1.565858,283.3, -7.2, -3,0,0,1024,1024,1684,1024,0,0,100,0,281.4,-89.9,0,95,4.16,4.165,4.159,4.162,0,0,6.534,72.14,149.59101266093,96.456696,6,P-GPS,
25700,2023-07-25 12:02:41,52.2064130847867,0.086517046425933,97.112864,97.0800556,53.167125060928,150.24718066093,83.66142,0,0.71196524588,0.74591209736,13,5,16.632,150.24718066093,97.112864,15.1440838,0.71196524588,0,0,-2.013246,283.3, -7.2, -3,0,0,1024,1024,1684,1024,0,0,100,0,281.4,-90,0,95,4.16,4.165,4.159,4.162,0,0,6.534,72.14,150.24718066093,97.112864,6,P-GPS,"Home Point updated (Code: 3000001)"
25900,2023-07-25 12:02:42,52.2064132976683,0.0865172753910972,97.769032,97.7362236,53.167125060928,150.90334866093,83.66142,0,0.80371393648,0.83893703472,13,5,16.64,150.90334866093,97.769032,15.1440838,0.80371393648,0,0,-2.684328,283.4, -7.3, -3.1,0,0,1024,1024,1684,1024,0,0,100,0,281.4,-90,0,95,4.128,4.133,4.126,4.134,0,0,6.882,72.14,150.90334866093,97.769032,6,P-GPS,
26100,2023-07-25 12:02:42,52.2064134629194,0.0865175106278015,98.753284,98.7204756,53.167125060928,151.88760066093,83.66142,0,0.88370737736,0.9189468798,13,5,16.64,151.88760066093,98.753284,15.1440838,0.88370737736,0,0,-3.131716,283.4, -8.1, -3,0,0,1024,1024,1684,1024,0,0,100,0,281.4,-89.9,0,95,4.128,4.133,4.126,4.134,0,0,6.882,72.14,151.88760066093,98.753284,6,P-GPS,
26300,2023-07-25 12:02:42,52.2064136006999,0.0865176684402992,99.737536,99.7047276,53.167125060928,152.87185266093,83.66142,0,0.94467522708,0.98036092376,16,5,16.64,152.87185266093,99.737536,15.1440838,0.94467522708,0,0,-3.579104,283.4, -7.9, -3.2,0,0,1024,1024,960,1024,0,0,-10,0,281.4,-90,0,95,4.128,4.133,4.126,4.134,0,0,6.882,72.14,152.87185266093,99.737536,6,P-GPS,
26500,2023-07-25 12:02:42,52.2064137046473,0.0865176712147873,101.049872,101.0170636,53.167125060928,154.18418866093,83.66142,0,0.97370081856,1.01829399584,16,5,16.64,154.18418866093,101.049872,15.1440838,0.97370081856,0,0,-4.026492,283.2, -7.1, -2,0,0,1024,1024,1024,1024,0,0,0,0,281.4,-90,0,95,4.128,4.133,4.126,4.134,0,0,6.882,72.14,154.18418866093,101.049872,6,P-GPS,
26700,2023-07-25 12:02:42,52.2064137584384,0.0865176432392452,102.362208,102.3293996,53.167125060928,155.49652466093,83.66142,0,0.98478021524,1.03889110936,16,5,16.64,155.49652466093,102.362208,15.1440838,0.98478021524,0,0,-2.460634,283, -9, -0.4,0,0,1024,1024,1542,1024,0,0,78,0,281.4,-89.9,0,95,4.128,4.133,4.126,4.134,0,0,6.882,72.14,155.49652466093,102.362208,6,P-GPS,
26900,2023-07-25 12:02:43,52.2064138907628,0.0865177650725169,102.690292,102.6574836,53.167125060928,155.82460866093,83.66142,0,1.03943900964,1.094324182,16,5,16.452,155.82460866093,102.690292,15.1440838,1.03943900964,0,0,-0.894776,283, -8, 0.5,0,0,1024,1024,1684,1024,0,0,100,0,281.4,-90,0,95,4.124,4.187,4.194,4.197,0,0,7.595,72.14,155.82460866093,102.690292,6,P-GPS,
27100,2023-07-25 12:02:43,52.2064142085624,0.0865179189384353,103.018376,102.9855676,53.167125060928,156.15269266093,83.66142,0,1.15230646732,1.21526906776,16,5,16.452,156.15269266093,103.018376,15.1440838,1.15230646732,0,0,-2.460634,283.1, -5.3, -0.3,0,0,1024,1024,1684,1024,0,0,100,0,281.4,-90,0,95,4.124,4.187,4.194,4.197,0,0,7.595,72.14,156.15269266093,103.018376,6,P-GPS,
27300,2023-07-25 12:02:43,52.2064147627622,0.086518184783846,104.330712,104.2979036,53.167125060928,157.46502866093,83.66142,0.223694,1.35216867844,1.42602366768,16,5,16.452,157.46502866093,104.330712,15.1440838,1.35216867844,0.223694,0,-4.47388,283.4, -6, -2.9,0,0,1024,1024,1684,1024,0,0,100,0,281.4,-89.9,0,95,4.124,4.187,4.194,4.197,0,0,7.595,72.14,157.46502866093,104.330712,6,P-GPS,
27500,2023-07-25 12:02:43,52.2064153666788,0.0865185071901954,105.643048,105.6102396,53.167125060928,158.77736466093,83.66142,0.223694,1.57697839692,1.65785438376,16,5,16.452,158.77736466093,105.643048,15.1440838,1.57697839692,0.223694,0,-5.59235,283.6, -6.8, -5.2,0,0,1024,1024,1684,1024,0,0,100,0,281.4,-89.9,0,95,4.124,4.187,4.194,4.197,0,0,7.595,72.14,158.77736466093,105.643048,6,P-GPS,
27700,2023-07-25 12:02:43,52.2064158453725,0.0865188026283982,107.939636,107.8740192,53.199933460928,161.07395266093,83.66142,0,1.76092197236,1.84458011152,16,5,16.452,161.07395266093,107.939636,15.1440838,1.76092197236,0,0,-6.487126,283.4, -7.3, -5,0,0,1024,1024,1684,1024,0,0,100,0,281.4,-89.9,0,95,4.124,4.187,4.194,4.197,0,0,7.595,72.14,161.07395266093,107.939636,6,P-GPS,
27900,2023-07-25 12:02:44,52.2064161695593,0.0865189838534514,111.54856,111.4829432,53.199933460928,164.68287666093,83.66142,0,1.88373693692,1.96960636224,16,5,16.512,164.68287666093,111.54856,15.1440838,1.88373693692,0,0,-7.158208,283.1, -7, -2.5,0,0,1024,1024,1684,1024,0,0,100,0,281.4,-90,0,95,4.086,4.098,4.089,4.096,0,0,8.564,72.32,164.68287666093,111.54856,6,P-GPS,
28100,2023-07-25 12:02:44,52.2064165080608,0.0865191258001236,115.157484,115.0918672,53.199933460928,168.29180066093,83.66142,0,2.00721463116,2.09712277052,16,5,16.512,168.29180066093,115.157484,15.1440838,2.00721463116,0,0,-7.605596,283.1, -6.8, -0.5,0,0,1024,1024,1684,1024,0,0,100,0,281.4,-89.9,0,95,4.086,4.098,4.089,4.096,0,0,8.564,72.32,168.29180066093,115.157484,6,P-GPS,
28300,2023-07-25 12:02:44,52.2064170004792,0.086519315867192,118.438324,118.3727072,53.199933460928,171.57264066093,83.66142,0,2.18598432192,2.28173891816,16,5,16.512,171.57264066093,118.438324,15.1440838,2.18598432192,0,0,-8.052984,283.1, -7.1, 0,0,0,1024,1024,1550,1024,0,0,80,0,281.4,-90,0,95,4.086,4.098,4.089,4.096,0,0,8.564,72.32,171.57264066093,118.438324,6,P-GPS,
28500,2023-07-25 12:02:44,52.2064176571086,0.0865195266479043,121.062996,120.9973792,53.199933460928,174.19731266093,83.66142,0,2.42160768904,2.5259023118,16,5,16.512,174.19731266093,121.062996,15.1440838,2.42160768904,0,0,-8.500372,283.1, -6.8, -0.9,0,0,1024,1024,1024,1024,0,0,0,0,281.4,-90,0,95,4.086,4.098,4.089,4.096,0,0,8.564,72.32,174.19731266093,121.062996,6,P-GPS,
28700,2023-07-25 12:02:44,52.2064184452155,0.0865198154157153,123.687668,123.6220512,53.199933460928,176.82198466093,83.66142,0.223694,2.70967200272,2.82060048396,16,5,16.512,176.82198466093,123.687668,15.1440838,2.70967200272,0.223694,0,-7.605596,283.1, -9.3, -2.1,0,0,1024,1024,1024,1024,0,0,0,0,281.4,-89.9,0,95,4.086,4.098,4.089,4.096,0,0,8.564,72.32,176.82198466093,123.687668,6,P-GPS,
28900,2023-07-25 12:02:45,52.2064193068745,0.0865202367801169,125.656172,125.5577468,53.232741860928,178.79048866093,83.66142,0.3131716,3.0353675512,3.14878947084,16,5,16.512,178.79048866093,125.656172,15.1440838,3.0353675512,0.223694,0.223694,-5.368656,283.3, -9.8, -3.7,0,0,1024,1024,1024,1024,0,0,0,0,281.4,-90,0,95,4.086,4.098,4.089,4.096,0,0,8.564,72.32,178.79048866093,125.656172,6,P-GPS,
29100,2023-07-25 12:02:45,52.2064201818335,0.086520723717847,126.31234,126.2139148,53.232741860928,179.44665666093,83.66142,0.3131716,3.371719268,3.486056542,20,5,16.396,179.44665666093,126.31234,15.1440838,3.371719268,0.223694,0.223694,-2.908022,283.5, -10.2, -5.3,0,0,1024,1024,1024,1024,0,0,0,0,281.4,-90,0,95,4.161,4.171,4.181,4.189,0,0,10.588,72.32,179.44665666093,126.31234,6,P-GPS,
29300,2023-07-25 12:02:45,52.2064210503722,0.0865212895229456,125.984256,125.8530224,53.265550260928,179.11857266093,83.66142,0.3131716,3.7128610112,3.827263902,20,5,16.396,179.44665666093,126.31234,15.1440838,3.7128610112,0.223694,0.223694,-0.894776,283.8, -10.2, -7.9,0,0,1024,1024,1024,1024,0,0,0,0,281.4,-89.9,0,95,4.161,4.171,4.181,4.189,0,0,10.588,72.32,179.11857266093,125.984256,6,P-GPS,
29500,2023-07-25 12:02:45,52.2064217911299,0.0865217134355426,125.656172,125.5249384,53.265550260928,178.79048866093,83.66142,0.223694,3.9987534088,4.113681234,20,5,16.396,179.44665666093,126.31234,15.1440838,3.9987534088,0.223694,0,-0.223694,283.8, -9, -10.4,0,0,1024,1024,1024,1024,0,0,0,0,281.4,-90,0,95,4.161,4.171,4.181,4.189,0,0,10.588,72.32,178.79048866093,125.656172,6,P-GPS,
29700,2023-07-25 12:02:45,52.2064221861905,0.0865218281248679,125.328088,125.1968544,53.265550260928,178.46240466093,83.66142,0,4.1418308412,4.2600723148,20,5,16.396,179.44665666093,126.31234,15.1440838,4.1418308412,0,0,0,283.8, -7.9, -11.8,0,0,1024,1024,1684,1024,0,0,100,0,281.4,-90,0,95,4.161,4.171,4.181,4.189,0,0,10.588,72.32,178.46240466093,125.328088,6,P-GPS,
29900,2023-07-25 12:02:46,52.2064221080809,0.0865216561878625,125.328088,125.1968544,53.265550260928,178.46240466093,83.66142,0.3131716,4.10105,4.3079397704,20,5,16.396,179.44665666093,126.31234,15.1440838,4.1418308412,-0.223694,-0.223694,-0.671082,283.6, -5.5, -11.5,0,0,1024,1024,1684,1024,0,0,100,0,281.4,-90,0,95,4.161,4.171,4.181,4.189,0,0,10.588,72.32,178.46240466093,125.328088,6,P-GPS,
30100,2023-07-25 12:02:46,52.2064213324891,0.0865212606592703,125.656172,125.5249384,53.265550260928,178.79048866093,83.66142,0.9171454,3.8055119328,4.6043964728,22,5,16.685,179.44665666093,126.31234,15.1440838,4.1418308412,-0.894776,-0.223694,-2.908022,283.4, -5.3, -6.9,0,0,1024,1024,1037,1024,0,0,2,0,281.4,-90,0,95,4.147,4.129,4.085,4.087,0,0,5.103,72.5,178.79048866093,125.656172,6,P-GPS,
30300,2023-07-25 12:02:46,52.2064201193493,0.0865208413917894,126.968508,126.8700828,53.232741860928,180.10282466093,83.66142,0.9171454,3.3611221548,5.0568243088,22,5,16.685,180.10282466093,126.968508,15.1440838,4.1418308412,-0.894776,-0.223694,-5.144962,283.4, -6.2, -2.8,0,0,1024,1024,1024,1024,0,0,0,0,281.4,-90,0,95,4.147,4.129,4.085,4.087,0,0,5.103,72.5,180.10282466093,126.968508,6,P-GPS,
30500,2023-07-25 12:02:46,52.2064188528143,0.0865205668004723,128.280844,128.1824188,53.232741860928,181.41516066093,83.66142,0.894776,2.9155840828,5.5229988644,22,5,16.685,181.41516066093,128.280844,15.1440838,4.1418308412,-0.894776,0,-4.026492,283.1, -10.7, -0.5,0,0,1024,1024,1024,1024,0,0,0,0,281.4,-90,0,95,4.147,4.129,4.085,4.087,0,0,5.103,72.5,181.41516066093,128.280844,6,P-GPS,
30700,2023-07-25 12:02:46,52.2064177267429,0.0865204811491288,129.265096,129.1994792,53.199933460928,182.39941266093,83.66142,0.894776,2.54307094752,5.9342849668,22,5,16.685,182.39941266093,129.265096,15.1440838,4.1418308412,-0.894776,0,-1.789552,282.6, -11.1, 2.6,0,0,1024,1024,1024,1024,0,0,0,0,281.4,-90,0,95,4.147,4.129,4.085,4.087,0,0,5.103,72.5,182.39941266093,129.265096,6,P-GPS,
30900,2023-07-25 12:02:47,52.2064168487592,0.0865204944960285,129.59318,129.5275632,53.199933460928,182.72749666093,83.66142,0.671082,2.27186358976,6.2546261844,22,5,16.685,182.72749666093,129.59318,15.1440838,4.1418308412,-0.671082,0,-0.447388,282.5, -10.4, 5.8,0,0,1024,1024,1024,1024,0,0,0,0,281.4,-90,0,95,4.147,4.129,4.085,4.087,0,0,5.103,72.5,182.72749666093,129.59318,6,P-GPS,
31100,2023-07-25 12:02:47,52.2064164470807,0.0865205190514057,129.265096,129.1994792,53.199933460928,182.39941266093,83.66142,0,2.15471791672,6.4012797324,22,5,16.463,182.72749666093,129.59318,15.1440838,4.1418308412,0,0,0,282.6, -9.6, 4.4,0,0,1024,1024,1288,1024,0,0,40,0,281.4,-90,0,95,4.168,4.171,4.171,4.176,0,0,9.472,72.32,182.39941266093,129.265096,6,P-GPS,
31300,2023-07-25 12:02:47,52.2064165471429,0.0865205063541145,129.265096,129.1994792,53.199933460928,182.39941266093,83.66142,0.447388,2.18271332444,6.4378939068,22,5,16.463,182.72749666093,129.59318,15.1440838,4.1418308412,0.447388,0,0,283.1, -8, -1.1,0,0,1024,1024,1024,1024,0,0,0,0,281.4,-90,0,95,4.168,4.171,4.171,4.176,0,0,9.472,72.32,182.39941266093,129.265096,6,P-GPS,
31500,2023-07-25 12:02:47,52.2064168434622,0.0865204407860282,129.265096,129.1994792,53.199933460928,182.39941266093,83.66142,0.447388,2.26360899632,6.5470146452,22,5,16.463,182.72749666093,129.59318,15.1440838,4.1418308412,0.447388,0,-0.447388,283.3, -7.3, -6,0,0,1024,1024,1024,1024,0,0,0,0,281.4,-89.9,0,95,4.168,4.171,4.171,4.176,0,0,9.472,72.32,182.39941266093,129.265096,6,P-GPS,
31700,2023-07-25 12:02:47,52.2064170504038,0.0865203894774389,129.265096,129.1994792,53.199933460928,182.39941266093,83.66142,0.447388,2.3208170034,6.623359792,22,5,16.463,182.72749666093,129.59318,15.1440838,4.1418308412,0.447388,0,0,283.5, -6.8, -8,0,0,1024,1024,1024,1024,0,0,0,0,281.4,-90,0,95,4.168,4.171,4.171,4.176,0,0,9.472,72.32,182.39941266093,129.265096,6,P-GPS,
31900,2023-07-25 12:02:48,52.2064170351617,0.0865203177203787,128.937012,128.8713952,53.199933460928,182.07132866093,83.66142,0,2.30758209484,6.6403545432,22,5,16.463,182.72749666093,129.59318,15.1440838,4.1418308412,0,0,0,283.4, -7, -6.7,0,0,1024,1024,1684,1024,0,0,100,0,281.4,-90,0,95,4.168,4.171,4.171,4.176,0,0,9.472,72.32,182.07132866093,128.937012,6,P-GPS,
32100,2023-07-25 12:02:48,52.2064168216638,0.0865202400631082,128.937012,128.8713952,53.199933460928,182.07132866093,83.66142,0,2.23246070136,6.7201773804,22,5,16.525,182.72749666093,129.59318,15.1440838,4.1418308412,0,0,0,283.3, -6.3, -4.8,0,0,1024,1024,1684,1024,0,0,100,0,281.4,-90,0,95,4.167,4.169,4.157,4.156,0,0,5.991,72.68,182.07132866093,128.937012,6,P-GPS,
32300,2023-07-25 12:02:48,52.2064164465132,0.0865201551129225,129.265096,129.1994792,53.199933460928,182.39941266093,83.66142,0,2.10774941128,6.8583335528,22,5,16.525,182.72749666093,129.59318,15.1440838,4.1418308412,0,0,-1.789552,283.2, -5.7, -2.3,0,0,1024,1024,1563,1024,0,0,82,0,281.4,-89.9,0,95,4.167,4.169,4.157,4.156,0,0,5.991,72.68,182.39941266093,129.265096,6,P-GPS,
32500,2023-07-25 12:02:48,52.2064160023242,0.0865200918121316,129.921264,129.8556472,53.199933460928,183.05558066093,83.66142,0,1.9673721102,7.0210304084,22,5,16.525,183.05558066093,129.921264,15.1440838,4.1418308412,0,0,-4.026492,283.2, -6, -1.4,0,0,1024,1024,1024,1024,0,0,0,0,281.4,-90,0,95,4.167,4.169,4.157,4.156,0,0,5.991,72.68,183.05558066093,129.921264,6,P-GPS,
32700,2023-07-25 12:02:48,52.2064156030358,0.0865200894858603,131.561684,131.4960672,53.199933460928,184.69600066093,83.66142,0,1.85200465244,7.1666997044,22,5,16.525,184.69600066093,131.561684,15.1440838,4.1418308412,0,0,-4.250186,283.2, -10, -0.6,0,0,1024,1024,1024,1024,0,0,0,0,281.4,-90,0,95,4.167,4.169,4.157,4.156,0,0,5.991,72.68,184.69600066093,131.561684,6,P-GPS,
32900,2023-07-25 12:02:49,52.2064153631278,0.0865202119857781,132.545936,132.5131276,53.167125060928,185.68025266093,83.66142,0,1.8031004514,7.2584319908,22,5,16.525,185.68025266093,132.545936,15.1440838,4.1418308412,0,0,-2.23694,282.9, -11.1, -0.1,0,0,1024,1024,1024,1024,0,0,0,0,281.4,-90,0,95,4.167,4.169,4.157,4.156,0,0,5.991,72.68,185.68025266093,132.545936,6,P-GPS,
33100,2023-07-25 12:02:49,52.2064152825151,0.0865203865404394,132.87402,132.8412116,53.167125060928,186.00833666093,83.66142,0,1.80769690824,7.3072836984,22,5,16.34,186.00833666093,132.87402,15.1440838,4.1418308412,0,0,-0.671082,282.6, -10.2, 3.1,0,0,1024,1024,1024,1024,0,0,0,0,281.4,-90,0,94,4.165,4.18,4.19,4.198,0,0,9.032,72.68,186.00833666093,132.87402,6,P-GPS,
33300,2023-07-25 12:02:49,52.2064154734216,0.0865204871122468,132.87402,132.8412116,53.167125060928,186.00833666093,83.66142,0.223694,1.87414047992,7.3804792388,22,5,16.34,186.00833666093,132.87402,15.1440838,4.1418308412,0.223694,0,0,282.7, -8.9, 4.2,0,0,1024,1024,1024,1024,0,0,0,0,281.4,-90,0,94,4.165,4.18,4.19,4.198,0,0,9.032,72.68,186.00833666093,132.87402,6,P-GPS,
33500,2023-07-25 12:02:49,52.206416084155,0.0865205107244466,132.87402,132.8084032,53.199933460928,186.00833666093,83.66142,0.671082,2.0479167322,7.6033795084,22,5,16.34,186.00833666093,132.87402,15.1440838,4.1418308412,0.671082,0,0,283, -8, -1.4,0,0,1024,1024,1024,1024,0,0,0,0,281.4,-90,0,94,4.165,4.18,4.19,4.198,0,0,9.032,72.68,186.00833666093,132.87402,6,P-GPS,
33700,2023-07-25 12:02:49,52.2064168746644,0.0865204202567386,132.545936,132.4803192,53.199933460928,185.68025266093,83.66142,0.894776,2.27059390468,7.8924871292,22,5,16.34,186.00833666093,132.87402,15.1440838,4.1418308412,0.894776,0,0,283.4, -6, -6.4,0,0,925,1582,1024,1024,-15,85,0,0,281.5,-90,0,94,4.165,4.18,4.19,4.198,0,0,9.032,72.68,185.68025266093,132.545936,6,P-GPS,
33900,2023-07-25 12:02:50,52.2064175550203,0.0865203543409129,132.545936,132.4803192,53.199933460928,185.68025266093,83.66142,0.671082,2.47460309756,8.1411748012,22,5,16.34,186.00833666093,132.87402,15.1440838,4.1418308412,0.671082,0,0,282.8, 0.7, -2,0,0,1024,1323,1024,1024,0,45,0,0,281.4,-90,0,94,4.165,4.18,4.19,4.198,0,0,9.032,72.68,185.68025266093,132.545936,6,P-GPS,
34100,2023-07-25 12:02:50,52.2064182730234,0.0865208227156533,132.545936,132.4803192,53.199933460928,185.68025266093,83.66142,1.4092722,2.75425533748,8.4232942328,22,5,16.646,186.00833666093,132.87402,15.1440838,4.1418308412,1.342164,0.447388,0,282.6, 0.1, 14.6,0,0,1024,1024,1024,1024,0,0,0,0,281.4,-89.9,0,94,4.099,4.158,4.148,4.164,0,0,5.411,72.86,185.68025266093,132.545936,6,P-GPS,
34300,2023-07-25 12:02:50,52.2064197865946,0.0865221192499672,132.545936,132.4475108,53.232741860928,185.68025266093,83.66142,2.1922012,3.3778216304,9.0469819168,22,5,16.646,186.00833666093,132.87402,15.1440838,4.1418308412,2.013246,0.894776,0,284.1, -4.6, -11.3,0,0,1024,1024,1024,1024,0,0,0,0,281.4,-89.9,0,94,4.099,4.158,4.148,4.164,0,0,5.411,72.86,185.68025266093,132.545936,6,P-GPS,
34500,2023-07-25 12:02:50,52.2064211178203,0.0865234672326651,132.217852,132.0866184,53.265550260928,185.35216866093,83.66142,1.2974252,3.9487205988,9.6185698616,22,5,16.646,186.00833666093,132.87402,15.1440838,4.1418308412,1.11847,0.671082,0.223694,284.4, -9.4, -18.1,0,0,1024,1024,1024,1024,0,0,0,0,281.4,-90,0,94,4.099,4.158,4.148,4.164,0,0,5.411,72.86,185.35216866093,132.217852,6,P-GPS,
34700,2023-07-25 12:02:50,52.2064216365566,0.0865241942359145,132.217852,132.0866184,53.265550260928,185.35216866093,83.66142,0.3131716,4.1935040712,9.8680777436,22,5,16.646,186.00833666093,132.87402,15.1440838,4.1935040712,0.223694,0.223694,0,284.1, -9.3, -10.7,0,0,1024,1024,1024,1024,0,0,0,0,281.4,-90,0,94,4.099,4.158,4.148,4.164,0,0,5.411,72.86,185.35216866093,132.217852,6,P-GPS,
34900,2023-07-25 12:02:51,52.2064217531711,0.0865245002736141,132.217852,132.0866184,53.265550260928,185.35216866093,83.66142,0,4.2646654908,9.9486223656,22,5,16.646,186.00833666093,132.87402,15.1440838,4.2646654908,0,0,0,283.5, -7.9, -6.7,0,0,1024,1024,1024,1024,0,0,0,0,281.4,-89.9,0,94,4.099,4.158,4.148,4.164,0,0,5.411,72.86,185.35216866093,132.217852,6,P-GPS,
35100,2023-07-25 12:02:51,52.2064217165242,0.0865245979892409,132.217852,132.0866184,53.265550260928,185.35216866093,83.66142,0.223694,4.2642389816,9.974245726,22,5,16.551,186.00833666093,132.87402,15.1440838,4.2646654908,-0.223694,0,0,283.2, -7.1, -3.7,0,0,1024,1024,1024,1024,0,0,0,0,281.4,-90,0,94,4.134,4.142,4.141,4.144,0,0,7.28,72.86,185.35216866093,132.217852,6,P-GPS,
35300,2023-07-25 12:02:51,52.2064216462993,0.0865246446588302,132.217852,132.0866184,53.265550260928,185.35216866093,83.66142,0.223694,4.2476051228,10.0019032072,22,5,16.551,186.00833666093,132.87402,15.1440838,4.2646654908,-0.223694,0,0,283.2, -7.7, -1.8,0,0,1024,1024,1024,1024,0,0,0,0,281.4,-89.9,0,94,4.134,4.142,4.141,4.144,0,0,7.28,72.86,185.35216866093,132.217852,6,P-GPS,
35500,2023-07-25 12:02:51,52.2064216933037,0.0865246877854974,132.217852,132.0866184,53.265550260928,185.35216866093,83.66142,0,4.2672573544,10.0215882472,22,5,16.551,186.00833666093,132.87402,15.1440838,4.2672573544,0,0,0,283.1, -7, -1.4,0,0,1024,1024,1024,1024,0,0,0,0,281.4,-90,0,94,4.134,4.142,4.141,4.144,0,0,7.28,72.86,185.35216866093,132.217852,6,P-GPS,
35700,2023-07-25 12:02:51,52.2064218798432,0.0865247827803697,132.217852,132.0866184,53.265550260928,185.35216866093,83.66142,0,4.3365815036,10.0928809004,22,5,16.551,186.00833666093,132.87402,15.1440838,4.3365815036,0,0,0,283.1, -7.5, -1.4,0,0,1024,1024,1024,1024,0,0,0,0,281.4,-89.9,0,94,4.134,4.142,4.141,4.144,0,0,7.28,72.86,185.35216866093,132.217852,6,P-GPS,
35900,2023-07-25 12:02:52,52.2064222348911,0.0865249066437227,132.217852,132.0866184,53.265550260928,185.35216866093,83.66142,0,4.4622376756,10.2253612196,22,5,16.551,186.00833666093,132.87402,15.1440838,4.4622376756,0,0,0,283.2, -7.6, -1.5,0,0,1024,1024,1024,1024,0,0,0,0,281.4,-90,0,94,4.134,4.142,4.141,4.144,0,0,7.28,72.86,185.35216866093,132.217852,6,P-GPS,
36100,2023-07-25 12:02:52,52.2064226909661,0.086524997681531,132.217852,132.0866184,53.265550260928,185.35216866093,83.66142,0,4.6167324312,10.3929793352,24,5,16.597,186.00833666093,132.87402,15.1440838,4.6167324312,0,0,0,283.1, -7.1, -1.3,0,1,1024,1024,1024,1024,0,0,0,0,281.4,-90,0,94,4.149,4.156,4.148,4.15,0,0,7.02,72.86,185.35216866093,132.217852,6,P-GPS,
36300,2023-07-25 12:02:52,52.2064232353827,0.0865251139706321,132.217852,132.0866184,53.265550260928,185.35216866093,83.66142,0,4.8030841432,10.5933074256,24,5,16.597,186.00833666093,132.87402,15.1440838,4.8030841432,0,0,0,283.2, -7.3, -1.7,0,1,1024,1024,1024,1024,0,0,0,0,281.4,-90,0,94,4.149,4.156,4.148,4.15,0,0,7.02,72.86,185.35216866093,132.217852,6,P-GPS,
36500,2023-07-25 12:02:52,52.2064239419608,0.0865252844904687,132.217852,132.05381,53.298358660928,185.35216866093,83.66142,0,5.0485894004,10.8539045468,24,5,16.597,186.00833666093,132.87402,15.1440838,5.0485894004,0,0,0,283.1, -7.3, -1.8,0,1,1024,1024,1024,1024,0,0,0,0,281.4,-90,0,94,4.149,4.156,4.148,4.15,0,0,7.02,72.86,185.35216866093,132.217852,6,P-GPS,
36700,2023-07-25 12:02:52,52.2064247448456,0.0865254697796162,132.217852,132.05381,53.298358660928,185.35216866093,83.66142,0,5.3284450524,11.149770698,24,5,16.597,186.00833666093,132.87402,15.1440838,5.3284450524,0,0,0,283.2, -7.2, -2.4,0,1,1024,1024,1024,1024,0,0,0,0,281.4,-89.9,0,94,4.149,4.156,4.148,4.15,0,0,7.02,72.86,185.35216866093,132.217852,6,P-GPS,
36900,2023-07-25 12:02:53,52.206425594256,0.0865256718450022,132.217852,132.05381,53.298358660928,185.35216866093,83.66142,0,5.6268702588,11.4629596844,24,5,16.597,186.00833666093,132.87402,15.1440838,5.6268702588,0,0,0,283.2, -7.3, -2.8,0,1,1024,1024,1024,1024,0,0,0,0,281.4,-90,0,94,4.149,4.156,4.148,4.15,0,0,7.02,72.86,185.35216866093,132.217852,6,P-GPS,
37100,2023-07-25 12:02:53,52.2064264417753,0.0865258588684778,132.545936,132.381894,53.298358660928,185.68025266093,83.66142,0,5.9248361476,11.7749675684,24,5,16.591,186.00833666093,132.87402,15.1440838,5.9248361476,0,0,0,283.3, -7, -3.2,0,1,1024,1024,1024,1024,0,0,0,0,281.4,-90,0,94,4.146,4.154,4.149,4.15,0,0,6.938,73.04,185.68025266093,132.545936,6,P-GPS,
37300,2023-07-25 12:02:53,52.2064272546962,0.0865260068516601,132.545936,132.3490856,53.331167060928,185.68025266093,83.66142,0,6.2090553168,12.0734255832,24,5,16.591,186.00833666093,132.87402,15.1440838,6.2090553168,0,0,0,283.2, -7.1, -3.2,0,1,1024,1024,1024,1024,0,0,0,0,281.4,-90,0,94,4.146,4.154,4.149,4.15,0,0,6.938,73.04,185.68025266093,132.545936,6,P-GPS,
