time(millisecond),datetime(utc),latitude,longitude,height_above_takeoff(feet),height_above_ground_at_drone_location(feet),ground_elevation_at_drone_location(feet),altitude_above_seaLevel(feet),height_sonar(feet),speed(mph),distance(feet),mileage(feet),satellites,gpslevel,voltage(v),max_altitude(feet),max_ascent(feet),max_speed(mph),max_distance(feet), xSpeed(mph), ySpeed(mph), zSpeed(mph), compass_heading(degrees), pitch(degrees), roll(degrees),isPhoto,isVideo,rc_elevator,rc_aileron,rc_throttle,rc_rudder,rc_elevator(percent),rc_aileron(percent),rc_throttle(percent),rc_rudder(percent),gimbal_heading(degrees),gimbal_pitch(degrees),gimbal_roll(degrees),battery_percent,voltageCell1,voltageCell2,voltageCell3,voltageCell4,voltageCell5,voltageCell6,current(A),battery_temperature(f),altitude(feet),ascent(feet),flycStateRaw,flycState,message
0,2023-07-21 14:33:11,0,0,0,,,60.131533092188,0,0,0,0,11,2,0,60.131533092188,0,0,0,0,0,0,196.3, 6.1, -0.5,0,0,1024,1024,1024,1024,0,0,0,0,196.3,0,0,100,4.308,4.306,4.306,4.303,0,0,0,74.3,60.131533092188,0,41,Motors_Started,"No GPS. Fly with caution Aircraft not in flight. Vision systems and obstacle avoidance disabled (Code: 180059). No GPS signal. Aircraft unable to hover. Fly with caution (Code: 30008). GPS signal weak. Hovering unstable. Fly with caution (Code: 30002). Aircraft not in flight"
200,2023-07-21 14:33:11,0,0,0,,,60.131533092188,0,0,0,0,11,2,0,60.131533092188,0,0,0,0,0,0,196.3, 6.1, -0.5,0,0,1024,1024,1024,1024,0,0,0,0,196.3,0,0,100,4.308,4.306,4.306,4.303,0,0,0,74.3,60.131533092188,0,41,Motors_Started,
400,2023-07-21 14:33:11,0,0,0,,,60.131533092188,0,0,0,0,11,2,0,60.131533092188,0,0,0,0,0,0,196.2, 6.1, -0.5,0,0,1024,1024,1024,1024,0,0,0,0,196.3,0,0,100,4.308,4.306,4.306,4.303,0,0,0,74.3,60.131533092188,0,41,Motors_Started,"Setting new Return-To-Home altitude to 26m (85 ft). Data Recorder File Index is 69. Setting new Maximum Flight Altitude to 30m (98 ft)"
600,2023-07-21 14:33:11,0,0,0,,,60.131533092188,0,0,0,0,12,2,0,60.131533092188,0,0,0,0,0,0,196.3, 6.1, -0.5,0,0,1024,1024,1121,1024,0,0,15,0,196.3,0,0,100,4.308,4.306,4.306,4.303,0,0,0,74.3,60.131533092188,0,41,Motors_Started,
800,2023-07-21 14:33:12,0,0,0,,,60.131533092188,0,0,0,0,12,2,0,60.131533092188,0,0,0,0,0,0,196.3, 6.2, -0.5,0,0,1024,1024,1155,1024,0,0,20,0,196.3,0,0,100,4.308,4.306,4.306,4.303,0,0,0,74.3,60.131533092188,0,41,Motors_Started,
1000,2023-07-21 14:33:12,0,0,0,,,60.131533092188,0,0,0,0,12,2,0,60.131533092188,0,0,0,0,0,0,196.2, 6.2, -0.5,0,0,1024,1024,1684,1024,0,0,100,0,196.3,0,0,100,4.308,4.306,4.306,4.303,0,0,0,74.3,60.131533092188,0,41,Motors_Started,
1200,2023-07-21 14:33:12,0,0,0,,,60.131533092188,0,0,0,0,12,2,0,60.131533092188,0,0,0,0,0,0,196.1, 6.2, -0.5,0,0,1024,1024,1684,1024,0,0,100,0,196.3,0,0,100,4.308,4.306,4.306,4.303,0,0,0,74.3,60.131533092188,0,41,Motors_Started,
1400,2023-07-21 14:33:12,0,0,0,,,60.131533092188,0,0,0,0,12,2,17.422,60.131533092188,0,0,0,0,0,0,196, 6.2, -0.5,0,0,1024,1024,1684,1024,0,0,100,0,196.3,0,0,100,4.308,4.306,4.306,4.303,0,0,1.108,74.3,60.131533092188,0,41,Motors_Started,
1600,2023-07-21 14:33:12,0,0,0,,,60.131533092188,0,0,0,0,12,2,17.422,60.131533092188,0,0,0,0,0,0,196.2, 6.2, -0.5,0,0,1024,1024,1684,1024,0,0,100,0,196.3,0,0,100,4.308,4.306,4.306,4.303,0,0,1.108,74.3,60.131533092188,0,11,AutoTakeoff,
1800,2023-07-21 14:33:13,0,0,0,,,60.131533092188,0,0,0,0,12,2,17.422,60.131533092188,0,0,0,0,0,0,196.1, 6.1, -0.4,0,0,1024,1024,1684,1024,0,0,100,0,196.3,0,0,100,4.308,4.306,4.306,4.303,0,0,1.108,74.3,60.131533092188,0,11,AutoTakeoff,
2000,2023-07-21 14:33:13,0,0,0,,,60.131533092188,0,0,0,0,12,2,17.422,60.131533092188,0,0,0,0,0,0,196, 2.4, -0.2,0,0,1024,1024,1684,1024,0,0,100,0,196.3,0,0,100,4.308,4.306,4.306,4.303,0,0,1.108,74.3,60.131533092188,0,11,AutoTakeoff,
2200,2023-07-21 14:33:13,0,0,0,,,60.131533092188,0,0,0,0,12,2,17.422,60.131533092188,0,0,0,0,0,-0.671082,196.3, -1.3, 0.7,0,0,1024,1024,1684,1024,0,0,100,0,196.3,0,0,100,4.308,4.306,4.306,4.303,0,0,1.108,74.3,60.131533092188,0,11,AutoTakeoff,
2400,2023-07-21 14:33:13,0,0,0.328084,,,60.459617092188,0.328084,0,0,0,12,2,17.252,60.459617092188,0.328084,0,0,0,0,-1.565858,196.3, -0.2, 1.3,0,0,1024,1024,1684,1024,0,0,100,0,196.3,0,0,100,4.295,4.29,4.286,4.279,0,0,3.118,74.3,60.459617092188,0.328084,11,AutoTakeoff,
2600,2023-07-21 14:33:13,0,0,0.984252,,,61.115785092188,0.984252,0,0,0,12,2,17.252,61.115785092188,0.984252,0,0,0,0,-2.23694,196.2, 0, 1.4,0,0,1024,1024,1684,1024,0,0,100,0,196.3,0,0,100,4.295,4.29,4.286,4.279,0,0,3.118,74.3,61.115785092188,0.984252,11,AutoTakeoff,
2800,2023-07-21 14:33:14,0,0,1.968504,,,62.100037092188,1.968504,0,0,0,12,2,17.252,62.100037092188,1.968504,0,0,0,0,-2.684328,195.9, -1.1, 2.2,0,0,1024,1024,1684,1024,0,0,100,0,196.3,0,0,100,4.295,4.29,4.286,4.279,0,0,3.118,74.3,62.100037092188,1.968504,11,AutoTakeoff,
3000,2023-07-21 14:33:14,0,0,2.952756,,,63.084289092188,2.952756,0,0,0,12,2,17.252,63.084289092188,2.952756,0,0,0,0,-3.35541,196.3, -1.2, 2.8,0,0,1024,1024,1684,1024,0,0,100,0,196.3,0,0,100,4.295,4.29,4.286,4.279,0,0,3.118,74.3,63.084289092188,2.952756,11,AutoTakeoff,
3200,2023-07-21 14:33:14,0,0,3.937008,,,64.068541092188,3.937008,0,0,0,11,2,17.252,64.068541092188,3.937008,0,0,0,0,-4.026492,196.2, -0.6, 3.2,0,0,1024,1024,1684,1024,0,0,100,0,196.3,0,0,100,4.295,4.29,4.286,4.279,0,0,3.118,74.3,64.068541092188,3.937008,11,AutoTakeoff,
3400,2023-07-21 14:33:14,0,0,5.249344,,,65.380877092188,5.577428,0,0,0,11,2,17.353,65.380877092188,5.249344,0,0,0,0,-5.368656,196.1, -0.6, 0,0,0,1024,1024,1684,1024,0,0,100,0,196.3,0,0,100,4.25,4.251,4.248,4.244,0,0,3.425,74.3,65.380877092188,5.249344,6,P-GPS,
3600,2023-07-21 14:33:14,0,0,7.217848,,,67.349381092188,7.545932,0,0,0,12,2,17.353,67.349381092188,7.217848,0,0,0,0,-7.381902,196.4, -2.6, 1.2,0,0,1024,1024,1684,1024,0,0,100,0,196.3,0,0,100,4.25,4.251,4.248,4.244,0,0,3.425,74.3,67.349381092188,7.217848,6,P-GPS,
3800,2023-07-21 14:33:15,0,0,10.498688,,,70.630221092188,9.84252,0,0,0,11,2,17.353,70.630221092188,10.498688,0,0,0,0,-9.395148,196.2, -0.2, 1.6,0,0,1024,1024,1684,1024,0,0,100,0,196.3,0,0,100,4.25,4.251,4.248,4.244,0,0,3.425,74.3,70.630221092188,10.498688,6,P-GPS,
4000,2023-07-21 14:33:15,0,0,14.435696,,,74.567229092188,13.12336,0,0,0,12,2,17.353,74.567229092188,14.435696,0,0,0,0,-11.632088,196.3, 0, 2.7,0,0,1024,1024,1684,1024,0,0,100,0,196.3,0,0,100,4.25,4.251,4.248,4.244,0,0,3.425,74.3,74.567229092188,14.435696,6,P-GPS,
4200,2023-07-21 14:33:15,0,0,19.356956,,,79.488489092188,16.732284,0,0,0,13,2,17.353,79.488489092188,19.356956,0,0,0,0,-12.974252,196.7, 0, 2.4,0,0,1684,1024,1024,1024,100,0,0,0,196.3,0,0,100,4.25,4.251,4.248,4.244,0,0,3.425,74.3,79.488489092188,19.356956,6,P-GPS,
4400,2023-07-21 14:33:15,0,0,23.622048,,,83.753581092188,20.669292,0,0,0,13,2,17.018,83.753581092188,23.622048,0,0,0,0,-12.974252,196.2, -0.7, 0.6,0,0,1684,1024,1024,1024,100,0,0,0,196.3,0,0,100,4.156,4.163,4.169,4.168,0,0,7.376,74.3,83.753581092188,23.622048,6,P-GPS,
4600,2023-07-21 14:33:16,0,0,27.230972,,,87.362505092188,24.278216,0,0,0,13,2,17.018,87.362505092188,27.230972,0,0,0,0,-11.408394,196, -23.8, 1,0,0,1684,1024,1024,1024,100,0,0,0,196.3,0,0,100,4.156,4.163,4.169,4.168,0,0,7.376,74.3,87.362505092188,27.230972,6,P-GPS,
4800,2023-07-21 14:33:16,0,0,30.183728,,,90.315261092188,27.230972,1.342164,0,0,13,2,17.018,90.315261092188,30.183728,1.342164,0,-1.342164,0,-8.94776,196.1, -29.8, 0.9,0,0,1684,1024,1024,1024,100,0,0,0,196.3,0,0,100,4.156,4.163,4.169,4.168,0,0,7.376,74.3,90.315261092188,30.183728,6,P-GPS,
5000,2023-07-21 14:33:16,0,0,32.480316,,,92.611849092188,30.183728,2.460634,0,0,13,2,17.018,92.611849092188,32.480316,2.460634,0,-2.460634,-0.223694,-6.71082,195.8, -29.5, 2,0,0,1684,1024,1024,1024,100,0,0,0,196.3,0,0,100,4.156,4.163,4.169,4.168,0,0,7.376,74.3,92.611849092188,32.480316,6,P-GPS,
5200,2023-07-21 14:33:16,0,0,33.464568,,,93.596101092188,31.824148,3.3777794,0,0,14,2,17.018,93.596101092188,33.464568,3.3777794,0,-3.35541,-0.447388,-4.250186,195.4, -29.5, 3.4,0,0,1684,1024,1024,1024,100,0,0,0,196.3,0,0,100,4.156,4.163,4.169,4.168,0,0,7.376,74.3,93.596101092188,33.464568,6,P-GPS,
5400,2023-07-21 14:33:16,0,0,33.792652,,,93.924185092188,32.8084,4.5633576,0,0,14,2,16.782,93.924185092188,33.792652,4.5633576,0,-4.47388,-0.894776,-1.789552,199.2, -29.4, 4,0,0,1684,1024,1024,1024,100,0,0,0,196.3,0,0,100,4.291,4.29,4.295,4.293,0,0,10.928,74.12,93.924185092188,33.792652,6,P-GPS,
5600,2023-07-21 14:33:17,0,0,34.120736,,,94.252269092188,26.902888,6.0173686,0,0,14,2,16.782,94.252269092188,34.120736,6.0173686,0,-5.816044,-1.565858,-0.223694,201.5, -28.5, 4.9,0,0,1684,1024,1684,1024,100,0,100,0,196.3,0,0,100,4.291,4.29,4.295,4.293,0,0,10.928,74.12,94.252269092188,34.120736,6,P-GPS,
5800,2023-07-21 14:33:17,0,0,34.120736,,,94.252269092188,27.230972,7.9858758,0,0,14,2,16.782,94.252269092188,34.120736,7.9858758,0,-7.605596,-2.460634,0,201.2, -27.9, 5.9,0,0,1666,1024,1684,1024,97,0,100,0,196.3,0,0,100,4.291,4.29,4.295,4.293,0,0,10.928,74.12,94.252269092188,34.120736,6,P-GPS,
6000,2023-07-21 14:33:17,0,0,34.44882,,,94.580353092188,27.230972,10.6925732,0,0,14,2,16.782,94.580353092188,34.44882,10.6925732,0,-10.06623,-3.579104,-1.789552,200.2, -27.7, 6.2,0,0,1662,1024,1684,1024,97,0,100,0,196.3,0,0,100,4.291,4.29,4.295,4.293,0,0,10.928,74.12,94.580353092188,34.44882,6,P-GPS,
6200,2023-07-21 14:33:17,0,0,35.433072,,,95.564605092188,27.88714,13.645334,0,0,14,2,16.782,95.564605092188,35.433072,13.645334,0,-12.974252,-4.250186,-4.026492,197.7, -26.4, 6.9,0,0,1663,1024,1684,1024,97,0,100,0,196.3,0,0,100,4.291,4.29,4.295,4.293,0,0,10.928,74.12,95.564605092188,35.433072,6,P-GPS,
6400,2023-07-21 14:33:17,0,0,37.073492,,,97.205025092188,29.855644,15.8599046,0,0,14,2,17.021,97.205025092188,37.073492,15.8599046,0,-15.211192,-4.47388,-6.71082,195.3, -16.9, 7.1,0,0,1660,1024,1684,1024,96,0,100,0,196.3,0,0,100,4.181,4.168,4.152,4.147,0,0,11.134,74.3,97.205025092188,37.073492,6,P-GPS,
6600,2023-07-21 14:33:18,0,0,41.0105,,,101.14203309219,32.480316,17.1573298,0,0,15,2,17.021,101.14203309219,41.0105,17.1573298,0,-16.553356,-4.47388,-8.94776,193.8, -16.7, 4.6,0,0,1653,1024,1684,1024,95,0,100,0,196.3,0,0,100,4.181,4.168,4.152,4.147,0,0,11.134,74.3,101.14203309219,41.0105,6,P-GPS,
6800,2023-07-21 14:33:18,0,0,45.93176,,,106.06329309219,41.0105,18.2757998,0,0,15,2,17.021,106.06329309219,45.93176,18.2757998,0,-17.671826,-4.697574,-11.1847,193.3, -16.4, 3.1,0,0,1657,1024,900,1024,96,0,-19,0,196.3,0,0,100,4.181,4.168,4.152,4.147,0,0,11.134,74.3,106.06329309219,45.93176,6,P-GPS,
7000,2023-07-21 14:33:18,0,0,51.181104,,,111.31263709219,44.619424,19.2153146,0,0,15,2,17.021,111.31263709219,51.181104,19.2153146,0,-18.566602,-4.921268,-12.526864,193.2, -16.6, 4.6,0,0,1649,1024,1147,1684,95,0,19,100,196.3,0,0,100,4.181,4.168,4.152,4.147,0,0,11.134,74.3,111.31263709219,51.181104,6,P-GPS,
7200,2023-07-21 14:33:18,0,0,56.102364,,,116.23389709219,48.556432,19.3719004,0,0,15,2,17.021,116.23389709219,56.102364,19.3719004,0,-18.790296,-4.697574,-10.961006,192.6, -21, 6.5,0,0,1651,1024,1204,1684,95,0,27,100,196.8,0,0,100,4.181,4.168,4.152,4.147,0,0,11.134,74.3,116.23389709219,56.102364,6,P-GPS,
7400,2023-07-21 14:33:18,0,0,59.05512,,,119.18665309219,52.165356,19.2153146,0,0,15,2,17.074,119.18665309219,59.05512,19.3719004,0,-18.566602,-4.921268,-9.171454,195.7, -5, 26.1,0,0,1653,1024,1183,1684,95,0,24,100,205.7,0,0,100,4.149,4.206,4.207,4.202,0,0,5.355,74.48,119.18665309219,59.05512,6,P-GPS,
7600,2023-07-21 14:33:19,0,0,60.039372,,,120.17090509219,54.790028,18.7455572,0,0,15,2,17.074,120.17090509219,60.039372,19.3719004,0,-17.89552,-5.59235,-6.934514,207.7, -6, 29.7,0,0,1652,1024,1174,1684,95,0,23,100,217,0,0,100,4.149,4.206,4.207,4.202,0,0,5.355,74.48,120.17090509219,60.039372,6,P-GPS,
7800,2023-07-21 14:33:19,0,0,60.367456,,,120.49898909219,47.57218,17.9178894,0,0,15,2,17.074,120.49898909219,60.367456,19.3719004,0,-16.77705,-6.263432,-4.697574,218.1, -9.5, 28.9,0,0,1655,1024,1167,1684,96,0,22,100,228.4,0,0,100,4.149,4.206,4.207,4.202,0,0,5.355,74.48,120.49898909219,60.367456,6,P-GPS,
8000,2023-07-21 14:33:19,0,0,60.039372,,,120.17090509219,48.884516,17.4257626,0,0,14,2,17.074,120.49898909219,60.367456,19.3719004,0,-15.882274,-7.158208,-2.23694,229.4, -13.3, 27.6,0,0,1652,1024,1070,1684,95,0,7,100,239.8,0,0,100,4.149,4.206,4.207,4.202,0,0,5.355,74.48,120.17090509219,60.039372,6,P-GPS,
8200,2023-07-21 14:33:19,52.2072565321621,0.0870808450300325,59.383204,59.383204,60.131533092188,119.51473709219,49.540684,16.7323112,0,0,14,2,17.074,120.49898909219,60.367456,19.3719004,0,-14.54011,-8.276678,-0.894776,241.2, -15.7, 25.5,0,0,1651,1024,1024,1024,95,0,0,0,251.2,0,0,100,4.149,4.206,4.207,4.202,0,0,5.355,74.48,119.51473709219,59.383204,6,P-GPS,"No GPS. Fly with caution GPS signal weak. Hovering unstable. Fly with caution (Code: 30002)"
8400,2023-07-21 14:33:19,52.2072599084818,0.0870769991207946,58.727036,58.6942276,60.164341492188,118.85856909219,50.196852,15.8375352,1.50227695096,1.50227695096,16,2,16.546,120.49898909219,60.367456,19.3719004,1.50227695096,-12.750558,-9.395148,-0.223694,251.7, -20.4, 22,0,0,1445,1024,1024,1024,64,0,0,0,258.7,0,0,100,4.282,4.268,4.266,4.264,0,0,16.289,74.3,118.85856909219,58.727036,6,P-GPS,
8600,2023-07-21 14:33:19,52.2072645311817,0.0870714235885659,58.398952,58.3333352,60.197149892188,118.53048509219,50.85302,15.5019942,3.599245522,3.5995407976,16,2,16.546,120.49898909219,60.367456,19.3719004,3.599245522,-11.1847,-10.737312,0,254.4, -23.1, 19.1,0,0,1024,1024,1024,1024,0,0,0,0,259,0,0,100,4.282,4.268,4.266,4.264,0,0,16.289,74.3,118.53048509219,58.398952,6,P-GPS,
8800,2023-07-21 14:33:20,52.2072698261799,0.0870636978297274,58.070868,57.9396344,60.262766692188,118.20240109219,51.509188,15.434886,6.1825133212,6.1910435052,16,2,16.546,120.49898909219,60.367456,19.3719004,6.1825133212,-9.618842,-12.079476,0,254.2, -10, 21.7,0,0,1024,1024,1024,1024,0,0,0,0,259,0,0,100,4.282,4.268,4.266,4.264,0,0,16.289,74.3,118.20240109219,58.070868,6,P-GPS,
9000,2023-07-21 14:33:20,52.2072752551369,0.0870545908069057,57.742784,57.578742,60.295575092188,117.87431709219,52.165356,13.4663788,9.0066603932,9.0317260108,16,2,16.546,120.49898909219,60.367456,19.3719004,9.0066603932,-7.158208,-11.408394,-0.894776,257.1, 15.3, 21.3,0,0,1024,1024,1024,1024,0,0,0,0,259,0,0,100,4.282,4.268,4.266,4.264,0,0,16.289,74.3,117.87431709219,57.742784,6,P-GPS,
9200,2023-07-21 14:33:20,52.2072797068742,0.0870459402371838,57.4147,57.1850412,60.361191892188,117.54623309219,52.49344,11.296547,11.5063323892,11.5573494512,16,2,16.546,120.49898909219,60.367456,19.3719004,11.5063323892,-5.144962,-10.06623,-0.223694,256.3, 16.7, 23.2,0,0,1024,1024,1024,1024,0,0,0,0,259,0,0,100,4.282,4.268,4.266,4.264,0,0,16.289,74.3,117.54623309219,57.4147,6,P-GPS,
9400,2023-07-21 14:33:20,52.2072817128073,0.0870370500901783,57.086616,56.8241488,60.394000292188,117.21814909219,52.49344,9.2609316,13.4269361252,13.6754925636,16,4,16.946,120.49898909219,60.367456,19.3719004,13.4269361252,-3.131716,-8.724066,0.223694,257.4, 23.1, 19.4,0,0,1024,1024,1024,1024,0,0,0,0,259,0,0,100,4.277,4.245,4.263,4.25,0,0,6.471,74.84,117.21814909219,57.086616,6,P-GPS,"Setting new Maximum Flight Altitude to 120m (394 ft)"
9600,2023-07-21 14:33:20,52.2072802031777,0.087028054095025,56.430448,56.1351724,60.426808692188,116.56198109219,52.49344,6.6213424,14.625328552,15.7608928928,16,4,16.946,120.49898909219,60.367456,19.3719004,14.625328552,-1.342164,-6.487126,0.223694,257.9, 26.1, 9.7,0,0,1024,1024,1024,1024,0,0,0,0,259,0,0,100,4.277,4.245,4.263,4.25,0,0,6.471,74.84,116.56198109219,56.430448,6,P-GPS,
9800,2023-07-21 14:33:21,52.2072748679096,0.0870195977765407,56.102364,55.8398968,60.394000292188,116.23389709219,52.49344,4.250186,15.2405188604,18.4745084652,16,4,16.946,120.49898909219,60.367456,19.3719004,15.2405188604,-0.223694,-4.250186,0.223694,257.1, 25.8, 2.4,0,0,1024,1024,1024,1024,0,0,0,0,259,0,0,100,4.277,4.245,4.263,4.25,0,0,6.471,74.84,116.23389709219,56.102364,6,P-GPS,
10000,2023-07-21 14:33:21,52.2072661737412,0.0870119555863981,55.77428,55.5774296,60.328383492188,115.90581309219,57.086616,2.23694,15.799049062,22.0774941448,16,4,16.946,120.49898909219,60.367456,19.3719004,15.799049062,0,-2.23694,0.223694,256.5, 14.2, -1.7,0,0,1024,1024,1024,1024,0,0,0,0,259,0,0,100,4.277,4.245,4.263,4.25,0,0,6.471,74.84,115.90581309219,55.77428,6,P-GPS,
10200,2023-07-21 14:33:21,52.207255066657,0.0870047616239834,55.446196,55.3477708,60.229958292188,115.57772909219,56.758532,1.1408394,17.0192918832,26.4374352292,16,5,16.946,120.49898909219,60.367456,19.3719004,17.0192918832,0.223694,-1.11847,0,257.8, 4.9, -2.2,0,0,1024,1024,1024,1684,0,0,0,100,259,0,0,100,4.277,4.245,4.263,4.25,0,0,6.471,74.84,115.57772909219,55.446196,6,P-GPS,"Home Point updated (Code: 3000001)"
10400,2023-07-21 14:33:21,52.2072428113336,0.086997857980328,55.118112,55.118112,60.131533092188,115.24964509219,56.102364,0.4921268,19.2178811924,31.1677175328,16,5,16.946,120.49898909219,60.367456,19.3719004,19.2178811924,0.223694,-0.447388,0,256.5, -2.3, -2.7,0,0,1024,1024,1024,1681,0,0,0,100,262.3,0,0,100,4.263,4.255,4.259,4.253,0,0,6.471,74.84,115.24964509219,55.118112,6,P-GPS,
10600,2023-07-21 14:33:21,52.2072304533828,0.0869910452963205,55.118112,55.2493456,60.000299492188,115.24964509219,54.461944,0.223694,22.2180781388,35.92683842,16,5,16.946,120.49898909219,60.367456,19.3719004,22.2180781388,0,-0.223694,0,265, -3.8, -1.3,0,0,1024,1024,1024,1071,0,0,0,7,273.6,0,0,100,4.263,4.255,4.259,4.253,0,0,6.471,74.84,115.24964509219,55.118112,6,P-GPS,
10800,2023-07-21 14:33:22,52.2072188087957,0.0869845797310493,54.790028,54.9868784,59.934682692188,114.92156109219,53.149608,0.223694,25.547572996,40.414699456,17,5,16.946,120.49898909219,60.367456,19.3719004,25.547572996,0,-0.223694,0,277.3, -3.5, 0.9,0,0,1024,1024,1024,1024,0,0,0,0,285.1,0,0,100,4.263,4.255,4.259,4.253,0,0,6.471,74.84,114.92156109219,54.790028,6,P-GPS,
11000,2023-07-21 14:33:22,52.2072084589411,0.0869786789921292,54.790028,54.9868784,59.934682692188,114.92156109219,52.165356,0.223694,28.7995744124,44.414699584,17,5,16.946,120.49898909219,60.367456,19.3719004,28.7995744124,0,-0.223694,0,286, -3.1, 1.5,0,0,1024,1024,1024,1024,0,0,0,0,288.4,0,0,100,4.263,4.255,4.259,4.253,0,0,6.471,74.84,114.92156109219,54.790028,6,P-GPS,
11200,2023-07-21 14:33:22,52.2071996525855,0.0869734153691692,54.790028,54.9868784,59.934682692188,114.92156109219,51.837272,0,31.7426519344,47.83628762,17,5,16.946,120.49898909219,60.367456,19.3719004,31.7426519344,0,0,0,285.6, -2.9, 0,0,0,1024,1024,1024,1024,0,0,0,0,288.4,0,0,100,4.263,4.255,4.259,4.253,0,0,6.471,74.84,114.92156109219,54.790028,6,P-GPS,
11400,2023-07-21 14:33:22,52.2071923295933,0.0869688805487673,54.790028,54.9868784,59.934682692188,114.92156109219,51.509188,0,34.283465664,50.69389926,17,5,17.027,120.49898909219,60.367456,19.3719004,34.283465664,0,0,0,285.8, -4, -1.3,0,0,1024,1024,1024,1024,0,0,0,0,288.4,0,0,100,4.253,4.253,4.255,4.251,0,0,6.524,75.02,114.92156109219,54.790028,6,P-GPS,
11600,2023-07-21 14:33:23,52.2071863578497,0.0869649886878867,54.790028,54.9868784,59.934682692188,114.92156109219,51.181104,0,36.421261008,53.040027944,17,5,17.027,120.49898909219,60.367456,19.3719004,36.421261008,0,0,0,285.8, -4.5, -1.7,0,0,1024,1024,1684,1024,0,0,100,0,288.4,0,0,100,4.253,4.253,4.255,4.251,0,0,6.524,75.02,114.92156109219,54.790028,6,P-GPS,
11800,2023-07-21 14:33:23,52.2071816066705,0.0869616313800742,54.461944,54.6587944,59.934682692188,114.59347709219,50.85302,0,38.180119332,54.929135616,17,5,17.027,120.49898909219,60.367456,19.3719004,38.180119332,0,0,-0.223694,285.9, -4, -1.7,0,0,1024,1024,1684,1024,0,0,100,0,288.4,0,0,100,4.253,4.253,4.255,4.251,0,0,6.524,75.02,114.59347709219,54.461944,6,P-GPS,
12000,2023-07-21 14:33:23,52.2071779330351,0.0869586697009462,55.118112,55.3149624,59.934682692188,115.24964509219,50.85302,0,39.60466006,56.424214404,17,5,17.027,120.49898909219,60.367456,19.3719004,39.60466006,0,0,-2.23694,286, -3.1, -1.8,0,0,1024,1024,1684,1024,0,0,100,0,288.4,0,0,100,4.253,4.253,4.255,4.251,0,0,6.524,75.02,115.24964509219,55.118112,6,P-GPS,
12200,2023-07-21 14:33:23,52.2071751762065,0.0869561500075597,56.102364,56.2992144,59.934682692188,116.23389709219,52.165356,0,40.722770332,57.576773496,17,5,17.027,120.49898909219,60.367456,19.3719004,40.722770332,0,0,-4.47388,286.4, -3.6, -2.7,0,0,1024,1024,1601,1024,0,0,87,0,288.4,0,0,100,4.253,4.253,4.255,4.251,0,0,6.524,75.02,116.23389709219,56.102364,6,P-GPS,
12400,2023-07-21 14:33:23,52.2071731785705,0.0869540555521,57.742784,57.9396344,59.934682692188,117.87431709219,53.477692,0,41.57480448,58.44324334,17,5,17.006,120.49898909219,60.367456,19.3719004,41.57480448,0,0,-6.039738,286.1, -4.3, -2.9,0,0,1024,1024,1024,1024,0,0,0,0,288.4,0,0,100,4.181,4.18,4.182,4.176,0,0,6.47,75.02,117.87431709219,57.742784,6,P-GPS,
12600,2023-07-21 14:33:24,52.2071717811847,0.0869522886296597,59.383204,59.5800544,59.934682692188,119.51473709219,55.118112,0,42.217192952,59.088256484,18,5,17.006,120.49898909219,60.367456,19.3719004,42.217192952,0,0,-4.921268,285.8, -6, -2.5,0,0,1024,1024,1024,1024,0,0,0,0,288.4,0,0,100,4.181,4.18,4.182,4.176,0,0,6.47,75.02,119.51473709219,59.383204,6,P-GPS,
12800,2023-07-21 14:33:24,52.2071709093371,0.0869508472970449,60.69554,60.8923904,59.934682692188,120.82707309219,56.430448,0,42.669620788,59.541012404,18,5,17.006,120.82707309219,60.69554,19.3719004,42.669620788,0,0,-2.684328,285.7, -5.3, -2.4,0,0,1024,1024,1684,1024,0,0,100,0,288.4,0,0,100,4.181,4.18,4.182,4.176,0,0,6.47,75.02,120.82707309219,60.69554,6,P-GPS,
13000,2023-07-21 14:33:24,52.2071709235582,0.0869486927563524,61.023624,61.2204744,59.934682692188,121.15515709219,57.086616,0,42.9954082,60.022639716,19,5,17.006,121.15515709219,61.023624,19.3719004,42.9954082,0,0,-0.894776,285.8, -4.3, -1.9,0,0,1024,1024,1684,1024,0,0,100,0,288.4,0,0,100,4.181,4.18,4.182,4.176,0,0,6.47,75.02,121.15515709219,61.023624,6,P-GPS,
13200,2023-07-21 14:33:24,52.207171440418,0.0869462173929504,61.351708,61.5485584,59.934682692188,121.48324109219,58.070868,0,43.241799284,60.607613488,18,3,17.006,121.48324109219,61.351708,19.3719004,43.241799284,0,0,-2.23694,286, -2.6, -0.8,0,0,1024,1024,1684,1024,0,0,100,0,288.4,0,0,100,4.181,4.18,4.182,4.176,0,0,6.47,75.02,121.48324109219,61.351708,6,P-GPS,
13400,2023-07-21 14:33:24,52.2071722619606,0.0869437410369817,62.664044,62.8608944,59.934682692188,122.79557709219,59.711288,0,43.416339972,61.237206684,18,3,17.011,122.79557709219,62.664044,19.3719004,43.416339972,0,0,-4.47388,286.3, -4.2, -1.9,0,0,1024,1024,1684,1024,0,0,100,0,288.4,0,0,100,4.189,4.194,4.201,4.199,0,0,6.672,75.2,122.79557709219,62.664044,6,P-GPS,
13600,2023-07-21 14:33:25,52.2071731687528,0.0869411790546635,64.304464,64.5013144,59.934682692188,124.43599709219,61.679792,0,43.591208744,61.898624028,17,3,17.011,124.43599709219,64.304464,19.3719004,43.591208744,0,0,-6.71082,286.1, -4.2, -2.3,0,0,1024,1024,1684,1024,0,0,100,0,288.4,0,0,100,4.189,4.194,4.201,4.199,0,0,6.672,75.2,124.43599709219,64.304464,6,P-GPS,
13800,2023-07-21 14:33:25,52.207174101991,0.08693856983456,67.25722,67.4540704,59.934682692188,127.38875309219,63.97638,0,43.77624812,62.574148984,17,3,17.011,127.38875309219,67.25722,19.3719004,43.77624812,0,0,-8.724066,286.1, -3.5, -1.6,0,0,1024,1024,1684,1024,0,0,100,0,288.4,-0.6,0,100,4.189,4.194,4.201,4.199,0,0,6.672,75.2,127.38875309219,67.25722,6,P-GPS,
14000,2023-07-21 14:33:25,52.2071751261243,0.0869357941987723,70.53806,70.7349104,59.934682692188,130.66959309219,66.929136,0,43.976051276,63.298558456,17,3,17.011,130.66959309219,70.53806,19.3719004,43.976051276,0,0,-9.842536,286, -3.5, -0.9,0,0,1024,1024,1684,1024,0,0,100,0,288.4,-2.9,0,100,4.189,4.194,4.201,4.199,0,0,6.672,75.2,130.66959309219,70.53806,6,P-GPS,
14200,2023-07-21 14:33:25,52.2071762959039,0.0869330461731137,73.8189,74.0157504,59.934682692188,133.95043309219,70.209976,0,44.14698304,64.046589976,18,3,17.011,133.95043309219,73.8189,19.3719004,44.14698304,0,0,-10.513618,285.9, -3.3, -0.7,0,0,1024,1024,1178,1024,0,0,23,0,288.4,-5.7,0,100,4.189,4.194,4.201,4.199,0,0,6.672,75.2,133.95043309219,73.8189,6,P-GPS,
14400,2023-07-21 14:33:25,52.2071775356496,0.0869303864719084,77.09974,77.2965904,59.934682692188,137.23127309219,73.490816,0,44.298229764,64.793637244,18,3,17.066,137.23127309219,77.09974,19.3719004,44.298229764,0,0,-10.961006,285.6, -3.3, -0.6,0,0,1024,1024,1024,1024,0,0,0,0,288.4,-8.6,0,100,4.176,4.183,4.185,4.182,0,0,9.128,75.2,137.23127309219,77.09974,6,P-GPS,
14600,2023-07-21 14:33:25,52.2071787688588,0.0869279187414838,80.38058,80.5774304,59.934682692188,140.51211309219,76.771656,0,44.430119532,65.505579524,18,3,17.066,140.51211309219,80.38058,19.3719004,44.430119532,0,0,-10.289924,285.5, -4.6, -1.5,0,0,1684,1024,1024,1024,100,0,0,0,288.4,-11.5,0,100,4.176,4.183,4.185,4.182,0,0,9.128,75.2,140.51211309219,80.38058,6,P-GPS,
14800,2023-07-21 14:33:26,52.2071799744996,0.0869256850890343,82.677168,82.8740184,59.934682692188,142.80870109219,79.724412,0,44.538387252,66.17126196,19,3,17.066,142.80870109219,82.677168,19.3719004,44.538387252,0,0,-8.052984,285.9, -4, -2.1,0,0,1684,1024,1024,1024,100,0,0,0,288.4,-13.8,0,100,4.176,4.183,4.185,4.182,0,0,9.128,75.2,142.80870109219,82.677168,6,P-GPS,
15000,2023-07-21 14:33:26,52.207181106649,0.0869237003890799,84.645672,84.8425224,59.934682692188,144.77720509219,82.021,0,44.628938436,66.777233108,18,5,17.066,144.77720509219,84.645672,19.3719004,44.628938436,0,0,-5.816044,286.1, -20.5, -0.8,0,0,1684,1024,1024,1024,100,0,0,0,288.4,-14.5,0,100,4.176,4.183,4.185,4.182,0,0,9.128,75.2,144.77720509219,84.645672,6,P-GPS,
15200,2023-07-21 14:33:26,52.2071822037725,0.0869215352796495,85.958008,86.1548584,59.934682692188,146.08954109219,83.005252,0.4921268,44.767389884,67.405513968,19,5,17.066,146.08954109219,85.958008,19.3719004,44.767389884,0.223694,-0.447388,-2.908022,286.4, -28.8, -1.9,0,0,1684,1024,1024,1024,100,0,0,0,288.4,-14.6,0,100,4.176,4.183,4.185,4.182,0,0,9.128,75.2,146.08954109219,85.958008,6,P-GPS,
15400,2023-07-21 14:33:26,52.2071832784335,0.0869184923778127,86.286092,86.4829424,59.934682692188,146.41762509219,83.66142,1.6329662,45.07710118,68.19061898,19,5,16.605,146.41762509219,86.286092,19.3719004,45.07710118,0.447388,-1.565858,-0.894776,286.2, -28.8, -1,0,0,1119,1024,1024,1024,14,0,0,0,288.4,-14.6,0,100,4.262,4.255,4.275,4.265,0,0,11.485,75.02,146.41762509219,86.286092,6,P-GPS,
15600,2023-07-21 14:33:26,52.2071844361381,0.0869139224610923,86.286092,86.4829424,59.934682692188,146.41762509219,78.412076,3.1988242,45.659122196,69.29626206,19,5,16.605,146.41762509219,86.286092,19.3719004,45.659122196,0.671082,-3.131716,0,285.8, -28.6, 0.5,0,0,1024,1024,1024,1024,0,0,0,0,288.4,-14.6,0,100,4.262,4.255,4.275,4.265,0,0,11.485,75.02,146.41762509219,86.286092,6,P-GPS,
15800,2023-07-21 14:33:27,52.2071858665836,0.0869073022790984,86.286092,86.4829424,59.934682692188,146.41762509219,72.834648,5.0554844,46.585959496,70.865815916,19,5,16.605,146.41762509219,86.286092,19.3719004,46.585959496,1.11847,-4.921268,0,285.2, -17.4, 1.9,0,0,1024,1024,1024,1024,0,0,0,0,288.4,-14.6,0,100,4.262,4.255,4.275,4.265,0,0,11.485,75.02,146.41762509219,86.286092,6,P-GPS,
16000,2023-07-21 14:33:27,52.2071874583229,0.0868996879227619,85.958008,86.1548584,59.934682692188,146.08954109219,73.490816,4.8317904,47.703741684,72.664700488,19,5,16.605,146.41762509219,86.286092,19.3719004,47.703741684,1.11847,-4.697574,-0.223694,285.8, 23.2, -0.1,0,0,1024,1024,1024,1024,0,0,0,0,288.4,-16.2,0,100,4.262,4.255,4.275,4.265,0,0,11.485,75.02,146.08954109219,85.958008,6,P-GPS,
16200,2023-07-21 14:33:27,52.2071886649361,0.086894217300723,85.629924,85.8267744,59.934682692188,145.76145709219,73.490816,2.5053728,48.52034276,73.964569296,19,5,16.605,146.41762509219,86.286092,19.3719004,48.52034276,0.447388,-2.460634,0,286.3, 22.7, 2.4,0,0,1024,1024,1024,1024,0,0,0,0,288.4,-18.9,0,100,4.262,4.255,4.275,4.265,0,0,11.485,75.02,145.76145709219,85.629924,6,P-GPS,
16400,2023-07-21 14:33:27,52.2071894906807,0.0868914792846099,85.629924,85.8267744,59.934682692188,145.76145709219,73.8189,0.671082,48.896655108,74.646984016,19,5,16.99,146.41762509219,86.286092,19.3719004,48.896655108,0,-0.671082,0,285.6, 12, 0.4,0,0,1024,1024,1024,1024,0,0,0,0,288.4,-21.7,0,100,4.23,4.259,4.245,4.241,0,0,9.526,75.38,145.76145709219,85.629924,6,P-GPS,
16600,2023-07-21 14:33:27,52.2071900644293,0.0868905065413193,85.30184,85.4986904,59.934682692188,145.43337309219,73.8189,0,48.980972696,74.948821296,19,5,16.99,146.41762509219,86.286092,19.3719004,48.980972696,0,0,0,285.6, 1.7, 0,0,0,1024,1024,1024,1024,0,0,0,0,288.4,-24.7,0,100,4.23,4.259,4.245,4.241,0,0,9.526,75.38,145.43337309219,85.30184,6,P-GPS,
16800,2023-07-21 14:33:28,52.2071904283052,0.086890180266483,85.30184,85.4986904,59.934682692188,145.43337309219,73.8189,0,48.979004192,75.10006802,19,5,16.99,146.41762509219,86.286092,19.3719004,48.980972696,0,0,0,285.9, -2.3, -0.2,0,0,1024,1024,1024,1024,0,0,0,0,288.4,-27.6,0,100,4.23,4.259,4.245,4.241,0,0,9.526,75.38,145.43337309219,85.30184,6,P-GPS,
17000,2023-07-21 14:33:28,52.2071907629765,0.086890031409443,84.973756,85.1706064,59.934682692188,145.10528909219,83.66142,0,48.947836212,75.226708444,19,5,16.99,146.41762509219,86.286092,19.3719004,48.980972696,0,0,0,285.9, -2.9, -1.4,0,0,1024,1024,1024,1024,0,0,0,0,288.4,-30.5,0,100,4.23,4.259,4.245,4.241,0,0,9.526,75.38,145.10528909219,84.973756,6,P-GPS,
17200,2023-07-21 14:33:28,52.2071910395212,0.0868899137413639,84.973756,85.1706064,59.934682692188,145.10528909219,83.005252,0,48.921589492,75.331039156,19,5,16.99,146.41762509219,86.286092,19.3719004,48.980972696,0,0,0,285.9, -2.7, -2.9,0,0,1024,1024,1024,1024,0,0,0,0,288.4,-33.4,0,100,4.23,4.259,4.245,4.241,0,0,9.526,75.38,145.10528909219,84.973756,6,P-GPS,
17400,2023-07-21 14:33:28,52.2071912115579,0.0868898647840617,84.973756,85.1706064,59.934682692188,145.10528909219,83.005252,0,48.900264032,75.394687452,19,5,16.916,146.41762509219,86.286092,19.3719004,48.980972696,0,0,0,286, -3, -3.7,0,0,1024,1024,1024,1024,0,0,0,0,288.4,-36.3,0,100,4.24,4.244,4.243,4.24,0,0,6.288,75.38,145.10528909219,84.973756,6,P-GPS,
17600,2023-07-21 14:33:28,52.2071912465496,0.0868898189302778,84.973756,85.1706064,59.934682692188,145.10528909219,83.005252,0,48.903216788,75.411091652,19,5,16.916,146.41762509219,86.286092,19.3719004,48.980972696,0,0,0,286, -3.2, -3.9,0,0,1024,1024,1024,1024,0,0,0,0,288.4,-39.2,0,100,4.24,4.244,4.243,4.24,0,0,6.288,75.38,145.10528909219,84.973756,6,P-GPS,
17800,2023-07-21 14:33:29,52.2071911833342,0.0868897969959525,84.645672,84.8425224,59.934682692188,144.77720509219,83.005252,0,48.918636736,75.4347137,19,5,16.916,146.41762509219,86.286092,19.3719004,48.980972696,0,0,0,286, -3.5, -3.6,0,0,1024,1024,1024,1024,0,0,0,0,288.4,-42.2,0,100,4.24,4.244,4.243,4.24,0,0,6.288,75.38,144.77720509219,84.645672,6,P-GPS,
18000,2023-07-21 14:33:29,52.2071910440403,0.0868897427403014,84.645672,84.8425224,59.934682692188,144.77720509219,82.677168,0.223694,48.954069808,75.486879056,19,5,16.916,146.41762509219,86.286092,19.3719004,48.980972696,-0.223694,0,0,286, -3.3, -3.1,0,0,1024,1024,1024,1024,0,0,0,0,288.4,-45.1,0,100,4.24,4.244,4.243,4.24,0,0,6.288,75.38,144.77720509219,84.645672,6,P-GPS,
18200,2023-07-21 14:33:29,52.2071908432015,0.0868896520672397,84.645672,84.8425224,59.934682692188,144.77720509219,82.677168,0.223694,49.0075475,75.562994544,19,5,16.916,146.41762509219,86.286092,19.3719004,49.0075475,-0.223694,0,0,286, -3, -2.7,0,0,1024,1024,1024,1024,0,0,0,0,288.4,-48,0,100,4.24,4.244,4.243,4.24,0,0,6.288,75.38,144.77720509219,84.645672,6,P-GPS,
18400,2023-07-21 14:33:29,52.2071905872217,0.0868895861244657,84.645672,84.8425224,59.934682692188,144.77720509219,82.677168,0.223694,49.065946452,75.657482736,19,5,16.965,146.41762509219,86.286092,19.3719004,49.065946452,-0.223694,0,0,285.9, -3.2, -2.6,0,0,1024,1024,1024,1024,0,0,0,0,288.4,-50.9,0,100,4.244,4.245,4.243,4.242,0,0,6.617,75.56,144.77720509219,84.645672,6,P-GPS,
18600,2023-07-21 14:33:29,52.207190313517,0.0868895395577113,84.645672,84.8425224,59.934682692188,144.77720509219,82.677168,0.223694,49.124345404,75.75787644,19,5,16.965,146.41762509219,86.286092,19.3719004,49.124345404,-0.223694,0,0,286, -3.7, -1.8,0,0,1024,1024,1024,1024,0,0,0,0,288.4,-53.8,0,100,4.244,4.245,4.243,4.242,0,0,6.617,75.56,144.77720509219,84.645672,6,P-GPS,
18800,2023-07-21 14:33:30,52.2071900165187,0.0868894971709208,84.645672,84.8425224,59.934682692188,144.77720509219,82.677168,0.223694,49.185697112,75.866800328,19,5,16.965,146.41762509219,86.286092,19.3719004,49.185697112,-0.223694,0,0,285.9, -3.8, -1.1,0,0,1024,1024,1024,1024,0,0,0,0,288.4,-56.7,0,100,4.244,4.245,4.243,4.242,0,0,6.617,75.56,144.77720509219,84.645672,6,P-GPS,
19000,2023-07-21 14:33:30,52.207189720133,0.086889435603828,84.317588,84.5144384,59.934682692188,144.44912109219,82.677168,0.223694,49.251313912,75.975724216,19,5,16.965,146.41762509219,86.286092,19.3719004,49.251313912,-0.223694,0,0,285.9, -3.9, -0.8,0,0,1024,1024,1024,1024,0,0,0,0,288.4,-59.7,0,100,4.244,4.245,4.243,4.242,0,0,6.617,75.56,144.44912109219,84.317588,6,P-GPS,
19200,2023-07-21 14:33:30,52.2071894327683,0.0868893458674137,84.317588,84.5144384,59.934682692188,144.44912109219,82.349084,0,49.320539636,76.082351516,19,5,16.965,146.41762509219,86.286092,19.3719004,49.320539636,0,0,0,285.9, -3.7, -0.6,0,0,945,1024,1024,1024,-12,0,0,0,288.4,-62.6,0,100,4.244,4.245,4.243,4.242,0,0,6.617,75.56,144.44912109219,84.317588,6,P-GPS,
19400,2023-07-21 14:33:30,52.2071891608583,0.0868892123042882,84.317588,84.5144384,59.934682692188,144.44912109219,82.349084,0,49.395998956,76.18602606,19,5,16.972,146.41762509219,86.286092,19.3719004,49.395998956,0,0,0,285.9, -3.5, -0.7,0,0,456,1024,1024,1024,-86,0,0,0,288.4,-65.5,0,100,4.243,4.243,4.243,4.24,0,0,6.714,75.74,144.44912109219,84.317588,6,P-GPS,
19600,2023-07-21 14:33:31,52.2071889013832,0.0868891383790414,84.317588,84.5144384,59.934682692188,144.44912109219,82.349084,0,49.457350664,76.282154672,19,5,16.972,146.41762509219,86.286092,19.3719004,49.457350664,0,0,0,285.9, 2.2, 0.6,0,0,364,1085,1024,1024,-100,9,0,0,288.4,-68.4,0,100,4.243,4.243,4.243,4.24,0,0,6.714,75.74,144.44912109219,84.317588,6,P-GPS,
19800,2023-07-21 14:33:31,52.207188613059,0.0868895730533413,84.317588,84.5144384,59.934682692188,144.44912109219,82.677168,0.671082,49.4258546,76.425199296,19,5,16.972,146.41762509219,86.286092,19.3719004,49.457350664,0,0.671082,0,285.7, 15.6, -0.3,0,0,364,1024,1024,1024,-100,0,0,0,288.4,-71.3,0,100,4.243,4.243,4.243,4.24,0,0,6.714,75.74,144.44912109219,84.317588,6,P-GPS,
20000,2023-07-21 14:33:31,52.2071880720147,0.086891603201665,84.317588,84.5144384,59.934682692188,144.44912109219,83.333336,2.2816788,49.133531756,76.920278052,19,5,16.972,146.41762509219,86.286092,19.3719004,49.457350664,-0.447388,2.23694,0,285.3, 20.7, -0.9,0,0,364,1024,1024,1024,-100,0,0,0,288.4,-74.2,0,100,4.243,4.243,4.243,4.24,0,0,6.714,75.74,144.44912109219,84.317588,6,P-GPS,
20200,2023-07-21 14:33:31,52.2071872297916,0.08689579318903,84.317588,84.5144384,59.934682692188,144.44912109219,82.021,4.0712308,48.488846696,77.906170472,19,5,16.972,146.41762509219,86.286092,19.3719004,49.457350664,-0.671082,4.026492,0,285.5, 19.5, -1.3,0,0,396,1024,1024,1024,-95,0,0,0,288.4,-77.2,0,100,4.243,4.243,4.243,4.24,0,0,6.714,75.74,144.44912109219,84.317588,6,P-GPS,
20400,2023-07-21 14:33:31,52.2071860648951,0.0869021154612265,84.645672,84.8425224,59.934682692188,144.77720509219,80.708664,5.704197,47.517061888,79.382220388,19,5,16.966,146.41762509219,86.286092,19.3719004,49.457350664,-1.11847,5.59235,0,285.4, 18.8, -1.9,0,0,1024,1024,1024,1024,0,0,0,0,288.4,-80.1,0,100,4.232,4.229,4.234,4.225,0,0,6.614,75.74,144.77720509219,84.645672,6,P-GPS,
20600,2023-07-21 14:33:32,52.207184621702,0.0869101026731335,84.645672,84.8425224,59.934682692188,144.77720509219,80.38058,6.3976484,46.321523792,81.244097088,19,5,16.966,146.41762509219,86.286092,19.3719004,49.457350664,-1.342164,6.263432,0,285.7, -15.6, -1.8,0,0,1024,1024,1024,1024,0,0,0,0,288.4,-83,0,100,4.232,4.229,4.234,4.225,0,0,6.614,75.74,144.77720509219,84.645672,6,P-GPS,
20800,2023-07-21 14:33:32,52.2071833385391,0.0869171913046534,84.645672,84.8425224,59.934682692188,144.77720509219,81.036748,4.5633576,45.29855788,82.896656196,19,5,16.966,146.41762509219,86.286092,19.3719004,49.457350664,-0.894776,4.47388,0,287.4, -29.1, -3.8,0,0,1024,1024,1024,1024,0,0,0,0,288.4,-85.9,0,100,4.232,4.229,4.234,4.225,0,0,6.614,75.74,144.77720509219,84.645672,6,P-GPS,
21000,2023-07-21 14:33:32,52.2071825188555,0.0869213322088979,84.645672,84.8425224,59.934682692188,144.77720509219,80.708664,2.0579848,44.7342534,83.86975334,19,5,16.966,146.41762509219,86.286092,19.3719004,49.457350664,-0.447388,2.013246,0,287.2, -25.7, -4.6,0,0,1024,1024,1024,1024,0,0,0,0,288.4,-88.8,0,100,4.232,4.229,4.234,4.225,0,0,6.614,75.74,144.77720509219,84.645672,6,P-GPS,
21200,2023-07-21 14:33:32,52.207181952059,0.0869228224428957,84.645672,84.8425224,59.934682692188,144.77720509219,71.522312,0.4921268,44.5948177,84.26181372,19,5,16.966,146.41762509219,86.286092,19.3719004,49.457350664,-0.223694,0.447388,0,286.3, -13.8, -2.9,0,0,1024,1024,1024,1024,0,0,0,0,288.4,-90,0,100,4.232,4.229,4.234,4.225,0,0,6.614,75.74,144.77720509219,84.645672,6,P-GPS,
21400,2023-07-21 14:33:32,52.2071814480153,0.0869230092970652,84.645672,84.8425224,59.934682692188,144.77720509219,72.17848,0.223694,44.674214028,84.45046202,19,5,16.982,146.41762509219,86.286092,19.3719004,49.457350664,-0.223694,0,0,285.9, -7.6, -1.8,0,0,1024,1024,1024,1024,0,0,0,0,288.4,-89.9,0,100,4.225,4.231,4.233,4.233,0,0,6.646,75.74,144.77720509219,84.645672,6,P-GPS,
21600,2023-07-21 14:33:33,52.207180962686,0.086922671181328,84.645672,84.8425224,59.934682692188,144.77720509219,83.66142,0.223694,44.84252112,84.643047328,19,5,16.982,146.41762509219,86.286092,19.3719004,49.457350664,-0.223694,0,0,285.8, -4.8, -0.9,0,0,1024,1024,1024,1024,0,0,0,0,288.4,-90,0,100,4.225,4.231,4.233,4.233,0,0,6.646,75.74,144.77720509219,84.645672,6,P-GPS,
21800,2023-07-21 14:33:33,52.2071804989497,0.0869221882207568,84.645672,84.8425224,59.934682692188,144.77720509219,83.66142,0,45.031825588,84.843506652,19,5,16.982,146.41762509219,86.286092,19.3719004,49.457350664,0,0,0,285.8, -4.2, -0.5,0,0,1024,1024,1235,1024,0,0,32,0,288.4,-89.9,0,100,4.225,4.231,4.233,4.233,0,0,6.646,75.74,144.77720509219,84.645672,6,P-GPS,
22000,2023-07-21 14:33:33,52.2071800795472,0.0869216603290694,84.645672,84.8425224,59.934682692188,144.77720509219,83.66142,0,45.219161552,85.036748128,19,5,16.982,146.41762509219,86.286092,19.3719004,49.457350664,0,0,0,285.8, -3.8, 0,0,0,1024,1024,1684,1024,0,0,100,0,288.4,-89.9,0,100,4.225,4.231,4.233,4.233,0,0,6.646,75.74,144.77720509219,84.645672,6,P-GPS,
22200,2023-07-21 14:33:33,52.2071797780942,0.0869210849898994,84.645672,84.8425224,59.934682692188,144.77720509219,83.66142,0,45.388124812,85.206039472,19,5,16.982,146.41762509219,86.286092,19.3719004,49.457350664,0,0,-0.671082,285.8, -1.9, 1,0,0,1024,1024,1684,1024,0,0,100,0,288.4,-89.9,0,100,4.225,4.231,4.233,4.233,0,0,6.646,75.74,144.77720509219,84.645672,6,P-GPS,
22400,2023-07-21 14:33:33,52.2071796040913,0.0869206665741211,85.30184,85.4986904,59.934682692188,145.43337309219,83.66142,0,45.500985708,85.319228452,19,5,16.913,146.41762509219,86.286092,19.3719004,49.457350664,0,0,-2.908022,286.1, -2.2, 0,0,0,1024,1024,1684,1024,0,0,100,0,288.4,-89.9,0,100,4.221,4.187,4.188,4.184,0,0,7.922,75.74,145.43337309219,85.30184,6,P-GPS,
22600,2023-07-21 14:33:33,52.2071795592863,0.0869203707333359,86.614176,86.8110264,59.934682692188,146.74570909219,83.66142,0.223694,45.563321668,85.387469924,19,5,16.913,146.74570909219,86.614176,19.3719004,49.457350664,0.223694,0,-5.368656,286.5, -3, -1.9,0,0,1024,1024,1684,1024,0,0,100,0,288.4,-89.9,0,100,4.221,4.187,4.188,4.184,0,0,7.922,75.74,146.74570909219,86.614176,6,P-GPS,
22800,2023-07-21 14:33:34,52.2071795638096,0.0869199566792589,88.910764,89.1076144,59.934682692188,149.04229709219,83.66142,0,45.635172064,85.479989612,19,5,16.913,149.04229709219,88.910764,19.3719004,49.457350664,0,0,-7.605596,286.3, -2.5, -2.5,0,0,1024,1024,1684,1024,0,0,100,0,288.4,-89.9,0,100,4.221,4.187,4.188,4.184,0,0,7.922,75.74,149.04229709219,88.910764,6,P-GPS,
23000,2023-07-21 14:33:34,52.2071794609208,0.08691954649759,92.191604,92.3884544,59.934682692188,152.32313709219,83.66142,0,45.730644508,85.57907098,19,5,16.913,152.32313709219,92.191604,19.3719004,49.457350664,0,0,-10.06623,286.2, -3.1, -1.7,0,0,1024,1024,1684,1024,0,0,100,0,288.4,-89.9,0,100,4.221,4.187,4.188,4.184,0,0,7.922,75.74,152.32313709219,92.191604,6,P-GPS,
23200,2023-07-21 14:33:34,52.2071793432541,0.0869190784814381,96.456696,96.6535464,59.934682692188,156.58822909219,83.66142,0,45.839568396,85.69225996,19,5,16.913,156.58822909219,96.456696,19.3719004,49.457350664,0,0,-12.079476,286.2, -3.4, -2.9,0,0,1024,1024,1684,1024,0,0,100,0,288.4,-89.9,0,100,4.221,4.187,4.188,4.184,0,0,7.922,75.74,156.58822909219,96.456696,6,P-GPS,
23400,2023-07-21 14:33:34,52.2071792151014,0.0869185464796858,100.721788,100.9186384,59.934682692188,160.85332109219,83.66142,0,45.961943728,85.819884636,19,5,16.969,160.85332109219,100.721788,19.3719004,49.457350664,0,0,-13.197946,286.3, -4.7, -5.5,0,0,1024,1024,1024,1024,0,0,0,0,288.4,-90,0,99,4.111,4.124,4.133,4.138,0,0,6.514,75.74,160.85332109219,100.721788,6,P-GPS,
23600,2023-07-21 14:33:34,52.2071788677297,0.0869177328685972,104.98688,105.1837304,59.934682692188,165.11841309219,83.66142,0,46.183400428,86.04166942,19,5,16.969,165.11841309219,104.98688,19.3719004,49.457350664,0,0,-13.42164,286.1, -4.7, -5.2,0,0,1024,1024,1024,1024,0,0,0,0,288.4,-89.9,0,99,4.111,4.124,4.133,4.138,0,0,6.514,75.74,165.11841309219,104.98688,6,P-GPS,
23800,2023-07-21 14:33:35,52.2071783448815,0.0869167605027615,108.595804,108.7926544,59.934682692188,168.72733709219,83.66142,0,46.472114348,86.330711424,19,5,16.969,168.72733709219,108.595804,19.3719004,49.457350664,0,0,-12.079476,286, -6.4, -4.8,0,0,1024,1024,1625,1024,0,0,91,0,288.4,-89.9,0,99,4.111,4.124,4.133,4.138,0,0,6.514,75.74,168.72733709219,108.595804,6,P-GPS,
24000,2023-07-21 14:33:35,52.2071777564279,0.0869157714590099,111.876644,112.0734944,59.934682692188,172.00817709219,83.66142,0,46.778544804,86.639110384,19,5,16.969,172.00817709219,111.876644,19.3719004,49.457350664,0,0,-9.842536,286, -6.8, -4.8,0,0,1024,1024,1684,1024,0,0,100,0,288.4,-90,0,99,4.111,4.124,4.133,4.138,0,0,6.514,75.74,172.00817709219,111.876644,6,P-GPS,
24200,2023-07-21 14:33:35,52.207177117318,0.0869147028980867,114.501316,114.6981664,59.934682692188,174.63284909219,83.66142,0,47.110237728,86.972771812,19,5,16.969,174.63284909219,114.501316,19.3719004,49.457350664,0,0,-8.94776,286.2, -4.2, -2.6,0,0,1024,1024,1684,1024,0,0,100,0,288.4,-90,0,99,4.111,4.124,4.133,4.138,0,0,6.514,75.74,174.63284909219,114.501316,6,P-GPS,
24400,2023-07-21 14:33:35,52.20717651538,0.086913486109215,117.454072,117.6509224,59.934682692188,177.58560509219,83.66142,0,47.459975272,87.322509356,19,5,16.54,177.58560509219,117.454072,19.3719004,49.457350664,0,0,-10.961006,286.3, -1.3, -0.2,0,0,1024,1024,1684,1024,0,0,100,0,288.4,-90,0,99,4.149,4.139,4.144,4.143,0,0,13.738,75.74,177.58560509219,117.454072,6,P-GPS,
24600,2023-07-21 14:33:35,52.207176100141,0.0869125406545177,121.062996,121.2598464,59.934682692188,181.19452909219,83.66142,0,47.7198178,87.582679968,19,5,16.54,181.19452909219,121.062996,19.3719004,49.457350664,0,0,-12.526864,286.1, -2.1, -1.2,0,0,1024,1024,1684,1024,0,0,100,0,288.4,-89.9,0,99,4.149,4.139,4.144,4.143,0,0,13.738,75.74,181.19452909219,121.062996,6,P-GPS,
24800,2023-07-21 14:33:36,52.2071758601214,0.0869118537564466,125.000004,125.1968544,59.934682692188,185.13153709219,83.66142,0,47.894686572,87.759517244,19,5,16.54,185.13153709219,125.000004,19.3719004,49.457350664,0,0,-13.42164,285.7, -1.5, -1.6,0,0,1024,1024,1602,1024,0,0,88,0,288.4,-89.9,0,99,4.149,4.139,4.144,4.143,0,0,13.738,75.74,185.13153709219,125.000004,6,P-GPS,
25000,2023-07-21 14:33:36,52.2071756729683,0.0869115066516902,128.608928,128.8057784,59.934682692188,188.74046109219,83.66142,0.223694,47.998033032,87.862863704,19,5,16.54,188.74046109219,128.608928,19.3719004,49.457350664,0,0.223694,-13.42164,285.8, -3.7, -2.1,0,0,1024,1024,1024,1024,0,0,0,0,288.4,-89.9,0,99,4.149,4.139,4.144,4.143,0,0,13.738,75.74,188.74046109219,128.608928,6,P-GPS,
25200,2023-07-21 14:33:36,52.2071754987085,0.0869113364754366,132.217852,132.4147024,59.934682692188,192.34938509219,83.66142,0.223694,48.066930672,87.937010688,18,5,16.54,192.34938509219,132.217852,19.3719004,49.457350664,0,0.223694,-11.855782,285.7, -6.5, -3,0,0,1024,1024,1024,1024,0,0,0,0,288.4,-90,0,99,4.149,4.139,4.144,4.143,0,0,13.738,75.74,192.34938509219,132.217852,6,P-GPS,
25400,2023-07-21 14:33:36,52.2071753609266,0.0869111967891533,135.170608,135.3674584,59.934682692188,195.30214109219,83.66142,0.223694,48.122376868,87.996065808,19,5,16.804,195.30214109219,135.170608,19.3719004,49.457350664,0,0.223694,-9.618842,285.9, -6.9, -3.7,0,0,1024,1024,1024,1024,0,0,0,0,288.4,-90,0,99,4.234,4.235,4.233,4.23,0,0,9.637,75.92,195.30214109219,135.170608,6,P-GPS,
25600,2023-07-21 14:33:36,52.2071752469008,0.0869110180572547,137.139112,137.3359624,59.934682692188,197.27064509219,83.66142,0.223694,48.179791568,88.053808592,19,5,16.804,197.27064509219,137.139112,19.3719004,49.457350664,0,0.223694,-7.158208,285.9, -6.7, -3.9,0,0,1024,1024,1024,1024,0,0,0,0,288.4,-89.9,0,99,4.234,4.235,4.233,4.23,0,0,9.637,75.92,197.27064509219,137.139112,6,P-GPS,
25800,2023-07-21 14:33:37,52.2071751350339,0.0869108017755806,138.123364,138.3202144,59.934682692188,198.25489709219,83.66142,0,48.242783696,88.117128804,19,5,16.804,198.25489709219,138.123364,19.3719004,49.457350664,0,0,-4.697574,286, -5.7, -3,0,0,1024,1024,1024,1024,0,0,0,0,288.4,-90,0,99,4.234,4.235,4.233,4.23,0,0,9.637,75.92,198.25489709219,138.123364,6,P-GPS,
26000,2023-07-21 14:33:37,52.2071750445757,0.0869105952937548,138.451448,138.6482984,59.934682692188,198.58298109219,83.66142,0,48.299542228,88.173887336,19,5,16.804,198.58298109219,138.451448,19.3719004,49.457350664,0,0,-2.23694,285.9, -4.6, -1.5,0,0,1024,1024,364,1024,0,0,-100,0,288.4,-90,0,99,4.234,4.235,4.233,4.23,0,0,9.637,75.92,198.58298109219,138.451448,6,P-GPS,
26200,2023-07-21 14:33:37,52.2071750074552,0.0869104854683504,138.779532,138.9763824,59.934682692188,198.91106509219,83.66142,0,48.327101284,88.201774476,19,5,16.804,198.91106509219,138.779532,19.3719004,49.457350664,0,0,0,285.7, -3.6, 0.3,0,0,1024,1024,364,1024,0,0,-100,0,288.4,-90,0,99,4.234,4.235,4.233,4.23,0,0,9.637,75.92,198.91106509219,138.779532,6,P-GPS,
26400,2023-07-21 14:33:37,52.2071750957716,0.0869104883761513,138.123364,138.3202144,59.934682692188,198.25489709219,83.66142,0,48.306760076,88.233926708,19,5,16.591,198.91106509219,138.779532,19.3719004,49.457350664,0,0,2.460634,285.7, -2.1, 2.2,0,0,1024,1024,364,1024,0,0,-100,0,288.4,-90,0,99,4.267,4.282,4.285,4.28,0,0,11.829,75.92,198.25489709219,138.123364,6,P-GPS,
26600,2023-07-21 14:33:38,52.2071752915602,0.0869105807128107,136.482944,136.6797944,59.934682692188,196.61447709219,83.66142,0,48.246720704,88.308401776,19,5,16.591,198.91106509219,138.779532,19.3719004,49.457350664,0,0,5.144962,285.7, -0.9, 4.6,0,0,1024,1024,1024,1024,0,0,0,0,288.4,-90,0,99,4.267,4.282,4.285,4.28,0,0,11.829,75.92,196.61447709219,136.482944,6,P-GPS,
26800,2023-07-21 14:33:38,52.2071756536328,0.0869109403434788,133.530188,133.7270384,59.934682692188,193.66172109219,83.66142,0.223694,48.10203566,88.46292934,19,5,16.591,198.91106509219,138.779532,19.3719004,49.457350664,0.223694,0,7.381902,285.8, 0.2, 6.2,0,0,1024,1024,1024,1024,0,0,0,0,288.4,-90,0,99,4.267,4.282,4.285,4.28,0,0,11.829,75.92,193.66172109219,133.530188,6,P-GPS,
27000,2023-07-21 14:33:38,52.2071764391086,0.0869117598260886,131.889768,132.0866184,59.934682692188,192.02130109219,83.66142,0.8052984,47.781825676,88.803152448,19,5,16.591,198.91106509219,138.779532,19.3719004,49.457350664,0.671082,0.447388,5.816044,286.1, 2.7, 3.6,0,0,1024,1024,1024,1024,0,0,0,0,288.4,-89.9,0,99,4.267,4.282,4.285,4.28,0,0,11.829,75.92,192.02130109219,131.889768,6,P-GPS,
27200,2023-07-21 14:33:38,52.2071775783472,0.0869133256908703,130.249348,130.4461984,59.934682692188,190.38088109219,83.66142,1.11847,47.25065768,89.346787636,19,5,16.591,198.91106509219,138.779532,19.3719004,49.457350664,0.894776,0.671082,3.802798,285.6, 1.1, -2.8,0,0,1024,1024,1024,1024,0,0,0,0,288.4,-89.9,0,99,4.267,4.282,4.285,4.28,0,0,11.829,75.92,190.38088109219,130.249348,6,P-GPS,
27400,2023-07-21 14:33:38,52.2071787115032,0.0869152673330031,129.59318,129.7900304,59.934682692188,189.72471309219,83.66142,1.11847,46.654529052,89.946197104,19,5,17.057,198.91106509219,138.779532,19.3719004,49.457350664,0.671082,0.894776,1.789552,285.8, -5.2, -3.3,0,0,1024,1024,1024,1024,0,0,0,0,288.4,-90,0,99,4.189,4.191,4.188,4.184,0,0,5.504,76.1,189.72471309219,129.59318,6,P-GPS,
27600,2023-07-21 14:33:39,52.2071798103144,0.086916999459691,129.265096,129.4619464,59.934682692188,189.39662909219,83.66142,0.6263432,46.103347932,90.50361182,19,5,17.057,198.91106509219,138.779532,19.3719004,49.457350664,0.447388,0.447388,0.223694,286.5, -6.8, -5.7,0,0,1024,364,1024,1024,0,-100,0,0,288.4,-90,0,99,4.189,4.191,4.188,4.184,0,0,5.504,76.1,189.39662909219,129.265096,6,P-GPS,
27800,2023-07-21 14:33:39,52.2071807677713,0.086918319014162,129.265096,129.4619464,59.934682692188,189.39662909219,83.66142,0.6263432,45.657153692,90.960632832,19,5,17.057,198.91106509219,138.779532,19.3719004,49.457350664,0.447388,0.447388,0,286.5, -6.2, -7.9,0,0,1024,364,1024,1024,0,-100,0,0,288.4,-90,0,99,4.189,4.191,4.188,4.184,0,0,5.504,76.1,189.39662909219,129.265096,6,P-GPS,
28000,2023-07-21 14:33:39,52.2071814030175,0.0869193022702713,129.59318,129.7900304,59.934682692188,189.72471309219,83.66142,0.223694,45.341864968,91.280186648,19,5,17.057,198.91106509219,138.779532,19.3719004,49.457350664,0,0.223694,0,286.8, -1.6, -25.1,0,0,1024,364,1024,1024,0,-100,0,0,288.4,-90,0,99,4.189,4.191,4.188,4.184,0,0,5.504,76.1,189.72471309219,129.59318,6,P-GPS,
28200,2023-07-21 14:33:39,52.2071808007711,0.0869199404766566,129.59318,129.7900304,59.934682692188,189.72471309219,83.66142,1.789552,45.361550008,91.542325764,19,5,17.057,198.91106509219,138.779532,19.3719004,49.457350664,-1.789552,0,0,286.8, -3.3, -29.5,0,0,1024,364,1024,1024,0,-100,0,0,288.4,-90,0,99,4.189,4.191,4.188,4.184,0,0,5.504,76.1,189.72471309219,129.59318,6,P-GPS,
28400,2023-07-21 14:33:39,52.2071784620942,0.0869198419189808,129.921264,130.1181144,59.934682692188,190.05279709219,83.66142,4.026492,45.903544776,92.395672248,20,5,17.125,198.91106509219,138.779532,19.3719004,49.457350664,-4.026492,-0.223694,0,287.3, -4.6, -29.3,0,0,1024,364,1024,1024,0,-100,0,0,288.4,-89.9,0,99,4.195,4.198,4.198,4.193,0,0,3.575,76.46,190.05279709219,129.921264,6,P-GPS,
28600,2023-07-21 14:33:40,52.207174437626,0.0869189344334534,130.249348,130.4461984,59.934682692188,190.38088109219,83.66142,5.8831522,46.985237724,93.87795576,21,5,17.125,198.91106509219,138.779532,19.3719004,49.457350664,-5.816044,-0.894776,0,287.5, -5, -29.6,0,0,1024,366,1024,1024,0,-100,0,0,288.4,-89.9,0,99,4.195,4.198,4.198,4.193,0,0,3.575,76.46,190.38088109219,130.249348,6,P-GPS,
28800,2023-07-21 14:33:40,52.2071687654893,0.0869171650925056,130.577432,130.7742824,59.934682692188,190.70896509219,83.66142,7.717443,48.627626228,95.984911208,21,5,17.125,198.91106509219,138.779532,19.3719004,49.457350664,-7.605596,-1.342164,0,287.4, -4.9, -29.7,0,0,1024,384,1024,1024,0,-97,0,0,288.4,-89.9,0,99,4.195,4.198,4.198,4.193,0,0,3.575,76.46,190.70896509219,130.577432,6,P-GPS,
29000,2023-07-21 14:33:40,52.2071615013262,0.0869145331691871,131.2336,131.4304504,59.934682692188,191.36513309219,83.66142,9.5741032,50.841208976,98.699806308,21,5,17.125,198.91106509219,138.779532,19.3719004,50.841208976,-9.395148,-1.789552,0,287.5, -5, -29.4,0,0,1105,401,1024,1024,12,-94,0,0,288.4,-89.9,0,99,4.195,4.198,4.198,4.193,0,0,3.575,76.46,191.36513309219,131.2336,6,P-GPS,
29200,2023-07-21 14:33:40,52.2071528381925,0.0869111963837388,131.561684,131.7585344,59.934682692188,191.69321709219,83.66142,11.1847,53.57283636,101.947509824,21,5,17.125,198.91106509219,138.779532,19.3719004,53.57283636,-10.961006,-2.23694,0,287.4, -5.3, -29.6,0,0,1358,491,1024,1024,51,-81,0,0,288.4,-89.9,0,99,4.195,4.198,4.198,4.193,0,0,3.575,76.46,191.69321709219,131.561684,6,P-GPS,
29400,2023-07-21 14:33:40,52.2071428652356,0.0869072632055234,132.217852,132.4147024,59.934682692188,192.34938509219,83.66142,12.862405,56.798558248,105.690948264,21,5,16.833,198.91106509219,138.779532,19.3719004,56.798558248,-12.526864,-2.908022,0,287.6, -6.3, -29.4,0,0,1533,997,1024,1024,77,-4,0,0,288.4,-90,0,99,4.18,4.184,4.184,4.183,0,0,9.719,76.28,192.34938509219,132.217852,6,P-GPS,
29600,2023-07-21 14:33:41,52.2071316772571,0.0869026124435492,132.545936,132.7427864,59.934682692188,192.67746909219,83.66142,14.0479832,60.523623984,109.90321874,21,5,16.833,198.91106509219,138.779532,19.3719004,60.523623984,-13.645334,-3.35541,0,288.2, -13.9, -19.1,0,0,1555,1010,1024,1024,80,-2,0,0,288.4,-90,0,99,4.18,4.184,4.184,4.183,0,0,9.719,76.28,192.67746909219,132.545936,6,P-GPS,
29800,2023-07-21 14:33:41,52.2071200812873,0.0868969753918464,132.87402,133.0708704,59.934682692188,193.00555309219,83.66142,14.1374608,64.56365036,114.31758896,21,5,16.833,198.91106509219,138.779532,19.3719004,64.56365036,-13.42164,-4.47388,0,286.7, -23.5, -4.4,0,0,1553,1014,1024,1024,80,-2,0,0,288.4,-90,0,99,4.18,4.184,4.184,4.183,0,0,9.719,76.28,193.00555309219,132.87402,6,P-GPS,
30000,2023-07-21 14:33:41,52.2071091305528,0.086889896839771,133.202104,133.3989544,59.934682692188,193.33363709219,83.66142,13.5111176,68.665028444,118.615161276,21,5,16.833,198.91106509219,138.779532,19.3719004,68.665028444,-12.30317,-5.59235,0.223694,286.2, -25.6, -0.1,0,0,1523,1024,1024,1024,76,0,0,0,288.4,-89.9,0,99,4.18,4.184,4.184,4.183,0,0,9.719,76.28,193.33363709219,133.202104,6,P-GPS,
30200,2023-07-21 14:33:41,52.2070991915638,0.0868814276318999,133.202104,133.3989544,59.934682692188,193.33363709219,83.66142,12.862405,72.686682116,122.706040672,21,5,16.833,198.91106509219,138.779532,19.3719004,72.686682116,-10.961006,-6.71082,0.447388,286.3, -25.5, 0.6,0,0,1024,1024,1024,1024,0,0,0,0,288.4,-89.9,0,99,4.18,4.184,4.184,4.183,0,0,9.719,76.28,193.33363709219,133.202104,6,P-GPS,
30400,2023-07-21 14:33:41,52.207090312869,0.0868714671695048,133.530188,133.7270384,59.934682692188,193.66172109219,83.66142,12.3926476,76.611222924,126.636815076,21,5,16.748,198.91106509219,138.779532,19.3719004,76.611222924,-9.618842,-7.82929,0.447388,286.5, -23.4, 0.6,0,0,1024,1024,1024,1024,0,0,0,0,288.4,-89.9,0,99,4.212,4.215,4.212,4.21,0,0,9.63,76.28,193.66172109219,133.530188,6,P-GPS,
30600,2023-07-21 14:33:41,52.2070824453459,0.0868603263356486,133.202104,133.3989544,59.934682692188,193.33363709219,83.66142,11.855782,80.405842468,130.437668216,20,5,16.748,198.91106509219,138.779532,19.3719004,80.405842468,-8.500372,-8.276678,0.223694,285.1, 0.2, 10.1,0,0,1024,986,1024,1024,0,-6,0,0,288.4,-90,0,99,4.212,4.215,4.212,4.21,0,0,9.63,76.28,193.33363709219,133.202104,6,P-GPS,
30800,2023-07-21 14:33:42,52.2070756202635,0.086850021075166,133.202104,133.3989544,59.934682692188,193.33363709219,83.66142,9.8201666,83.786420004,133.830056776,21,5,16.748,198.91106509219,138.779532,19.3719004,83.786420004,-7.158208,-6.71082,0,288.3, 16.6, 21.7,0,0,1024,591,1024,1024,0,-66,0,0,288.4,-89.9,0,99,4.212,4.215,4.212,4.21,0,0,9.63,76.28,193.33363709219,133.202104,6,P-GPS,
31000,2023-07-21 14:33:42,52.2070699965385,0.0868423246713118,132.87402,133.0708704,59.934682692188,193.00555309219,83.66142,7.158208,86.462601192,136.507878384,21,5,16.748,198.91106509219,138.779532,19.3719004,86.462601192,-5.59235,-4.47388,0.447388,288.6, 15.4, 26.1,0,0,1024,383,1024,1024,0,-97,0,0,288.4,-90,0,99,4.212,4.215,4.212,4.21,0,0,9.63,76.28,193.00555309219,132.87402,6,P-GPS,
31200,2023-07-21 14:33:42,52.2070658296022,0.086837359713059,132.87402,133.0708704,59.934682692188,193.00555309219,83.66142,4.5186188,88.344162932,138.390424376,20,5,16.748,198.91106509219,138.779532,19.3719004,88.344162932,-3.802798,-2.460634,0.447388,287.8, 11.7, 17.7,0,0,1026,372,1024,1024,0,-99,0,0,288.4,-89.9,0,99,4.212,4.215,4.212,4.21,0,0,9.63,76.28,193.00555309219,132.87402,6,P-GPS,
31400,2023-07-21 14:33:42,52.2070627390148,0.0868343800558925,132.545936,132.7427864,59.934682692188,192.67746909219,83.66142,3.7133204,89.642719404,139.700135704,20,5,16.806,198.91106509219,138.779532,19.3719004,89.642719404,-3.35541,-1.565858,0.671082,285.9, 7, -10.2,0,0,1033,369,1024,1024,1,-99,0,0,288.4,-89.9,0,99,4.236,4.226,4.237,4.236,0,0,9.459,76.46,192.67746909219,132.545936,6,P-GPS,
31600,2023-07-21 14:33:42,52.2070593301659,0.0868321898946386,132.545936,132.7427864,59.934682692188,192.67746909219,83.66142,4.3844024,90.925527844,141.03674992,21,5,16.806,198.91106509219,138.779532,19.3719004,90.925527844,-4.250186,-1.11847,0.671082,285.4, 2.2, -21.2,0,0,1034,369,1024,1024,2,-99,0,0,288.4,-89.9,0,99,4.236,4.226,4.237,4.236,0,0,9.459,76.46,192.67746909219,132.545936,6,P-GPS,
31800,2023-07-21 14:33:43,52.2070549060334,0.0868301729712172,132.545936,132.7427864,59.934682692188,192.67746909219,83.66142,5.9726298,92.480646004,142.712602992,20,5,16.806,198.91106509219,138.779532,19.3719004,92.480646004,-5.816044,-1.342164,0.447388,286, 0, -25.9,0,0,1040,371,1024,1024,2,-99,0,0,288.4,-89.9,0,99,4.236,4.226,4.237,4.236,0,0,9.459,76.46,192.67746909219,132.545936,6,P-GPS,
32000,2023-07-21 14:33:43,52.2070491800364,0.0868278886139889,132.87402,133.0708704,59.934682692188,193.00555309219,83.66142,7.5384878,94.456039768,144.863193612,21,5,16.806,198.91106509219,138.779532,19.3719004,94.456039768,-7.381902,-1.565858,0.223694,286.3, -1.5, -28.5,0,0,1033,372,1024,1024,1,-99,0,0,288.4,-89.9,0,99,4.236,4.226,4.237,4.236,0,0,9.459,76.46,193.00555309219,132.87402,6,P-GPS,
32200,2023-07-21 14:33:43,52.2070421817308,0.0868252337078592,133.202104,133.3989544,59.934682692188,193.33363709219,83.66142,9.1267152,96.862207824,147.484912856,21,5,16.806,198.91106509219,138.779532,19.3719004,96.862207824,-8.94776,-1.789552,0.447388,286.6, -2.8, -30.1,0,0,1035,372,1024,1024,2,-99,0,0,288.4,-90,0,99,4.236,4.226,4.237,4.236,0,0,9.459,76.46,193.33363709219,133.202104,6,P-GPS,
32400,2023-07-21 14:33:43,52.207033851525,0.0868220322190331,133.202104,133.3989544,59.934682692188,193.33363709219,83.66142,10.961006,99.7457381,150.607288284,20,5,16.958,198.91106509219,138.779532,19.3719004,99.7457381,-10.737312,-2.23694,0.447388,286.7, -3.7, -29.6,0,0,1030,373,1024,1024,1,-99,0,0,288.4,-89.9,0,99,4.187,4.189,4.188,4.181,0,0,6.791,76.64,193.33363709219,133.202104,6,P-GPS,
32600,2023-07-21 14:33:43,52.207024243048,0.08681821573031,133.530188,133.7270384,59.934682692188,193.66172109219,83.66142,12.5939722,103.104990176,154.215228032,20,5,16.958,198.91106509219,138.779532,19.3719004,103.104990176,-12.30317,-2.684328,0.223694,286.9, -4.5, -28.8,0,0,1024,477,1024,1024,0,-83,0,0,288.4,-90,0,99,4.187,4.189,4.188,4.181,0,0,6.791,76.64,193.66172109219,133.530188,6,P-GPS,
32800,2023-07-21 14:33:44,52.2070135121151,0.0868137997592812,134.186356,134.3832064,59.934682692188,194.31788909219,83.66142,13.7795504,106.89468846,158.25295782,20,5,16.958,198.91106509219,138.779532,19.3719004,106.89468846,-13.42164,-3.131716,0.223694,287, -5.2, -29.1,0,0,1024,1024,1024,1024,0,0,0,0,288.4,-89.9,0,99,4.187,4.189,4.188,4.181,0,0,6.791,76.64,194.31788909219,134.186356,6,P-GPS,
33000,2023-07-21 14:33:44,52.2070018624821,0.0868088374292331,134.51444,134.7112904,59.934682692188,194.64597309219,83.66142,14.9651286,111.049544236,162.645674496,21,5,16.958,198.91106509219,138.779532,19.3719004,111.049544236,-14.54011,-3.579104,0,286.7, -6.2, -18.3,0,0,1024,1024,1024,1024,0,0,0,0,288.4,-90,0,99,4.187,4.189,4.188,4.181,0,0,6.791,76.64,194.64597309219,134.51444,6,P-GPS,
