time(millisecond),datetime(utc),latitude,longitude,height_above_takeoff(feet),height_above_ground_at_drone_location(feet),ground_elevation_at_drone_location(feet),altitude_above_seaLevel(feet),height_sonar(feet),speed(mph),distance(feet),mileage(feet),satellites,gpslevel,voltage(v),max_altitude(feet),max_ascent(feet),max_speed(mph),max_distance(feet), xSpeed(mph), ySpeed(mph), zSpeed(mph), compass_heading(degrees), pitch(degrees), roll(degrees),isPhoto,isVideo,rc_elevator,rc_aileron,rc_throttle,rc_rudder,rc_elevator(percent),rc_aileron(percent),rc_throttle(percent),rc_rudder(percent),gimbal_heading(degrees),gimbal_pitch(degrees),gimbal_roll(degrees),battery_percent,voltageCell1,voltageCell2,voltageCell3,voltageCell4,voltageCell5,voltageCell6,current(A),battery_temperature(f),altitude(feet),ascent(feet),flycStateRaw,flycState,message
0,2023-07-16 20:15:21,52.206382142648,0.0867248385308883,0,0,53.794629674184,53.794629674184,0.328084,0,0,0,16,5,0,53.794629674184,0,0,0,0,0,0,272.4, 4.9, 0.8,0,0,1024,1024,1024,1024,0,0,0,0,272.4,0,0,81,4.089,4.087,4.087,4.082,0,0,0,71.96,53.794629674184,0,41,Motors_Started,
200,2023-07-16 20:15:21,52.2063821134605,0.0867248132989345,0,0,53.794629674184,53.794629674184,0.328084,0,0.0120510830628,0.0120510830628,16,5,0,53.794629674184,0,0,0.0120510830628,0,0,0,272.4, 4.9, 0.8,0,0,1024,1024,1024,1024,0,0,0,0,272.4,0,0,81,4.089,4.087,4.087,4.082,0,0,0,71.96,53.794629674184,0,41,Motors_Started,"Setting new Return-To-Home altitude to 26m (85 ft). Data Recorder File Index is 60. Setting new Maximum Flight Altitude to 120m (394 ft)"
400,2023-07-16 20:15:21,52.2063820971925,0.0867247760261264,0,0,53.794629674184,53.794629674184,0,0,0.0216875663108,0.0222823826028,16,5,0,53.794629674184,0,0,0.0216875663108,0,0,0,272.4, 4.9, 0.8,0,0,1024,1024,1024,1024,0,0,0,0,272.4,0,0,81,4.089,4.087,4.087,4.082,0,0,0,71.96,53.794629674184,0,41,Motors_Started,
600,2023-07-16 20:15:21,52.2063820870418,0.08672473484074,0,0,53.794629674184,53.794629674184,0,0,0.0308072188336,0.0322077110044,16,5,0,53.794629674184,0,0,0.0308072188336,0,0,0,272.4, 4.9, 0.8,0,0,1024,1024,1024,1024,0,0,0,0,272.4,0,0,81,4.089,4.087,4.087,4.082,0,0,0,71.96,53.794629674184,0,41,Motors_Started,
800,2023-07-16 20:15:21,52.2063820708953,0.0867246831220344,0,0,53.794629674184,53.794629674184,0,0,0.043505250736,0.0451853689,16,5,0,53.794629674184,0,0,0.043505250736,0,0,0,272.4, 4.9, 0.8,0,0,1024,1024,1024,1024,0,0,0,0,272.4,0,0,81,4.089,4.087,4.087,4.082,0,0,0,71.96,53.794629674184,0,41,Motors_Started,
1000,2023-07-16 20:15:22,52.2063820626271,0.0867246449719229,0,0,53.794629674184,53.794629674184,0,0,0.052204397996,0.054232941368,16,5,0,53.794629674184,0,0,0.052204397996,0,0,0,272.3, 4.9, 0.8,0,0,1024,1024,1024,1024,0,0,0,0,272.4,0,0,81,4.089,4.087,4.087,4.082,0,0,0,71.96,53.794629674184,0,41,Motors_Started,
1200,2023-07-16 20:15:22,52.2063820469952,0.0867246126247985,0,0,53.794629674184,53.794629674184,0,0,0.061393374668,0.063443571584,16,5,16.387,53.794629674184,0,0,0.061393374668,0,0,0,272.4, 4.9, 0.8,0,0,1024,1024,1024,1024,0,0,0,0,272.4,0,0,81,4.089,4.087,4.087,4.082,0,0,2.852,71.96,53.794629674184,0,41,Motors_Started,
1400,2023-07-16 20:15:22,52.2063820507919,0.0867245777764602,0,0,53.794629674184,53.794629674184,0,0,0.06724737748,0.071357285748,16,5,16.387,53.794629674184,0,0,0.06724737748,0,0,0,272.5, 4.9, 0.8,0,0,1024,1024,1024,1024,0,0,0,0,272.4,0,0,81,4.089,4.087,4.087,4.082,0,0,2.852,71.96,53.794629674184,0,41,Motors_Started,
1600,2023-07-16 20:15:22,52.206382053559,0.0867245340729453,0,0,53.794629674184,53.794629674184,0,0,0.0754347137,0.08118110496,16,5,16.387,53.794629674184,0,0,0.0754347137,0,0,0,272.7, 4.9, 0.8,0,0,1024,1024,1024,1024,0,0,0,0,272.4,0,0,81,4.089,4.087,4.087,4.082,0,0,2.852,71.96,53.794629674184,0,11,AutoTakeoff,
1800,2023-07-16 20:15:22,52.2063820529669,0.0867245053500103,0,0,53.794629674184,53.794629674184,0,0,0.081363847748,0.0876066301,16,5,16.387,53.794629674184,0,0,0.081363847748,0,0,0,272.8, 4.8, 0.7,0,0,1024,1024,1024,1024,0,0,0,0,272.4,0,0,81,4.089,4.087,4.087,4.082,0,0,2.852,71.96,53.794629674184,0,11,AutoTakeoff,
2000,2023-07-16 20:15:23,52.2063820598332,0.0867245556163343,0,0,53.794629674184,53.794629674184,0,0,0.07010170828,0.099121394248,16,5,16.387,53.794629674184,0,0,0.081363847748,0,0,0,272.9, 1.5, 0.8,0,0,1024,1024,1024,1024,0,0,0,0,272.4,0,0,81,4.089,4.087,4.087,4.082,0,0,2.852,71.96,53.794629674184,0,11,AutoTakeoff,
2200,2023-07-16 20:15:23,52.2063821433928,0.0867247122586621,0,0,53.794629674184,53.794629674184,0,0,0.02823408883,0.145554794684,16,5,16.467,53.794629674184,0,0,0.081363847748,0,0,-0.671082,273.1, -1.5, 0,0,0,1024,1024,1024,1024,0,0,0,0,272.4,0,0,81,4.098,4.09,4.088,4.082,0,0,3.782,71.96,53.794629674184,0,11,AutoTakeoff,
2400,2023-07-16 20:15:23,52.2063822460469,0.0867247211686919,0.328084,0.328084,53.794629674184,54.122713674184,0.328084,0,0.045953741628,0.18306102948,16,5,16.467,54.122713674184,0.328084,0,0.081363847748,0,0,-0.894776,273.2, 0.3, -0.5,0,0,1024,1024,1496,1024,0,0,72,0,272.5,0,0,81,4.098,4.09,4.088,4.082,0,0,3.782,71.96,54.122713674184,0.328084,11,AutoTakeoff,"Obstacle sensing not available at night. Adjust RTH altitude to above tallest surrounding building before flying"
2600,2023-07-16 20:15:23,52.2063823079627,0.086724721262139,0.656168,0.656168,53.794629674184,54.450797674184,0.656168,0,0.065767390556,0.205650925216,16,5,16.467,54.450797674184,0.656168,0,0.081363847748,0,0,-1.11847,273.1, 0.7, -0.4,0,0,1024,1024,1684,1024,0,0,100,0,272.5,0,0,81,4.098,4.09,4.088,4.082,0,0,3.782,71.96,54.450797674184,0.656168,11,AutoTakeoff,
2800,2023-07-16 20:15:23,52.2063823560439,0.0867248511551519,1.312336,1.312336,53.794629674184,55.106965674184,1.312336,0,0.07790846706,0.23958006016,16,5,16.467,55.106965674184,1.312336,0,0.081363847748,0,0,-2.013246,273.1, 0, -1,0,0,1024,1024,1684,1024,0,0,100,0,272.5,0,0,81,4.098,4.09,4.088,4.082,0,0,3.782,71.96,55.106965674184,1.312336,11,AutoTakeoff,
3000,2023-07-16 20:15:24,52.2063824182097,0.086725092418289,1.968504,1.968504,53.794629674184,55.763133674184,1.968504,0,0.115457024692,0.298097778568,16,5,16.467,55.763133674184,1.968504,0,0.115457024692,0,0,-3.802798,273.3, -1.1, -1.8,0,0,1024,1024,1684,1024,0,0,100,0,272.5,0,0,81,4.098,4.09,4.088,4.082,0,0,3.782,71.96,55.763133674184,1.968504,11,AutoTakeoff,
3200,2023-07-16 20:15:24,52.2063824356766,0.0867252497595652,3.608924,3.608924,53.794629674184,57.403553674184,3.608924,0,0.1410105032,0.33384843588,16,5,16.205,57.403553674184,3.608924,0,0.1410105032,0,0,-5.816044,273.6, -0.8, -1.3,0,0,1024,1024,1684,1024,0,0,100,0,272.6,0,0,81,4.004,4,3.996,3.986,0,0,5.999,71.78,57.403553674184,3.608924,11,AutoTakeoff,
3400,2023-07-16 20:15:24,52.2063823899539,0.0867253951325742,5.905512,5.905512,53.794629674184,59.700141674184,5.577428,0,0.153716868436,0.37038387012,16,5,16.205,59.700141674184,5.905512,0,0.153716868436,0,0,-7.82929,274.8, -0.8, -0.3,0,0,1024,1024,1684,1024,0,0,100,0,272.6,0,0,81,4.004,4,3.996,3.986,0,0,5.999,71.78,59.700141674184,5.905512,6,P-GPS,
3600,2023-07-16 20:15:24,52.2063823600302,0.0867255328486038,8.858268,8.858268,53.794629674184,62.652897674184,8.530184,0,0.174326777232,0.40305447484,15,5,16.205,62.652897674184,8.858268,0,0.174326777232,0,0,-10.06623,275.8, -1.3, -1,0,0,1024,1024,1684,1024,0,0,100,0,272.6,0,0,81,4.004,4,3.996,3.986,0,0,5.999,71.78,62.652897674184,8.858268,6,P-GPS,
3800,2023-07-16 20:15:24,52.2063823084365,0.0867255611896141,13.12336,13.12336,53.794629674184,66.917989674184,11.811024,0,0.17252789266,0.4229166802,16,5,16.205,66.917989674184,13.12336,0,0.174326777232,0,0,-12.079476,276.2, -1.7, -0.8,0,0,1024,1024,1684,1024,0,0,100,0,272.6,0,0,81,4.004,4,3.996,3.986,0,0,5.999,71.78,66.917989674184,13.12336,6,P-GPS,
4000,2023-07-16 20:15:25,52.2063822596164,0.0867254272404632,17.716536,17.716536,53.794629674184,71.511165674184,15.748032,0,0.138373035924,0.45776248184,16,5,16.205,71.511165674184,17.716536,0,0.174326777232,0,0,-13.42164,276.8, -1, -1.3,0,0,1024,1024,1684,1024,0,0,100,0,272.6,0,0,81,4.004,4,3.996,3.986,0,0,5.999,71.78,71.511165674184,17.716536,6,P-GPS,
4200,2023-07-16 20:15:25,52.2063821844353,0.0867252481550882,21.981628,21.981628,53.794629674184,75.776257674184,19.68504,0,0.092846787748,0.50629594796,15,5,15.778,75.776257674184,21.981628,0,0.174326777232,0,0,-13.645334,276.2, -0.5, -1,0,0,1024,1024,1684,1024,0,0,100,0,272.6,0,0,81,3.931,3.934,3.94,3.94,0,0,12.839,71.78,75.776257674184,21.981628,6,P-GPS,
4400,2023-07-16 20:15:25,52.2063820125781,0.0867250582943463,26.574804,26.574804,53.794629674184,80.369433674184,23.950132,0.223694,0.068311353892,0.58201773516,16,5,15.778,80.369433674184,26.574804,0.223694,0.174326777232,-0.223694,0,-13.42164,276.2, 0, 2.7,0,0,1024,1024,1684,1024,0,0,100,0,272.6,0,0,81,3.931,3.934,3.94,3.94,0,0,12.839,71.78,80.369433674184,26.574804,6,P-GPS,
4600,2023-07-16 20:15:25,52.206382064695,0.0867249577451657,30.511812,30.511812,53.794629674184,84.306441674184,27.88714,0,0.038979003872,0.61145999332,17,5,15.778,84.306441674184,30.511812,0.223694,0.174326777232,0,0,-13.42164,276.1, -1, 6.9,0,0,1024,1024,1684,1024,0,0,100,0,272.6,0,0,81,3.931,3.934,3.94,3.94,0,0,12.839,71.78,84.306441674184,30.511812,6,P-GPS,
4800,2023-07-16 20:15:25,52.2063826993277,0.0867249022367316,35.104988,35.104988,53.794629674184,88.899617674184,32.152232,0.223694,0.203603024888,0.843339922,20,5,15.778,88.899617674184,35.104988,0.223694,0.203603024888,0.223694,0,-13.197946,276.5, 0.2, 4.3,0,0,1024,1024,1684,1024,0,0,100,0,272.6,-1.1,0,81,3.931,3.934,3.94,3.94,0,0,12.839,71.78,88.899617674184,35.104988,6,P-GPS,
5000,2023-07-16 20:15:26,52.2063838529906,0.0867247929770398,39.041996,39.041996,53.794629674184,92.836625674184,36.417324,0.671082,0.62410106984,1.2649606704,19,5,15.778,92.836625674184,39.041996,0.671082,0.62410106984,0.671082,0,-13.197946,273.4, 0.9, -0.4,0,0,1024,1024,1684,1024,0,0,100,0,272.6,-3.6,0,81,3.931,3.934,3.94,3.94,0,0,12.839,71.78,92.836625674184,39.041996,6,P-GPS,
5200,2023-07-16 20:15:26,52.2063852832241,0.0867251172000246,42.979004,42.979004,53.794629674184,96.773633674184,40.354332,0.9171454,1.14752956428,1.79179139592,19,5,15.937,96.773633674184,42.979004,0.9171454,1.14752956428,0.894776,0.223694,-13.197946,275.3, 0, -6.3,0,0,1024,1024,1684,1024,0,0,100,0,272.6,-6.5,0,81,3.982,3.979,3.98,3.978,0,0,12.652,71.96,96.773633674184,42.979004,6,P-GPS,
5400,2023-07-16 20:15:26,52.2063865767462,0.0867255784708618,47.244096,47.244096,53.794629674184,101.03872567418,44.29134,0.9171454,1.6262139628,2.2748688392,20,5,15.937,101.03872567418,47.244096,0.9171454,1.6262139628,0.894776,0.223694,-12.974252,278.4, -2, -14.4,0,0,1024,1024,1684,1024,0,0,100,0,272.6,-9.4,0,81,3.982,3.979,3.98,3.978,0,0,12.652,71.96,101.03872567418,47.244096,6,P-GPS,
5600,2023-07-16 20:15:26,52.20638718291,0.0867258573625236,51.837272,51.837272,53.794629674184,105.63190167418,44.29134,0,1.85299218528,2.50465231112,20,5,15.937,105.63190167418,51.837272,0.9171454,1.85299218528,0,0,-13.197946,279.8, -2.1, -12.8,0,0,1024,1024,1684,1024,0,0,100,0,272.6,-12.3,0,81,3.982,3.979,3.98,3.978,0,0,12.652,71.96,105.63190167418,51.837272,6,P-GPS,
5800,2023-07-16 20:15:26,52.2063871652836,0.0867259216486362,56.102364,56.102364,53.794629674184,109.89699367418,47.900264,0.223694,1.84843837936,2.52039706228,20,5,15.937,109.89699367418,56.102364,0.9171454,1.85299218528,-0.223694,0,-13.42164,280.5, -3, -7.3,0,0,1024,1024,1684,1024,0,0,100,0,272.6,-15.3,0,81,3.982,3.979,3.98,3.978,0,0,12.652,71.96,109.89699367418,56.102364,6,P-GPS,
6000,2023-07-16 20:15:27,52.2063869530511,0.0867258006450627,60.69554,60.69554,53.794629674184,114.49016967418,52.165356,0.447388,1.76820543716,2.60242134312,20,5,15.937,114.49016967418,60.69554,0.9171454,1.85299218528,-0.447388,0,-13.42164,280, -2.2, -3.8,0,0,1024,1024,1684,1024,0,0,100,0,272.6,-18.2,0,81,3.982,3.979,3.98,3.978,0,0,12.652,71.96,114.49016967418,60.69554,6,P-GPS,
6200,2023-07-16 20:15:27,52.2063868436109,0.0867255747932663,64.632548,64.632548,53.794629674184,118.42717767418,56.430448,0.223694,1.72302498952,2.6667979856,20,5,15.766,118.42717767418,64.632548,0.9171454,1.85299218528,-0.223694,0,-13.42164,282.9, -0.5, -2.6,0,0,1024,1024,1684,1024,0,0,100,0,272.6,-21.1,0,81,3.942,3.95,3.947,3.945,0,0,12.268,71.96,118.42717767418,64.632548,6,P-GPS,
6400,2023-07-16 20:15:27,52.2063869666447,0.0867254952884307,68.241472,68.241472,53.794629674184,122.03610167418,60.69554,0,1.76614835048,2.71507882704,20,5,15.766,122.03610167418,68.241472,0.9171454,1.85299218528,0,0,-13.42164,282.3, -1, -3.5,0,0,1024,1024,1684,1024,0,0,100,0,272.6,-24,0,81,3.942,3.95,3.947,3.945,0,0,12.268,71.96,122.03610167418,68.241472,6,P-GPS,
6600,2023-07-16 20:15:27,52.2063872769908,0.0867255279009475,71.850396,71.850396,53.794629674184,125.64502567418,64.632548,0,1.879593236,2.8285433976,19,5,15.766,125.64502567418,71.850396,0.9171454,1.879593236,0,0,-13.197946,281.7, -0.4, -5.3,0,0,1024,1024,1684,1024,0,0,100,0,272.6,-26.9,0,81,3.942,3.95,3.947,3.945,0,0,12.268,71.96,125.64502567418,71.850396,6,P-GPS,
6800,2023-07-16 20:15:27,52.2063875860347,0.0867256692773713,75.45932,75.45932,53.794629674184,129.25394967418,68.89764,0,1.99468182236,2.94564313888,20,5,15.766,129.25394967418,75.45932,0.9171454,1.99468182236,0,0,-13.197946,281.2, -1.8, -5.5,0,0,1024,1024,1684,1024,0,0,100,0,272.6,-29.8,0,81,3.942,3.95,3.947,3.945,0,0,12.268,71.96,129.25394967418,75.45932,6,P-GPS,
7000,2023-07-16 20:15:28,52.2063878161913,0.0867258234567378,79.068244,79.068244,53.794629674184,132.86287367418,72.506564,0.223694,2.08167001412,3.03641742,20,5,15.766,132.86287367418,79.068244,0.9171454,2.08167001412,-0.223694,0,-13.42164,281.2, -2.1, -4.8,0,0,1024,1024,1038,1024,0,0,2,0,272.6,-32.7,0,81,3.942,3.95,3.947,3.945,0,0,12.268,71.96,132.86287367418,79.068244,6,P-GPS,
7200,2023-07-16 20:15:28,52.2063880551953,0.0867259208694966,83.005252,83.005252,53.794629674184,136.79988167418,76.115488,0,2.17072185424,3.1262960318,19,5,15.85,136.79988167418,83.005252,0.9171454,2.17072185424,0,0,-12.974252,281.2, -2.1, -5.3,0,0,1024,1024,1024,1024,0,0,0,0,272.6,-35.6,0,81,3.948,3.947,3.947,3.945,0,0,12.702,72.14,136.79988167418,83.005252,6,P-GPS,
7400,2023-07-16 20:15:28,52.2063883820884,0.0867259734053895,86.286092,86.286092,53.794629674184,140.08072167418,79.396328,0,2.29055453524,3.24613855532,19,5,15.85,140.08072167418,86.286092,0.9171454,2.29055453524,0,0,-10.961006,281.2, -2.1, -6.7,0,0,1024,1024,1024,1024,0,0,0,0,272.6,-38.5,0,81,3.948,3.947,3.947,3.945,0,0,12.702,72.14,140.08072167418,86.286092,6,P-GPS,
7600,2023-07-16 20:15:28,52.2063887421044,0.0867260001146737,88.58268,88.58268,53.794629674184,142.37730967418,82.021,0,2.42177501188,3.37762478,22,5,15.85,142.37730967418,88.58268,0.9171454,2.42177501188,0,0,-8.724066,281.2, -1.4, -6.8,0,0,1024,1024,1024,1024,0,0,0,0,272.6,-41.5,0,81,3.948,3.947,3.947,3.945,0,0,12.702,72.14,142.37730967418,88.58268,6,P-GPS,
7800,2023-07-16 20:15:28,52.2063890805072,0.0867260679098631,89.566932,89.566932,53.794629674184,143.36156167418,83.66142,0,2.54615493712,3.5020342328,22,5,15.85,143.36156167418,89.566932,0.9171454,2.54615493712,0,0,-6.263432,281.1, -1.3, -6.5,0,0,1024,1024,1024,1024,0,0,0,0,272.6,-44.4,0,81,3.948,3.947,3.947,3.945,0,0,12.702,72.14,143.36156167418,89.566932,6,P-GPS,
8000,2023-07-16 20:15:29,52.2063894229953,0.0867261773408551,90.2231,90.2231,53.794629674184,144.01772967418,83.66142,0,2.67304470496,3.6293636332,22,5,15.85,144.01772967418,90.2231,0.9171454,2.67304470496,0,0,-3.802798,281.3, -1.8, -6.9,0,0,1024,1024,1024,1024,0,0,0,0,272.6,-47.3,0,81,3.948,3.947,3.947,3.945,0,0,12.702,72.14,144.01772967418,90.2231,6,P-GPS,
8200,2023-07-16 20:15:29,52.2063897746082,0.0867263353287112,90.879268,90.879268,53.794629674184,144.67389767418,83.66142,0,2.80455389552,3.7624016952,22,5,16.059,144.67389767418,90.879268,0.9171454,2.80455389552,0,0,-1.565858,281.6, -2.7, -9.5,0,0,1024,1024,1024,1024,0,0,0,0,272.6,-50.2,0,81,4.061,4.058,4.061,4.059,0,0,10.119,72.5,144.67389767418,90.879268,6,P-GPS,
8400,2023-07-16 20:15:29,52.2063900284769,0.0867264704339571,91.207352,91.207352,53.794629674184,145.00198167418,83.66142,0,2.90018381984,3.8598426432,22,5,16.059,145.00198167418,91.207352,0.9171454,2.90018381984,0,0,-0.223694,281.7, -3.2, -11.6,0,0,1024,1024,1024,1024,0,0,0,0,272.6,-53,0,81,4.061,4.058,4.061,4.059,0,0,10.119,72.5,145.00198167418,91.207352,6,P-GPS,
8600,2023-07-16 20:15:29,52.2063899869606,0.086726424446375,90.879268,90.879268,53.794629674184,144.67389767418,83.66142,0,2.8838747642,3.8781497304,22,5,16.059,145.00198167418,91.207352,0.9171454,2.90018381984,0,0,0,281.6, -3.6, -12.6,0,0,1024,1024,1024,1024,0,0,0,0,272.6,-55.4,0,81,4.061,4.058,4.061,4.059,0,0,10.119,72.5,144.67389767418,90.879268,6,P-GPS,
8800,2023-07-16 20:15:29,52.2063895580516,0.0867261682549345,90.879268,90.879268,53.794629674184,144.67389767418,83.66142,0.223694,2.72179142568,4.044783594,22,5,16.059,145.00198167418,91.207352,0.9171454,2.90018381984,-0.223694,0,0,281.6, -4.2, -11.9,0,0,1024,1024,1024,1024,0,0,0,0,272.6,-56.5,0,81,4.061,4.058,4.061,4.059,0,0,10.119,72.5,144.67389767418,90.879268,6,P-GPS,"Home Point updated (Code: 3000001)"
9000,2023-07-16 20:15:30,52.2063888340317,0.0867257406168047,90.879268,90.879268,53.794629674184,144.67389767418,83.66142,0.447388,2.44966543272,4.3257219232,22,5,16.059,145.00198167418,91.207352,0.9171454,2.90018381984,-0.447388,0,0,281.7, -4.1, -9.5,0,0,1024,1024,1024,1024,0,0,0,0,272.6,-56.6,0,81,4.061,4.058,4.061,4.059,0,0,10.119,72.5,144.67389767418,90.879268,6,P-GPS,
9200,2023-07-16 20:15:30,52.2063879604945,0.0867251462088708,90.879268,90.879268,53.794629674184,144.67389767418,83.66142,0.7158208,2.1237533488,4.6710303332,22,5,16.133,145.00198167418,91.207352,0.9171454,2.90018381984,-0.671082,-0.223694,0,281.6, -3, -6.9,0,0,1024,1024,1024,1024,0,0,0,0,272.6,-56.6,0,80,4.022,4.021,4.018,4.012,0,0,5.092,72.5,144.67389767418,90.879268,6,P-GPS,
9400,2023-07-16 20:15:30,52.2063870579294,0.0867245011334935,90.879268,90.879268,53.794629674184,144.67389767418,83.66142,0.7158208,1.79492459812,5.030511972,22,5,16.133,145.00198167418,91.207352,0.9171454,2.90018381984,-0.671082,-0.223694,0,281.5, -1.8, -4.3,0,0,1024,1024,1024,1024,0,0,0,0,272.6,-56.8,0,80,4.022,4.021,4.018,4.012,0,0,5.092,72.5,144.67389767418,90.879268,6,P-GPS,
9600,2023-07-16 20:15:30,52.2063862527776,0.0867239124363282,90.879268,90.879268,53.794629674184,144.67389767418,83.66142,0.4921268,1.51380582272,5.3524279928,22,5,16.133,145.00198167418,91.207352,0.9171454,2.90018381984,-0.447388,-0.223694,0,281.5, -1.4, -2.5,0,0,1024,1024,1024,1024,0,0,0,0,272.6,-58.6,0,80,4.022,4.021,4.018,4.012,0,0,5.092,72.5,144.67389767418,90.879268,6,P-GPS,
9800,2023-07-16 20:15:30,52.2063856518402,0.0867234551498849,90.879268,90.879268,53.794629674184,144.67389767418,83.66142,0.223694,1.3171588348,5.5943571344,22,5,16.133,145.00198167418,91.207352,0.9171454,2.90018381984,-0.223694,0,0,281.3, -1.1, -2.3,0,0,1024,1024,1024,1024,0,0,0,0,272.6,-61.3,0,80,4.022,4.021,4.018,4.012,0,0,5.092,72.5,144.67389767418,90.879268,6,P-GPS,
10000,2023-07-16 20:15:31,52.2063852559246,0.0867231888459031,90.879268,90.879268,53.794629674184,144.67389767418,83.66142,0,1.19426184924,5.7505907352,22,5,16.133,145.00198167418,91.207352,0.9171454,2.90018381984,0,0,0,281.2, -1.6, -1.7,0,0,1024,1024,1024,1024,0,0,0,0,272.6,-64.2,0,80,4.022,4.021,4.018,4.012,0,0,5.092,72.5,144.67389767418,90.879268,6,P-GPS,
10200,2023-07-16 20:15:31,52.2063850206766,0.086722951618003,91.207352,91.207352,53.794629674184,145.00198167418,83.66142,0,1.13163061364,5.8514765652,22,5,16.081,145.00198167418,91.207352,0.9171454,2.90018381984,0,0,0,281.2, -1.7, -1.9,0,0,1024,1024,1024,1024,0,0,0,0,272.6,-67.1,0,80,4.024,4.019,4.02,4.018,0,0,7.216,72.68,145.00198167418,91.207352,6,P-GPS,
10400,2023-07-16 20:15:31,52.206384925534,0.0867227502116284,91.207352,91.207352,53.794629674184,145.00198167418,83.66142,0,1.11754924836,5.9083335224,22,5,16.081,145.00198167418,91.207352,0.9171454,2.90018381984,0,0,0,281.4, -1.4, -2.2,0,0,1024,1024,1024,1024,0,0,0,0,272.6,-70,0,80,4.024,4.019,4.02,4.018,0,0,7.216,72.68,145.00198167418,91.207352,6,P-GPS,
10600,2023-07-16 20:15:31,52.2063849880832,0.0867226552282473,91.207352,91.207352,53.794629674184,145.00198167418,83.66142,0.223694,1.14719819944,5.9395015024,22,5,16.081,145.00198167418,91.207352,0.9171454,2.90018381984,0.223694,0,0,281.4, -1.8, -2.6,0,0,1024,1024,1024,1024,0,0,0,0,272.6,-72.9,0,80,4.024,4.019,4.02,4.018,0,0,7.216,72.68,145.00198167418,91.207352,6,P-GPS,
10800,2023-07-16 20:15:31,52.2063852106768,0.0867226492664208,91.207352,91.207352,53.794629674184,145.00198167418,83.66142,0.223694,1.22171591836,6.0207351008,22,5,16.081,145.00198167418,91.207352,0.9171454,2.90018381984,0.223694,0,0,281.4, -1.9, -3.6,0,0,1024,1024,1024,1024,0,0,0,0,272.6,-75.8,0,80,4.024,4.019,4.02,4.018,0,0,7.216,72.68,145.00198167418,91.207352,6,P-GPS,
11000,2023-07-16 20:15:32,52.2063855215439,0.0867226852968745,91.207352,91.207352,53.794629674184,145.00198167418,83.66142,0.223694,1.32346132844,6.1344490152,22,5,16.081,145.00198167418,91.207352,0.9171454,2.90018381984,0.223694,0,0,281.3, -2.2, -4.2,0,0,1024,1024,1024,1024,0,0,0,0,272.6,-78.7,0,80,4.024,4.019,4.02,4.018,0,0,7.216,72.68,145.00198167418,91.207352,6,P-GPS,
11200,2023-07-16 20:15:32,52.2063858618554,0.0867227321695347,91.207352,91.207352,53.794629674184,145.00198167418,83.66142,0.223694,1.43635503284,6.2590553184,22,5,16.106,145.00198167418,91.207352,0.9171454,2.90018381984,0.223694,0,0,281.3, -2.3, -4.4,0,0,1024,1024,1024,1024,0,0,0,0,272.6,-81.6,0,80,4.027,4.027,4.027,4.022,0,0,6.762,72.68,145.00198167418,91.207352,6,P-GPS,
11400,2023-07-16 20:15:32,52.2063861836004,0.0867227896467495,91.207352,91.207352,53.794629674184,145.00198167418,83.66142,0.223694,1.54387144048,6.37713275,22,5,16.106,145.00198167418,91.207352,0.9171454,2.90018381984,0.223694,0,0,281.3, -2.6, -4.3,0,0,1024,1024,1024,1024,0,0,0,0,272.6,-84.5,0,80,4.027,4.027,4.027,4.022,0,0,6.762,72.68,145.00198167418,91.207352,6,P-GPS,
11600,2023-07-16 20:15:32,52.2063864974476,0.0867228871682864,91.207352,91.207352,53.794629674184,145.00198167418,83.66142,0.223694,1.64766081388,6.4937009952,22,5,16.106,145.00198167418,91.207352,0.9171454,2.90018381984,0.223694,0,0,281.3, -2.8, -4.8,0,0,1024,1024,1024,1024,0,0,0,0,272.6,-87.4,0,80,4.027,4.027,4.027,4.022,0,0,6.762,72.68,145.00198167418,91.207352,6,P-GPS,
11800,2023-07-16 20:15:32,52.2063868356662,0.0867229878369618,90.879268,90.879268,53.794629674184,144.67389767418,83.66142,0.223694,1.76153548944,6.6191275084,22,5,16.106,145.00198167418,91.207352,0.9171454,2.90018381984,0.223694,0,0,281.3, -3.1, -5.2,0,0,1024,1024,1024,1024,0,0,0,0,272.6,-89.9,0,80,4.027,4.027,4.027,4.022,0,0,6.762,72.68,144.67389767418,90.879268,6,P-GPS,
12000,2023-07-16 20:15:33,52.2063871572639,0.0867230219480717,90.879268,90.879268,53.794629674184,144.67389767418,83.66142,0.223694,1.87412079488,6.736712814,22,5,16.106,145.00198167418,91.207352,0.9171454,2.90018381984,0.223694,0,0,281.4, -3, -4.6,0,0,1024,1024,1024,1024,0,0,0,0,272.6,-90,0,80,4.027,4.027,4.027,4.022,0,0,6.762,72.68,144.67389767418,90.879268,6,P-GPS,
12200,2023-07-16 20:15:33,52.2063875640895,0.0867230286265668,91.207352,91.207352,53.794629674184,145.00198167418,83.66142,0.447388,2.0189797234,6.885170824,22,5,16.101,145.00198167418,91.207352,0.9171454,2.90018381984,0.447388,0,0,281.6, -2.5, -6.3,0,0,1024,1024,1180,1024,0,0,24,0,272.6,-90,0,80,4.029,4.024,4.027,4.018,0,0,6.548,72.86,145.00198167418,91.207352,6,P-GPS,
12400,2023-07-16 20:15:33,52.2063880248192,0.0867230406585611,91.207352,91.207352,53.794629674184,145.00198167418,83.66142,0.447388,2.18342854756,7.0532810656,22,5,16.101,145.00198167418,91.207352,0.9171454,2.90018381984,0.447388,0,0,281.3, -1.2, -7.9,0,0,1024,1024,1684,1024,0,0,100,0,272.6,-89.9,0,80,4.029,4.024,4.027,4.018,0,0,6.548,72.86,145.00198167418,91.207352,6,P-GPS,
12600,2023-07-16 20:15:33,52.2063883773349,0.0867230956963504,91.207352,91.207352,53.794629674184,145.00198167418,83.66142,0.223694,2.3078576854,7.1824805448,22,5,16.101,145.00198167418,91.207352,0.9171454,2.90018381984,0.223694,0,-1.11847,281.3, -0.6, -6.2,0,0,1024,1024,1684,1024,0,0,100,0,272.6,-89.9,0,80,4.029,4.024,4.027,4.018,0,0,6.548,72.86,145.00198167418,91.207352,6,P-GPS,
12800,2023-07-16 20:15:33,52.2063886509824,0.0867233099595107,92.191604,92.191604,53.794629674184,145.98623367418,83.66142,0,2.399032229,7.2932088948,22,5,16.101,145.98623367418,92.191604,0.9171454,2.90018381984,0,0,-3.35541,281.2, -2.2, -5.6,0,0,1024,1024,1684,1024,0,0,100,0,272.6,-89.9,0,80,4.029,4.024,4.027,4.018,0,0,6.548,72.86,145.98623367418,92.191604,6,P-GPS,
13000,2023-07-16 20:15:34,52.2063889302135,0.0867235597082512,93.50394,93.50394,53.794629674184,147.29856967418,83.66142,0,2.49289049972,7.4093834392,22,5,16.101,147.29856967418,93.50394,0.9171454,2.90018381984,0,0,-5.59235,281.6, -4.1, -6,0,0,1024,1024,1684,1024,0,0,100,0,272.6,-89.9,0,80,4.029,4.024,4.027,4.018,0,0,6.548,72.86,147.29856967418,93.50394,6,P-GPS,
13200,2023-07-16 20:15:34,52.2063892417686,0.0867235714628395,95.472444,95.472444,53.794629674184,149.26707367418,83.66142,0,2.60555782616,7.5230973536,22,5,16.06,149.26707367418,95.472444,0.9171454,2.90018381984,0,0,-7.605596,281.3, -1.7, -7.4,0,0,1024,1024,1024,1024,0,0,0,0,272.6,-90,0,80,3.931,3.94,3.94,3.928,0,0,7.451,72.68,149.26707367418,95.472444,6,P-GPS,
13400,2023-07-16 20:15:34,52.2063894120457,0.086723475642544,98.097116,98.097116,53.794629674184,151.89174567418,83.66142,0.223694,2.66968184396,7.5888125788,22,5,16.06,151.89174567418,98.097116,0.9171454,2.90018381984,-0.223694,0,-8.500372,281, -2.1, -4.4,0,0,1024,1024,1046,1024,0,0,3,0,272.6,-89.9,0,80,3.931,3.94,3.94,3.928,0,0,7.451,72.68,151.89174567418,98.097116,6,P-GPS,
13600,2023-07-16 20:15:34,52.2063896824999,0.0867234906322979,100.393704,100.393704,53.794629674184,154.18833367418,83.66142,0,2.76736885496,7.6875330544,22,5,16.06,154.18833367418,100.393704,0.9171454,2.90018381984,0,0,-6.71082,281.3, -3.7, -2.3,0,0,1024,1024,1684,1024,0,0,100,0,272.6,-90,0,80,3.931,3.94,3.94,3.928,0,0,7.451,72.68,154.18833367418,100.393704,6,P-GPS,
13800,2023-07-16 20:15:34,52.2063902208106,0.086723556864512,102.034124,102.034124,53.794629674184,155.82875367418,83.66142,0,2.96121072468,7.884514688,22,5,16.06,155.82875367418,102.034124,0.9171454,2.96121072468,0,0,-6.263432,281.5, -1.9, 1.9,0,0,1024,1024,1684,1024,0,0,100,0,272.6,-90,0,80,3.931,3.94,3.94,3.928,0,0,7.451,72.68,155.82875367418,102.034124,6,P-GPS,
14000,2023-07-16 20:15:35,52.2063912524951,0.0867238200210277,104.330712,104.2979036,53.827438074184,158.12534167418,83.66142,0.671082,3.331528978,8.2654858288,22,5,16.06,158.12534167418,104.330712,0.9171454,3.331528978,0.671082,0,-8.276678,281.7, -1, -2.2,0,0,1024,1024,1684,1024,0,0,100,0,272.6,-90,0,80,3.931,3.94,3.94,3.928,0,0,7.451,72.68,158.12534167418,104.330712,6,P-GPS,
14200,2023-07-16 20:15:35,52.2063925533543,0.0867244003261151,107.283468,107.2506596,53.827438074184,161.07809767418,83.66142,0.7158208,3.7996064208,8.7575134036,22,5,16.056,161.07809767418,107.283468,0.9171454,3.7996064208,0.671082,0.223694,-10.289924,282.2, -2, -10.2,0,0,1024,1024,1684,1024,0,0,100,0,272.6,-89.9,0,80,3.95,3.947,3.946,3.916,0,0,11.299,73.04,161.07809767418,107.283468,6,P-GPS,
14400,2023-07-16 20:15:35,52.2063933870971,0.0867249018315474,110.892392,110.8595836,53.827438074184,164.68702167418,83.66142,0,4.1025591864,9.0817260124,22,5,16.056,164.68702167418,110.892392,0.9171454,4.1025591864,0,0,-12.30317,282, -3.8, -7.5,0,0,1024,1024,1684,1024,0,0,100,0,272.6,-89.9,0,80,3.95,3.947,3.946,3.916,0,0,11.299,73.04,164.68702167418,110.892392,6,P-GPS,
14600,2023-07-16 20:15:35,52.2063939232178,0.0867251603662701,115.157484,115.0918672,53.860246474184,168.95211367418,83.66142,0,4.29872061,9.2856630268,22,5,16.056,168.95211367418,115.157484,0.9171454,4.29872061,0,0,-13.42164,282.8, -5.6, -3.7,0,0,1024,1024,1620,1024,0,0,90,0,272.6,-89.9,0,80,3.95,3.947,3.946,3.916,0,0,11.299,73.04,168.95211367418,115.157484,6,P-GPS,
14800,2023-07-16 20:15:35,52.2063945618384,0.0867252122312556,119.094492,119.0288752,53.860246474184,172.88912167418,83.66142,0,4.5318899088,9.5189635592,22,5,16.056,172.88912167418,119.094492,0.9171454,4.5318899088,0,0,-13.42164,282.7, -4, -2.8,0,0,1024,1024,1024,1024,0,0,0,0,272.6,-89.9,0,80,3.95,3.947,3.946,3.916,0,0,11.299,73.04,172.88912167418,119.094492,6,P-GPS,
15000,2023-07-16 20:15:36,52.2063954268964,0.086725286446046,122.703416,122.6377992,53.860246474184,176.49804567418,83.66142,0.223694,4.847769184,9.8350068764,22,5,16.056,176.49804567418,122.703416,0.9171454,4.847769184,0.223694,0,-12.079476,282.9, -4.1, -5.3,0,0,1024,1024,1024,1024,0,0,0,0,272.6,-89.9,0,80,3.95,3.947,3.946,3.916,0,0,11.299,73.04,176.49804567418,122.703416,6,P-GPS,
15200,2023-07-16 20:15:36,52.2063964579288,0.0867254116252352,125.984256,125.8858308,53.893054874184,179.77888567418,83.66142,0.447388,5.2245080412,10.2122378596,22,5,15.555,179.77888567418,125.984256,0.9171454,5.2245080412,0.447388,0,-9.618842,282.9, -2.5, -9,0,0,1024,1024,1024,1024,0,0,0,0,272.6,-90,0,80,4.008,4.006,4.011,4.009,0,0,14.409,72.68,179.77888567418,125.984256,6,P-GPS,
15400,2023-07-16 20:15:36,52.2063975003874,0.0867255513271752,127.95276,127.8543348,53.893054874184,181.74738967418,83.66142,0.447388,5.6055119904,10.5938651684,22,5,15.555,181.74738967418,127.95276,0.9171454,5.6055119904,0.447388,0,-7.158208,282.9, -1.9, -11.3,0,0,1024,1024,1024,1024,0,0,0,0,272.6,-89.9,0,80,4.008,4.006,4.011,4.009,0,0,14.409,72.68,181.74738967418,127.95276,6,P-GPS,
15600,2023-07-16 20:15:36,52.2063984720318,0.0867257111282181,129.265096,129.1666708,53.893054874184,183.05972567418,83.66142,0.223694,5.960958196,10.9501643924,22,5,15.555,183.05972567418,129.265096,0.9171454,5.960958196,0.223694,0,-4.697574,282.9, -2.6, -12.7,0,0,1024,1024,1024,1024,0,0,0,0,272.6,-90,0,80,4.008,4.006,4.011,4.009,0,0,14.409,72.68,183.05972567418,129.265096,6,P-GPS,
15800,2023-07-16 20:15:36,52.2063993631365,0.0867258350875854,129.921264,129.7900304,53.925863274184,183.71589367418,83.66142,0.223694,6.2868440332,11.2764439304,22,5,15.555,183.71589367418,129.921264,0.9171454,6.2868440332,0.223694,0,-2.23694,283, -2.5, -14.4,0,0,1024,1024,1024,1024,0,0,0,0,272.6,-89.9,0,80,4.008,4.006,4.011,4.009,0,0,14.409,72.68,183.71589367418,129.921264,6,P-GPS,
16000,2023-07-16 20:15:37,52.2064000950701,0.0867258999482779,130.249348,130.1181144,53.925863274184,184.04397767418,83.66142,0,6.5542324932,11.5438980072,22,5,15.555,184.04397767418,130.249348,0.9171454,6.5542324932,0,0,-0.447388,282.9, -2, -13.9,0,0,1024,1024,1068,1024,0,0,7,0,272.6,-90,0,80,4.008,4.006,4.011,4.009,0,0,14.409,72.68,184.04397767418,130.249348,6,P-GPS,
16200,2023-07-16 20:15:37,52.2064005781776,0.0867258800480008,130.577432,130.4461984,53.925863274184,184.37206167418,83.66142,0,6.7302167508,11.7202103488,22,5,16.155,184.37206167418,130.577432,0.9171454,6.7302167508,0,0,0,283.2, -0.6, -17.8,0,0,1024,1024,1024,1024,0,0,0,0,272.6,-89.9,0,80,4.038,4.03,4.025,4.02,0,0,6.015,73.22,184.37206167418,130.577432,6,P-GPS,
16400,2023-07-16 20:15:37,52.2064005103469,0.0867258156733149,130.577432,130.4461984,53.925863274184,184.37206167418,83.66142,0.447388,6.7050198996,11.748852082,22,5,16.155,184.37206167418,130.577432,0.9171454,6.7302167508,-0.447388,0,0,282.9, -0.1, -20.6,0,0,1684,1024,1024,1024,100,0,0,0,272.6,-90,0,80,4.038,4.03,4.025,4.02,0,0,6.015,73.22,184.37206167418,130.577432,6,P-GPS,
16600,2023-07-16 20:15:37,52.206399752704,0.0867257192071767,130.577432,130.4461984,53.925863274184,184.37206167418,83.66142,0.671082,6.4280513868,12.0261158704,22,5,16.155,184.37206167418,130.577432,0.9171454,6.7302167508,-0.671082,0,0,281.4, -12.4, 2.5,0,0,1684,1024,1024,1024,100,0,0,0,272.6,-89.9,0,80,4.038,4.03,4.025,4.02,0,0,6.015,73.22,184.37206167418,130.577432,6,P-GPS,
16800,2023-07-16 20:15:37,52.2063994731035,0.086724867738301,130.577432,130.4461984,53.925863274184,184.37206167418,83.66142,1.1408394,6.32299889,12.2420935676,22,5,16.155,184.37206167418,130.577432,1.1408394,6.7302167508,0.223694,-1.11847,0,283.2, -28.7, -0.3,0,0,1684,1024,1024,1024,100,0,0,0,272.6,-90,0,80,4.038,4.03,4.025,4.02,0,0,6.015,73.22,184.37206167418,130.577432,6,P-GPS,
17000,2023-07-16 20:15:38,52.20640006122,0.0867219772392202,130.577432,130.4461984,53.925863274184,184.37206167418,83.66142,3.1988242,6.5687994228,12.923064718,22,5,16.155,184.37206167418,130.577432,3.1988242,6.7302167508,1.342164,-2.908022,0,286.3, -28, -3.8,0,0,1684,1024,1024,1024,100,0,0,0,272.6,-90,0,80,4.038,4.03,4.025,4.02,0,0,6.015,73.22,184.37206167418,130.577432,6,P-GPS,
17200,2023-07-16 20:15:38,52.2064012620123,0.0867163072235312,130.577432,130.4461984,53.925863274184,184.37206167418,83.66142,5.3239172,7.23179157,14.2643705352,22,5,15.947,184.37206167418,130.577432,5.3239172,7.23179157,2.013246,-4.921268,0,286.7, -28, -6.4,0,0,1684,1024,1024,1024,100,0,0,0,272.6,-90,0,80,3.986,3.981,3.982,3.978,0,0,6.52,73.22,184.37206167418,130.577432,6,P-GPS,
17400,2023-07-16 20:15:38,52.206402677622,0.086708209784021,130.577432,130.41339,53.958671674184,184.37206167418,83.66142,7.0687304,8.3639766456,16.1470805692,22,5,15.947,184.37206167418,130.577432,7.0687304,8.3639766456,2.23694,-6.71082,0,284.8, -28.4, -7,0,0,1684,1024,1024,1024,100,0,0,0,272.6,-89.9,0,80,3.986,3.981,3.982,3.978,0,0,6.52,73.22,184.37206167418,130.577432,6,P-GPS,
17600,2023-07-16 20:15:38,52.2064044481162,0.0866980084387874,130.577432,130.41339,53.958671674184,184.37206167418,83.66142,9.059607,10.1101709272,18.5176515112,22,5,15.947,184.37206167418,130.577432,9.059607,10.1101709272,2.460634,-8.724066,0,284.6, -28.9, -6.9,0,0,1684,1024,1024,1024,100,0,0,0,272.6,-89.9,0,80,3.986,3.981,3.982,3.978,0,0,6.52,73.22,184.37206167418,130.577432,6,P-GPS,
17800,2023-07-16 20:15:38,52.2064066118188,0.0866851935724565,130.577432,130.3477732,54.024288474184,184.37206167418,83.66142,10.9162672,12.5806762556,21.489666042,22,5,15.947,184.37206167418,130.577432,10.9162672,12.5806762556,2.908022,-10.513618,0,284.3, -28.8, -7.3,0,0,1684,1024,1024,1024,100,0,0,0,272.6,-89.9,0,80,3.986,3.981,3.982,3.978,0,0,6.52,73.22,184.37206167418,130.577432,6,P-GPS,
18000,2023-07-16 20:15:39,52.2064090642822,0.0866701194084765,130.577432,130.3477732,54.024288474184,184.37206167418,83.66142,12.4821252,15.6895018144,24.9767724528,22,5,15.947,184.37206167418,130.577432,12.4821252,15.6895018144,3.131716,-12.079476,0,284.1, -28.6, -7.3,0,0,1684,1024,1024,1024,100,0,0,0,272.6,-89.9,0,80,3.986,3.981,3.982,3.978,0,0,6.52,73.22,184.37206167418,130.577432,6,P-GPS,
18200,2023-07-16 20:15:39,52.2064118652605,0.0866523956265428,130.577432,130.3149648,54.057096874184,184.37206167418,83.66142,14.0479832,19.49229065,29.069226652,22,5,15.896,184.37206167418,130.577432,14.0479832,19.49229065,3.35541,-13.645334,0,284.3, -28.6, -7.3,0,0,1684,1024,1024,1024,100,0,0,0,272.6,-89.9,0,80,3.966,3.964,3.963,3.957,0,0,8.888,73.22,184.37206167418,130.577432,6,P-GPS,
18400,2023-07-16 20:15:39,52.2064148972499,0.0866329959942713,130.577432,130.2821564,54.089905274184,184.37206167418,83.66142,15.9046434,23.75902307,33.545604748,22,5,15.896,184.37206167418,130.577432,15.9046434,23.75902307,3.802798,-15.434886,0,284.8, -27.1, -7.5,0,0,1684,1024,1024,1024,100,0,0,0,272.6,-89.9,0,80,3.966,3.964,3.963,3.957,0,0,8.888,73.22,184.37206167418,130.577432,6,P-GPS,
18600,2023-07-16 20:15:39,52.2064182398799,0.0866117118114751,130.577432,130.249348,54.122713674184,184.37206167418,83.66142,17.0902216,28.5169628548,38.458334564,21,5,15.896,184.37206167418,130.577432,17.0902216,28.5169628548,4.250186,-16.553356,0,285, -26.8, -9.8,0,0,1680,1024,1024,1024,99,0,0,0,272.6,-89.9,0,80,3.966,3.964,3.963,3.957,0,0,8.888,73.22,184.37206167418,130.577432,6,P-GPS,
18800,2023-07-16 20:15:39,52.2064218546978,0.0865888367318567,130.577432,130.1837312,54.188330474184,184.37206167418,83.66142,18.454755,33.683728112,43.74015888,21,5,15.896,184.37206167418,130.577432,18.454755,33.683728112,4.47388,-17.89552,0,284.9, -26.1, -10.8,0,0,1024,1024,1024,1024,0,0,0,0,272.6,-90,0,80,3.966,3.964,3.963,3.957,0,0,8.888,73.22,184.37206167418,130.577432,6,P-GPS,
19000,2023-07-16 20:15:40,52.2064256561503,0.0865645185119051,130.577432,130.1509228,54.221138874184,184.37206167418,83.66142,19.3047922,39.203741412,49.351379532,21,5,15.896,184.37206167418,130.577432,19.3047922,39.203741412,4.47388,-18.790296,0,283.4, -12.8, -10.3,0,0,1024,1024,1024,1024,0,0,0,0,272.6,-90,0,80,3.966,3.964,3.963,3.957,0,0,8.888,73.22,184.37206167418,130.577432,6,P-GPS,
19200,2023-07-16 20:15:40,52.2064292442952,0.0865407148499597,130.577432,130.1181144,54.253947274184,184.37206167418,83.66142,18.3876468,44.610565732,54.832350836,21,5,15.854,184.37206167418,130.577432,19.3047922,44.610565732,4.250186,-17.89552,-0.894776,281.9, 21.7, -6.1,0,0,1024,1024,1024,1024,0,0,0,0,272.6,-89.9,0,80,3.956,3.954,3.959,3.966,0,0,10.19,73.22,184.37206167418,130.577432,6,P-GPS,
19400,2023-07-16 20:15:40,52.2064327329397,0.0865182166231302,130.249348,129.7244136,54.319564074184,184.04397767418,83.66142,16.105968,49.748689256,60.020999296,22,5,15.854,184.37206167418,130.577432,19.3047922,49.748689256,3.802798,-15.65858,-0.447388,280.6, 25.6, -8.5,0,0,1020,1024,1024,1024,-1,0,0,0,272.6,-90,0,80,3.956,3.954,3.959,3.966,0,0,10.19,73.22,184.04397767418,130.249348,6,P-GPS,
19600,2023-07-16 20:15:40,52.2064357527812,0.086499380078753,130.249348,129.6916052,54.352372474184,184.04397767418,83.66142,13.5558564,54.071195956,64.374345892,22,5,15.854,184.37206167418,130.577432,19.3047922,54.071195956,3.131716,-13.197946,0,279.9, 27.2, -10.5,0,0,364,1031,1024,1024,-100,1,0,0,272.6,-90,0,80,3.956,3.954,3.959,3.966,0,0,10.19,73.22,184.04397767418,130.249348,6,P-GPS,
19800,2023-07-16 20:15:40,52.2064381378572,0.0864838460690955,129.921264,129.3307128,54.385180874184,183.71589367418,83.66142,10.7596814,57.625658012,67.955054668,22,5,15.854,184.37206167418,130.577432,19.3047922,57.625658012,2.23694,-10.513618,0,281.1, 29.4, -3.7,0,0,364,1024,1024,1024,-100,0,0,0,272.6,-89.9,0,80,3.956,3.954,3.959,3.966,0,0,10.19,73.22,183.71589367418,129.921264,6,P-GPS,
20000,2023-07-16 20:15:41,52.2064400253711,0.0864719123718173,129.921264,129.3307128,54.385180874184,183.71589367418,83.66142,8.0306146,60.365487496,70.710632184,22,5,15.854,184.37206167418,130.577432,19.3047922,60.365487496,1.789552,-7.82929,0,281, 29.3, -2.5,0,0,405,1024,1024,1024,-94,0,0,0,272.6,-89.9,0,80,3.956,3.954,3.959,3.966,0,0,10.19,73.22,183.71589367418,129.921264,6,P-GPS,
20200,2023-07-16 20:15:41,52.2064415082226,0.0864636375331292,129.921264,129.2979044,54.417989274184,183.71589367418,83.66142,5.5252418,62.288059736,72.638125684,22,5,16.092,184.37206167418,130.577432,19.3047922,62.288059736,1.342164,-5.368656,0,280.8, 29.8, -3.5,0,0,772,1024,1024,1024,-38,0,0,0,272.6,-89.9,0,80,4.018,4.012,4.013,4.008,0,0,7.283,73.58,183.71589367418,129.921264,6,P-GPS,
20400,2023-07-16 20:15:41,52.2064426323859,0.0864583488587457,129.921264,129.2979044,54.417989274184,183.71589367418,83.66142,3.0422384,63.539372112,73.889766144,22,5,16.092,184.37206167418,130.577432,19.3047922,63.539372112,0.894776,-2.908022,0,280.6, 29.3, -4.6,0,0,364,1024,1024,1024,-100,0,0,0,272.6,-89.9,0,80,4.018,4.012,4.013,4.008,0,0,7.283,73.58,183.71589367418,129.921264,6,P-GPS,
20600,2023-07-16 20:15:41,52.206443257111,0.0864564163025649,129.921264,129.2979044,54.417989274184,183.71589367418,83.66142,0.6263432,64.02395218,74.37828322,22,5,16.092,184.37206167418,130.577432,19.3047922,64.02395218,0.447388,-0.447388,0,280.5, 28.4, -4.3,0,0,364,1024,1024,1024,-100,0,0,0,272.6,-90,0,80,4.018,4.012,4.013,4.008,0,0,7.283,73.58,183.71589367418,129.921264,6,P-GPS,
20800,2023-07-16 20:15:41,52.2064434781117,0.0864575702276918,129.921264,129.2979044,54.417989274184,183.71589367418,83.66142,1.565858,63.810369496,74.648624436,22,5,16.092,184.37206167418,130.577432,19.3047922,64.02395218,0,1.565858,0,280.9, 29.4, -5,0,0,364,1024,1024,1024,-100,0,0,0,272.6,-90,0,80,4.018,4.012,4.013,4.008,0,0,7.283,73.58,183.71589367418,129.921264,6,P-GPS,
21000,2023-07-16 20:15:42,52.2064433081141,0.0864617632435689,129.921264,129.2979044,54.417989274184,183.71589367418,83.66142,4.250186,62.911091252,75.588257012,22,5,16.092,184.37206167418,130.577432,19.3047922,64.02395218,-0.223694,4.250186,0,280.8, 29.3, -4.9,0,0,364,1024,1024,1024,-100,0,0,0,272.6,-89.9,0,80,4.018,4.012,4.013,4.008,0,0,7.283,73.58,183.71589367418,129.921264,6,P-GPS,
21200,2023-07-16 20:15:42,52.2064427052561,0.0864694805512201,130.249348,129.6259884,54.417989274184,184.04397767418,83.66142,6.5542342,61.221130568,77.32775838,22,5,15.991,184.37206167418,130.577432,19.3047922,64.02395218,-0.894776,6.487126,0,280.5, 28.1, -7.6,0,0,1024,1024,1024,1024,0,0,0,0,272.6,-90,0,80,3.976,3.976,3.975,3.971,0,0,6.838,73.58,184.04397767418,130.249348,6,P-GPS,
21400,2023-07-16 20:15:42,52.2064416415837,0.086479981124488,130.249348,129.6259884,54.417989274184,184.04397767418,83.66142,8.835913,58.893702672,79.707351632,22,5,15.991,184.37206167418,130.577432,19.3047922,64.02395218,-1.342164,8.724066,0,280.7, 22.8, -8.6,0,0,1024,1024,1024,1024,0,0,0,0,272.6,-89.9,0,80,3.976,3.976,3.975,3.971,0,0,6.838,73.58,184.04397767418,130.249348,6,P-GPS,
21600,2023-07-16 20:15:42,52.206440188301,0.0864920332422419,130.249348,129.6587968,54.385180874184,184.04397767418,83.66142,9.3504092,56.195539856,82.453742796,22,5,15.991,184.37206167418,130.577432,19.3047922,64.02395218,-1.789552,9.171454,0,281.7, -17.4, -6.4,0,0,1024,1024,1024,1024,0,0,0,0,272.6,-90,0,80,3.976,3.976,3.975,3.971,0,0,6.838,73.58,184.04397767418,130.249348,6,P-GPS,
21800,2023-07-16 20:15:42,52.2064387100071,0.0865034256247212,130.249348,129.6587968,54.385180874184,184.04397767418,83.66142,7.493749,53.634844236,85.05741742,22,5,15.991,184.37206167418,130.577432,19.3047922,64.02395218,-1.342164,7.381902,0,284.4, -28.7, -7,0,0,1024,1024,1024,1024,0,0,0,0,272.6,-90,0,80,3.976,3.976,3.975,3.971,0,0,6.838,73.58,184.04397767418,130.249348,6,P-GPS,
22000,2023-07-16 20:15:43,52.2064376234226,0.086511401064126,130.577432,129.9868808,54.385180874184,184.37206167418,83.66142,5.0107456,51.837272,86.883861048,22,5,15.991,184.37206167418,130.577432,19.3047922,64.02395218,-0.894776,4.921268,0,284, -27.5, -6.9,0,0,1024,1024,1024,1024,0,0,0,0,272.6,-90,0,80,3.976,3.976,3.975,3.971,0,0,6.838,73.58,184.37206167418,130.577432,6,P-GPS,
22200,2023-07-16 20:15:43,52.2064368633788,0.0865163521751488,130.577432,130.0196892,54.352372474184,184.37206167418,83.66142,2.7290668,50.71030346,88.025265284,22,5,15.887,184.37206167418,130.577432,19.3047922,64.02395218,-0.447388,2.684328,0,284.4, -26.6, -9.2,0,0,1024,1024,1024,1024,0,0,0,0,272.6,-90,0,80,3.977,3.987,3.977,3.956,0,0,8.661,73.58,184.37206167418,130.577432,6,P-GPS,
22400,2023-07-16 20:15:43,52.2064363034282,0.0865186736694098,130.577432,130.0196892,54.352372474184,184.37206167418,83.66142,1.006623,50.15256066,88.583008084,22,5,15.887,184.37206167418,130.577432,19.3047922,64.02395218,-0.447388,0.894776,0,283.6, -15.9, -9.3,0,0,1443,1024,1024,1024,63,0,0,0,272.6,-89.9,0,80,3.977,3.987,3.977,3.956,0,0,8.661,73.58,184.37206167418,130.577432,6,P-GPS,
22600,2023-07-16 20:15:43,52.2064357797284,0.0865194171699413,130.577432,130.0196892,54.352372474184,184.37206167418,83.66142,0.4921268,49.924870364,88.836288932,22,5,15.887,184.37206167418,130.577432,19.3047922,64.02395218,-0.447388,0.223694,0,282.8, -7, -4.2,0,0,1683,1024,1024,1024,100,0,0,0,272.6,-89.9,0,80,3.977,3.987,3.977,3.956,0,0,8.661,73.58,184.37206167418,130.577432,6,P-GPS,
22800,2023-07-16 20:15:43,52.2064354465611,0.0865195076034271,130.577432,130.0196892,54.352372474184,184.37206167418,83.66142,0,49.858597396,88.959648516,23,5,15.887,184.37206167418,130.577432,19.3047922,64.02395218,0,0,0,282.3, -20, -2.3,0,0,1681,1024,1024,1024,100,0,0,0,272.6,-90,0,80,3.977,3.987,3.977,3.956,0,0,8.661,73.58,184.37206167418,130.577432,6,P-GPS,
23000,2023-07-16 20:15:44,52.206435598898,0.0865182982495212,130.577432,130.0196892,54.352372474184,184.37206167418,83.66142,1.7000744,50.129266696,89.23556716,23,5,15.887,184.37206167418,130.577432,19.3047922,64.02395218,0.671082,-1.565858,0,284.1, -29, -4.4,0,0,1024,1024,1024,1024,0,0,0,0,272.6,-89.9,0,80,3.977,3.987,3.977,3.956,0,0,8.661,73.58,184.37206167418,130.577432,6,P-GPS,
23200,2023-07-16 20:15:44,52.2064363481689,0.0865144900058285,130.577432,130.0196892,54.352372474184,184.37206167418,83.66142,3.5343652,51.020014756,90.129924144,23,5,15.963,184.37206167418,130.577432,19.3047922,64.02395218,1.11847,-3.35541,0,284.4, -8.8, -8,0,0,1024,1024,1024,1024,0,0,0,0,272.6,-90,0,80,3.99,3.99,4,3.994,0,0,8.447,73.58,184.37206167418,130.577432,6,P-GPS,
23400,2023-07-16 20:15:44,52.2064371535445,0.086510055731473,130.577432,130.0196892,54.352372474184,184.37206167418,83.66142,2.8185444,52.047901928,91.164044912,23,5,15.963,184.37206167418,130.577432,19.3047922,64.02395218,0.894776,-2.684328,0,280.9, 23.7, -12.3,0,0,1024,1024,1024,1024,0,0,0,0,272.6,-90,0,80,3.99,3.99,4,3.994,0,0,8.447,73.58,184.37206167418,130.577432,6,P-GPS,
23600,2023-07-16 20:15:44,52.2064374792457,0.0865075100756811,130.577432,130.0196892,54.352372474184,184.37206167418,83.66142,1.11847,52.619096172,91.74540976,23,5,15.963,184.37206167418,130.577432,19.3047922,64.02395218,0,-1.11847,0,280.6, 15.3, -10.7,0,0,1024,1024,1024,1024,0,0,0,0,272.6,-90,0,80,3.99,3.99,4,3.994,0,0,8.447,73.58,184.37206167418,130.577432,6,P-GPS,
23800,2023-07-16 20:15:44,52.2064374672649,0.086506657325236,130.577432,130.0196892,54.352372474184,184.37206167418,83.66142,0,52.79363686,91.936026564,23,5,15.963,184.37206167418,130.577432,19.3047922,64.02395218,0,0,0,281.6, 6.3, -9.1,0,0,1024,1024,1024,1024,0,0,0,0,272.6,-89.9,0,80,3.99,3.99,4,3.994,0,0,8.447,73.58,184.37206167418,130.577432,6,P-GPS,
24000,2023-07-16 20:15:45,52.2064372852651,0.0865066630708168,130.577432,130.0196892,54.352372474184,184.37206167418,83.66142,0.3131716,52.767062056,92.002627616,23,5,15.963,184.37206167418,130.577432,19.3047922,64.02395218,-0.223694,0.223694,0,282.1, 1.7, -8.5,0,0,1024,1024,1024,1024,0,0,0,0,272.6,-89.9,0,80,3.99,3.99,4,3.994,0,0,8.447,73.58,184.37206167418,130.577432,6,P-GPS,
24200,2023-07-16 20:15:45,52.206437044342,0.0865069583461431,130.577432,130.0196892,54.352372474184,184.37206167418,83.66142,0.3131716,52.672573864,92.112535756,23,5,15.95,184.37206167418,130.577432,19.3047922,64.02395218,-0.223694,0.223694,0,282.6, -1.5, -7.8,0,0,1024,1024,1024,1024,0,0,0,0,272.6,-90,0,80,3.992,3.993,3.993,3.99,0,0,7.751,73.76,184.37206167418,130.577432,6,P-GPS,
24400,2023-07-16 20:15:45,52.2064367345324,0.0865072751079847,130.577432,130.0196892,54.352372474184,184.37206167418,83.66142,0.3131716,52.56397806,92.24573786,23,5,15.95,184.37206167418,130.577432,19.3047922,64.02395218,-0.223694,0.223694,0,282.7, -2.1, -6.5,0,0,1024,1024,1024,1024,0,0,0,0,272.6,-90,0,80,3.992,3.993,3.993,3.99,0,0,7.751,73.76,184.37206167418,130.577432,6,P-GPS,
24600,2023-07-16 20:15:45,52.2064364415782,0.0865074856954061,130.577432,130.0196892,54.352372474184,184.37206167418,83.66142,0.223694,52.479988556,92.362535764,23,5,15.95,184.37206167418,130.577432,19.3047922,64.02395218,-0.223694,0,0,282.2, -1.7, -5.7,0,0,1024,1024,1024,1024,0,0,0,0,272.6,-90,0,80,3.992,3.993,3.993,3.99,0,0,7.751,73.76,184.37206167418,130.577432,6,P-GPS,
24800,2023-07-16 20:15:45,52.2064361932662,0.0865076676667592,130.577432,130.0196892,54.352372474184,184.37206167418,83.66142,0.223694,52.40813816,92.461945216,23,5,15.95,184.37206167418,130.577432,19.3047922,64.02395218,-0.223694,0,0,282.3, -2.7, -4.7,0,0,1024,1024,1024,1024,0,0,0,0,272.6,-90,0,80,3.992,3.993,3.993,3.99,0,0,7.751,73.76,184.37206167418,130.577432,6,P-GPS,
25000,2023-07-16 20:15:46,52.2064360646769,0.0865078134311673,130.577432,130.0196892,54.352372474184,184.37206167418,83.66142,0,52.360237896,92.519031832,23,5,15.95,184.37206167418,130.577432,19.3047922,64.02395218,0,0,0,282.5, -4.2, -4.4,0,0,1024,1024,1024,1024,0,0,0,0,272.6,-90,0,80,3.992,3.993,3.993,3.99,0,0,7.751,73.76,184.37206167418,130.577432,6,P-GPS,
25200,2023-07-16 20:15:46,52.2064360856829,0.0865077700806897,130.577432,130.0196892,54.352372474184,184.37206167418,83.66142,0,52.372377004,92.531499024,23,5,15.96,184.37206167418,130.577432,19.3047922,64.02395218,0,0,0,282.5, -2.5, -5.3,0,0,1684,1024,1024,1024,100,0,0,0,272.6,-90,0,80,3.994,3.996,3.994,3.991,0,0,7.292,73.76,184.37206167418,130.577432,6,P-GPS,
25400,2023-07-16 20:15:46,52.2064361852305,0.08650761917182,130.577432,130.0196892,54.352372474184,184.37206167418,83.66142,0,52.417324512,92.581039708,23,5,15.96,184.37206167418,130.577432,19.3047922,64.02395218,0,0,0,282.6, -3.7, -2.9,0,0,1249,1024,1024,1024,34,0,0,0,272.6,-89.9,0,80,3.994,3.996,3.994,3.991,0,0,7.292,73.76,184.37206167418,130.577432,6,P-GPS,
25600,2023-07-16 20:15:46,52.2064364899342,0.0865071293715356,130.577432,130.0196892,54.352372474184,184.37206167418,83.66142,0.8052984,52.560369136,92.736879608,23,5,15.96,184.37206167418,130.577432,19.3047922,64.02395218,0.447388,-0.671082,0,282.4, -25.3, -0.7,0,0,1024,1024,1024,1024,0,0,0,0,272.6,-89.9,0,80,3.994,3.996,3.994,3.991,0,0,7.292,73.76,184.37206167418,130.577432,6,P-GPS,
25800,2023-07-16 20:15:46,52.2064373318648,0.0865048121829655,130.249348,129.6916052,54.352372474184,184.04397767418,83.66142,2.5053728,53.15616968,93.339241832,23,5,15.96,184.37206167418,130.577432,19.3047922,64.02395218,1.11847,-2.23694,0,283.9, -11.8, -4.8,0,0,1024,1024,1024,1024,0,0,0,0,272.6,-90,0,80,3.994,3.996,3.994,3.991,0,0,7.292,73.76,184.04397767418,130.249348,6,P-GPS,
26000,2023-07-16 20:15:47,52.2064384138446,0.0865015449744814,130.577432,129.9868808,54.385180874184,184.37206167418,83.66142,2.3040482,53.981957108,94.169622436,23,5,15.96,184.37206167418,130.577432,19.3047922,64.02395218,1.11847,-2.013246,0,281.2, 20, -11.7,0,0,1024,1024,1024,1024,0,0,0,0,272.6,-89.9,0,80,3.994,3.996,3.994,3.991,0,0,7.292,73.76,184.37206167418,130.577432,6,P-GPS,
26200,2023-07-16 20:15:47,52.2064390557764,0.0864998198323719,130.577432,129.9868808,54.385180874184,184.37206167418,83.66142,0.7158208,54.427823264,94.62106602,23,5,15.938,184.37206167418,130.577432,19.3047922,64.02395218,0.223694,-0.671082,0,281, 11.1, -11.1,0,0,1024,1024,1024,1024,0,0,0,0,272.6,-89.9,0,80,4,3.993,3.984,3.979,0,0,7.493,73.94,184.37206167418,130.577432,6,P-GPS,
26400,2023-07-16 20:15:47,52.206439248986,0.0864994511925483,130.577432,129.9868808,54.385180874184,184.37206167418,83.66142,0,54.53084164,94.72933374,23,5,15.938,184.37206167418,130.577432,19.3047922,64.02395218,0,0,0,281.9, 3.6, -8.9,0,0,1024,1024,1024,1024,0,0,0,0,272.6,-90,0,80,4,3.993,3.984,3.979,0,0,7.493,73.94,184.37206167418,130.577432,6,P-GPS,
26600,2023-07-16 20:15:47,52.2064392011312,0.0864996837837271,130.577432,129.9868808,54.385180874184,184.37206167418,83.66142,0.223694,54.476051612,94.784123768,23,5,15.938,184.37206167418,130.577432,19.3047922,64.02395218,0,0.223694,0,282.4, -0.8, -7.5,0,0,1024,1024,1024,1024,0,0,0,0,272.6,-90,0,80,4,3.993,3.984,3.979,0,0,7.493,73.94,184.37206167418,130.577432,6,P-GPS,
26800,2023-07-16 20:15:47,52.2064390642405,0.0865000259463483,130.577432,129.9868808,54.385180874184,184.37206167418,83.66142,0.223694,54.38648468,94.875659204,23,5,15.938,184.37206167418,130.577432,19.3047922,64.02395218,0,0.223694,0,282.3, -2.6, -7.5,0,0,1024,1024,1024,1024,0,0,0,0,272.6,-89.9,0,80,4,3.993,3.984,3.979,0,0,7.493,73.94,184.37206167418,130.577432,6,P-GPS,
27000,2023-07-16 20:15:48,52.2064388898438,0.0865003625730814,130.577432,129.9868808,54.385180874184,184.37206167418,83.66142,0.223694,54.292652656,94.974084404,23,5,15.938,184.37206167418,130.577432,19.3047922,64.02395218,0,0.223694,0,282.6, -3.3, -7.5,0,0,1024,1024,1024,1024,0,0,0,0,272.6,-89.9,0,80,4,3.993,3.984,3.979,0,0,7.493,73.94,184.37206167418,130.577432,6,P-GPS,
27200,2023-07-16 20:15:48,52.2064387224806,0.0865005863152269,130.577432,129.9868808,54.385180874184,184.37206167418,83.66142,0,54.223098848,95.053152648,23,5,15.972,184.37206167418,130.577432,19.3047922,64.02395218,0,0,0,282.5, -3.2, -7.5,0,0,1024,1024,1024,1024,0,0,0,0,272.6,-90,0,80,3.991,3.991,3.993,3.987,0,0,7.48,73.94,184.37206167418,130.577432,6,P-GPS,
27400,2023-07-16 20:15:48,52.2064385484094,0.0865006668092771,130.577432,129.9868808,54.385180874184,184.37206167418,83.66142,0,54.182088348,95.119097532,23,5,15.972,184.37206167418,130.577432,19.3047922,64.02395218,0,0,0,282.6, -2.9, -6.8,0,0,1024,1024,1024,1024,0,0,0,0,272.6,-89.9,0,80,3.991,3.991,3.993,3.987,0,0,7.48,73.94,184.37206167418,130.577432,6,P-GPS,
27600,2023-07-16 20:15:48,52.2064384169073,0.0865006451969462,130.577432,129.9868808,54.385180874184,184.37206167418,83.66142,0,54.168636904,95.16732588,23,5,15.972,184.37206167418,130.577432,19.3047922,64.02395218,0,0,0,282.7, -2.7, -6.5,0,0,1024,1024,1024,1024,0,0,0,0,272.6,-90,0,80,3.991,3.991,3.993,3.987,0,0,7.48,73.94,184.37206167418,130.577432,6,P-GPS,
27800,2023-07-16 20:15:48,52.2064383691039,0.0865005484027809,130.577432,129.9868808,54.385180874184,184.37206167418,83.66142,0,54.181760264,95.19521302,23,5,15.972,184.37206167418,130.577432,19.3047922,64.02395218,0,0,0,282.6, -2.2, -6.7,0,0,1024,1024,1024,1024,0,0,0,0,272.6,-90,0,80,3.991,3.991,3.993,3.987,0,0,7.48,73.94,184.37206167418,130.577432,6,P-GPS,
28000,2023-07-16 20:15:49,52.2064383809777,0.0865004321071915,130.577432,129.9868808,54.385180874184,184.37206167418,83.66142,0,54.2076789,95.22145974,23,5,15.972,184.37206167418,130.577432,19.3047922,64.02395218,0,0,0,282.5, -2.1, -7.1,0,1,1024,1024,1024,1024,0,0,0,0,272.6,-90,0,80,3.991,3.991,3.993,3.987,0,0,7.48,73.94,184.37206167418,130.577432,6,P-GPS,
28200,2023-07-16 20:15:49,52.2064384067984,0.0865003187612799,130.577432,129.9868808,54.385180874184,184.37206167418,83.66142,0,54.234581788,95.248690712,23,5,15.976,184.37206167418,130.577432,19.3047922,64.02395218,0,0,0,282.5, -2.1, -7,0,1,1024,1024,1024,1024,0,0,0,0,272.6,-89.9,0,80,3.995,3.994,3.993,3.988,0,0,7.107,73.94,184.37206167418,130.577432,6,P-GPS,
28400,2023-07-16 20:15:49,52.206438440492,0.086500194776957,130.577432,129.9868808,54.385180874184,184.37206167418,83.66142,0,54.2650936,95.27887444,23,5,15.976,184.37206167418,130.577432,19.3047922,64.02395218,0,0,0,282.4, -2.2, -7,0,1,1024,1024,1024,1024,0,0,0,0,272.6,-90,0,80,3.995,3.994,3.993,3.988,0,0,7.107,73.94,184.37206167418,130.577432,6,P-GPS,
28600,2023-07-16 20:15:49,52.206438483061,0.0865000643340979,130.577432,129.9868808,54.385180874184,184.37206167418,83.66142,0,54.297902,95.312010924,23,5,15.976,184.37206167418,130.577432,19.3047922,64.02395218,0,0,0,282.4, -2.2, -7.4,0,1,1024,1024,1024,1024,0,0,0,0,272.6,-89.9,0,80,3.995,3.994,3.993,3.988,0,0,7.107,73.94,184.37206167418,130.577432,6,P-GPS,
28800,2023-07-16 20:15:49,52.2064385257628,0.0864999188632597,130.577432,129.9868808,54.385180874184,184.37206167418,83.66142,0,54.333663156,95.348100164,23,5,15.976,184.37206167418,130.577432,19.3047922,64.02395218,0,0,0,282.5, -2.1, -7.2,0,1,1024,1024,1024,1024,0,0,0,0,272.6,-89.9,0,80,3.995,3.994,3.993,3.988,0,0,7.107,73.94,184.37206167418,130.577432,6,P-GPS,
29000,2023-07-16 20:15:50,52.2064385721441,0.0864997740634382,130.577432,129.9868808,54.385180874184,184.37206167418,83.66142,0,54.37008048,95.384517488,23,5,15.976,184.37206167418,130.577432,19.3047922,64.02395218,0,0,0,282.4, -2.1, -7.5,0,1,1024,1024,1024,1024,0,0,0,0,272.6,-90,0,80,3.995,3.994,3.993,3.988,0,0,7.107,73.94,184.37206167418,130.577432,6,P-GPS,
29200,2023-07-16 20:15:50,52.2064385779139,0.0864995966633866,130.249348,129.6587968,54.385180874184,184.04397767418,83.66142,0,54.40781014,95.424215652,23,5,15.957,184.37206167418,130.577432,19.3047922,64.02395218,0,0,0,282.5, -2, -7,0,1,1024,1024,1024,1024,0,0,0,0,272.6,-89.9,0,80,3.99,3.988,3.989,3.987,0,0,7.169,73.94,184.04397767418,130.249348,6,P-GPS,
29400,2023-07-16 20:15:50,52.2064385727566,0.0864994048224954,130.249348,129.6587968,54.385180874184,184.04397767418,83.66142,0,54.446852136,95.467194656,23,5,15.957,184.37206167418,130.577432,19.3047922,64.02395218,0,0,0,282.4, -1.8, -6.5,0,1,1024,1024,1024,1024,0,0,0,0,272.6,-90,0,80,3.99,3.988,3.989,3.987,0,0,7.169,73.94,184.04397767418,130.249348,6,P-GPS,
29600,2023-07-16 20:15:50,52.2064385928803,0.086499232497008,130.249348,129.6587968,54.385180874184,184.04397767418,83.66142,0,54.485237964,95.506236652,23,5,15.957,184.37206167418,130.577432,19.3047922,64.02395218,0,0,0,282.4, -1.7, -6.7,0,1,1024,1024,1024,1024,0,0,0,0,272.6,-90,0,80,3.99,3.988,3.989,3.987,0,0,7.169,73.94,184.04397767418,130.249348,6,P-GPS,
29800,2023-07-16 20:15:50,52.2064386236013,0.0864990765135741,130.249348,129.6587968,54.385180874184,184.04397767418,83.66142,0,54.521655288,95.54298206,23,5,15.957,184.37206167418,130.577432,19.3047922,64.02395218,0,0,0,282.6, -1.9, -6.6,0,1,1024,1024,1024,1024,0,0,0,0,272.6,-90,0,80,3.99,3.988,3.989,3.987,0,0,7.169,73.94,184.04397767418,130.249348,6,P-GPS,
30000,2023-07-16 20:15:51,52.2064386814365,0.0864989066484813,130.249348,129.6587968,54.385180874184,184.04397767418,83.66142,0,54.564962376,95.586617232,23,5,15.957,184.37206167418,130.577432,19.3047922,64.02395218,0,0,0,282.6, -1.5, -6.6,0,1,1024,1024,1024,1024,0,0,0,0,272.6,-89.9,0,80,3.99,3.988,3.989,3.987,0,0,7.169,73.94,184.04397767418,130.249348,6,P-GPS,
30200,2023-07-16 20:15:51,52.2064387577848,0.0864987525802411,130.577432,129.9868808,54.385180874184,184.37206167418,83.66142,0,54.607285212,95.630908572,23,5,15.958,184.37206167418,130.577432,19.3047922,64.02395218,0,0,0,282.6, -1.3, -6.8,0,1,1024,1024,1024,1024,0,0,0,0,272.6,-89.9,0,80,3.992,3.991,3.995,3.989,0,0,7.218,74.12,184.37206167418,130.577432,6,P-GPS,
30400,2023-07-16 20:15:51,52.206438804286,0.0864985654784057,130.577432,129.9868808,54.385180874184,184.37206167418,83.66142,0,54.65223272,95.67585608,23,5,15.958,184.37206167418,130.577432,19.3047922,64.02395218,0,0,0,282.6, -1, -6.2,0,1,1024,1024,1024,1024,0,0,0,0,272.6,-90,0,80,3.992,3.991,3.995,3.989,0,0,7.218,74.12,184.37206167418,130.577432,6,P-GPS,
30600,2023-07-16 20:15:51,52.2064388529161,0.0864983650680716,130.577432,129.9868808,54.385180874184,184.37206167418,83.66142,0,54.700461068,95.724084428,23,5,15.958,184.37206167418,130.577432,19.3047922,64.02395218,0,0,0,282.5, -0.7, -5.5,0,1,1024,1024,1024,1024,0,0,0,0,272.6,-90,0,80,3.992,3.991,3.995,3.989,0,0,7.218,74.12,184.37206167418,130.577432,6,P-GPS,
30800,2023-07-16 20:15:51,52.2064389473107,0.0864982479896293,130.577432,129.9868808,54.385180874184,184.37206167418,83.66142,0,54.737862644,95.767391516,23,5,15.958,184.37206167418,130.577432,19.3047922,64.02395218,0,0,0,282.4, -0.3, -6,0,1,1024,1024,1024,1024,0,0,0,0,272.6,-89.9,0,80,3.992,3.991,3.995,3.989,0,0,7.218,74.12,184.37206167418,130.577432,6,P-GPS,
31000,2023-07-16 20:15:52,52.2064390827878,0.0864982370017301,130.577432,129.9868808,54.385180874184,184.37206167418,83.66142,0,54.75886002,95.8169322,23,5,15.958,184.37206167418,130.577432,19.3047922,64.02395218,0,0,0,282.5, -1.1, -7.1,0,1,1024,1024,1024,1024,0,0,0,0,272.6,-90,0,80,3.992,3.991,3.995,3.989,0,0,7.218,74.12,184.37206167418,130.577432,6,P-GPS,
31200,2023-07-16 20:15:52,52.2064392515132,0.0864982419644581,130.577432,129.9868808,54.385180874184,184.37206167418,83.66142,0,54.781169732,95.878283908,23,5,15.957,184.37206167418,130.577432,19.3047922,64.02395218,0,0,0,282.5, -1.7, -7.1,0,1,1024,1024,1024,1024,0,0,0,0,272.6,-90,0,79,3.992,3.99,3.991,3.987,0,0,7.007,74.12,184.37206167418,130.577432,6,P-GPS,
31400,2023-07-16 20:15:52,52.2064394467532,0.0864982032272207,130.577432,129.9868808,54.385180874184,184.37206167418,83.66142,0,54.81627472,95.950134304,23,5,15.957,184.37206167418,130.577432,19.3047922,64.02395218,0,0,0,282.5, -1.4, -7.4,0,1,1024,1024,1024,1024,0,0,0,0,272.6,-89.9,0,79,3.992,3.99,3.991,3.987,0,0,7.007,74.12,184.37206167418,130.577432,6,P-GPS,
31600,2023-07-16 20:15:52,52.206439636536,0.086498113688424,130.577432,129.9868808,54.385180874184,184.37206167418,83.66142,0,54.861222228,96.022312784,23,5,15.957,184.37206167418,130.577432,19.3047922,64.02395218,0,0,0,282.6, -0.7, -8,0,1,1024,1024,1024,1024,0,0,0,0,272.6,-90,0,79,3.992,3.99,3.991,3.987,0,0,7.007,74.12,184.37206167418,130.577432,6,P-GPS,
