time(millisecond),datetime(utc),latitude,longitude,height_above_takeoff(feet),height_above_ground_at_drone_location(feet),ground_elevation_at_drone_location(feet),altitude_above_seaLevel(feet),height_sonar(feet),speed(mph),distance(feet),mileage(feet),satellites,gpslevel,voltage(v),max_altitude(feet),max_ascent(feet),max_speed(mph),max_distance(feet), xSpeed(mph), ySpeed(mph), zSpeed(mph), compass_heading(degrees), pitch(degrees), roll(degrees),isPhoto,isVideo,rc_elevator,rc_aileron,rc_throttle,rc_rudder,rc_elevator(percent),rc_aileron(percent),rc_throttle(percent),rc_rudder(percent),gimbal_heading(degrees),gimbal_pitch(degrees),gimbal_roll(degrees),battery_percent,voltageCell1,voltageCell2,voltageCell3,voltageCell4,voltageCell5,voltageCell6,current(A),battery_temperature(f),altitude(feet),ascent(feet),flycStateRaw,flycState,message
0,2023-07-15 14:22:35,52.20638314167,0.0867495173406013,0,0,53.908832761828,53.908832761828,0.328084,0,0,0,27,5,0,53.908832761828,0,0,0,0,0,0,264.8, 4.8, -0.6,0,0,1024,1024,1024,1024,0,0,0,0,265,0,0,100,4.292,4.29,4.289,4.285,0,0,0,71.96,53.908832761828,0,41,Motors_Started,
200,2023-07-15 14:22:36,52.206383168613,0.0867494480297338,0,0,53.908832761828,53.908832761828,0.328084,0,0.0183517722408,0.0183517722408,27,5,0,53.908832761828,0,0,0.0183517722408,0,0,0,264.8, 4.8, -0.6,0,0,1024,1024,1024,1024,0,0,0,0,265,0,0,100,4.292,4.29,4.289,4.285,0,0,0,71.96,53.908832761828,0,41,Motors_Started,
400,2023-07-15 14:22:36,52.2063831900645,0.0867493735630468,0,0,53.908832761828,53.908832761828,0,0,0.03667651036,0.036749345008,27,5,0,53.908832761828,0,0,0.03667651036,0,0,0,264.8, 4.8, -0.6,0,0,1024,1024,1030,1024,0,0,1,0,265,0,0,100,4.292,4.29,4.289,4.285,0,0,0,71.96,53.908832761828,0,41,Motors_Started,
600,2023-07-15 14:22:36,52.2063832197489,0.0867493031416816,0,0,53.908832761828,53.908832761828,0,0,0.055724083148,0.055859909924,27,5,0,53.908832761828,0,0,0.055724083148,0,0,0,264.8, 4.7, -0.6,0,0,1024,1024,1612,1024,0,0,89,0,265,0,0,100,4.292,4.29,4.289,4.285,0,0,0,71.96,53.908832761828,0,41,Motors_Started,
800,2023-07-15 14:22:36,52.2063832583986,0.0867492332004254,0,0,53.908832761828,53.908832761828,0,0,0.076484254416,0.076916669128,27,5,0,53.908832761828,0,0,0.076484254416,0,0,0,264.8, 4.7, -0.6,0,0,1024,1024,1684,1024,0,0,100,0,265,0,0,100,4.292,4.29,4.289,4.285,0,0,0,71.96,53.908832761828,0,41,Motors_Started,"Setting new Return-To-Home altitude to 26m (85 ft). Data Recorder File Index is 59. Setting new Maximum Flight Altitude to 120m (394 ft)"
1000,2023-07-15 14:22:36,52.2063833047884,0.0867491615724534,0,0,53.908832761828,53.908832761828,0,0,0.099344163284,0.100217850976,27,5,0,53.908832761828,0,0,0.099344163284,0,0,0,265.4, 4.7, -0.6,0,0,1024,1024,1684,1024,0,0,100,0,265,0,0,100,4.292,4.29,4.289,4.285,0,0,0,71.96,53.908832761828,0,41,Motors_Started,
1200,2023-07-15 14:22:37,52.2063833584088,0.0867490886636085,0,0,53.908832761828,53.908832761828,0,0,0.124256565656,0.125682746804,27,5,17.352,53.908832761828,0,0,0.124256565656,0,0,0,265.4, 4.7, -0.6,0,0,1024,1024,1684,1024,0,0,100,0,265,0,0,100,4.292,4.29,4.289,4.285,0,0,1.495,71.96,53.908832761828,0,41,Motors_Started,
1400,2023-07-15 14:22:37,52.2063834345901,0.0867490103460022,0,0,53.908832761828,53.908832761828,0,0,0.155792983988,0.15853346964,27,5,17.352,53.908832761828,0,0,0.155792983988,0,0,0,265.4, 4.7, -0.6,0,0,1024,1024,1684,1024,0,0,100,0,265,0,0,100,4.292,4.29,4.289,4.285,0,0,1.495,71.96,53.908832761828,0,41,Motors_Started,
1600,2023-07-15 14:22:37,52.2063835078201,0.0867489300096667,0,0,53.908832761828,53.908832761828,0,0,0.187325793396,0.190728024476,27,5,17.352,53.908832761828,0,0,0.187325793396,0,0,0,265.4, 4.7, -0.6,0,0,1024,1024,1684,1024,0,0,100,0,265.1,0,0,100,4.292,4.29,4.289,4.285,0,0,1.495,71.96,53.908832761828,0,11,AutoTakeoff,
1800,2023-07-15 14:22:37,52.2063835975158,0.0867488518764152,0,0,53.908832761828,53.908832761828,0,0,0.223156503204,0.227824482356,27,5,17.352,53.908832761828,0,0,0.223156503204,0,0,0,265.4, 4.7, -0.5,0,0,1024,1024,1684,1024,0,0,100,0,265.1,0,0,100,4.292,4.29,4.289,4.285,0,0,1.495,71.96,53.908832761828,0,11,AutoTakeoff,
2000,2023-07-15 14:22:37,52.2063836945361,0.0867487968272732,0,0,53.908832761828,53.908832761828,0,0,0.25814797414,0.265301189592,27,5,17.352,53.908832761828,0,0,0.25814797414,0,0,0,264.9, 0.8, -0.5,0,0,1024,1024,1684,1024,0,0,100,0,265.1,0,0,100,4.292,4.29,4.289,4.285,0,0,1.495,71.96,53.908832761828,0,11,AutoTakeoff,
2200,2023-07-15 14:22:38,52.2063838481239,0.086748770694756,0.328084,0.328084,53.908832761828,54.236916761828,0,0,0.307088920588,0.321641414492,27,5,17.12,54.236916761828,0.328084,0,0.307088920588,0,0,-0.671082,264.6, -1.7, -0.8,0,0,1024,1024,1684,1024,0,0,100,0,265.1,0,0,100,4.321,4.319,4.321,4.319,0,0,4.547,71.78,54.236916761828,0.328084,11,AutoTakeoff,
2400,2023-07-15 14:22:38,52.2063840143778,0.0867486159939587,0.656168,0.656168,53.908832761828,54.565000761828,0.328084,0,0.37682415904,0.39146654796,27,5,17.12,54.565000761828,0.656168,0,0.37682415904,0,0,-2.013246,264.6, 0.6, -0.4,0,0,1024,1024,1684,1024,0,0,100,0,265,0,0,100,4.321,4.319,4.321,4.319,0,0,4.547,71.78,54.565000761828,0.656168,11,AutoTakeoff,
2600,2023-07-15 14:22:38,52.2063842583251,0.0867485774026364,1.312336,1.312336,53.908832761828,55.221168761828,1.312336,0.223694,0.45842193068,0.480889123,27,5,17.12,55.221168761828,1.312336,0.223694,0.45842193068,0.223694,0,-3.35541,264.8, 0.1, -2.2,0,0,1024,1024,1684,1024,0,0,100,0,265,0,0,100,4.321,4.319,4.321,4.319,0,0,4.547,71.78,55.221168761828,1.312336,11,AutoTakeoff,
2800,2023-07-15 14:22:38,52.2063845724697,0.086748705307108,2.624672,2.624672,53.908832761828,56.533504761828,2.624672,0.223694,0.55269686808,0.59901904804,27,5,17.12,56.533504761828,2.624672,0.223694,0.55269686808,0.223694,0,-5.144962,264.8, -1.4, -2.1,0,0,1024,1024,1684,1024,0,0,100,0,265,0,0,100,4.321,4.319,4.321,4.319,0,0,4.547,71.78,56.533504761828,2.624672,11,AutoTakeoff,
3000,2023-07-15 14:22:38,52.2063849978558,0.0867488212676139,4.593176,4.593176,53.908832761828,58.502008761828,4.593176,0.223694,0.694881912,0.75637141528,27,5,17.12,58.502008761828,4.593176,0.223694,0.694881912,0.223694,0,-7.381902,265.2, -2.3, -5.2,0,0,1024,1024,1684,1024,0,0,100,0,265,0,0,100,4.321,4.319,4.321,4.319,0,0,4.547,71.78,58.502008761828,4.593176,6,P-GPS,
3200,2023-07-15 14:22:39,52.2063853685806,0.0867487785093044,8.2021,8.2021,53.908832761828,62.110932761828,7.217848,0.223694,0.82911091892,0.89196853248,27,5,17.068,62.110932761828,8.2021,0.223694,0.82911091892,0.223694,0,-9.395148,265.3, -1.1, -6.7,0,0,1024,1024,1684,1024,0,0,100,0,265,0,0,100,4.197,4.196,4.189,4.184,0,0,3.992,71.78,62.110932761828,8.2021,6,P-GPS,
3400,2023-07-15 14:22:39,52.2063856924359,0.0867486587496471,13.12336,13.12336,53.908832761828,67.032192761828,10.498688,0,0.95023953172,1.01312011116,27,5,17.068,67.032192761828,13.12336,0.223694,0.95023953172,0,0,-10.961006,264.7, 0.1, -9.5,0,0,1024,1024,1684,1024,0,0,100,0,265,0,0,100,4.197,4.196,4.189,4.184,0,0,3.992,71.78,67.032192761828,13.12336,6,P-GPS,
3600,2023-07-15 14:22:39,52.2063857564222,0.0867484575883717,18.700788,18.700788,53.908832761828,72.609620761828,13.779528,0.223694,0.98297575324,1.0637959658,27,5,17.068,72.609620761828,18.700788,0.223694,0.98297575324,0,-0.223694,-12.750558,264, 1.9, -6.2,0,0,1024,1024,1684,1024,0,0,100,0,265,0,0,100,4.197,4.196,4.189,4.184,0,0,3.992,71.78,72.609620761828,18.700788,6,P-GPS,
3800,2023-07-15 14:22:39,52.2063858026065,0.0867483577635014,23.950132,23.950132,53.908832761828,77.858964761828,17.716536,0,1.00486223688,1.09176184596,27,5,17.068,77.858964761828,23.950132,0.223694,1.00486223688,0,0,-13.197946,264.5, 3.1, -6.2,0,0,1024,1024,1684,1024,0,0,100,0,265,0,0,100,4.197,4.196,4.189,4.184,0,0,3.992,71.78,77.858964761828,23.950132,6,P-GPS,"Home Point updated (Code: 3000001)"
4000,2023-07-15 14:22:39,52.2063859084379,0.086748531675646,28.543308,28.543308,53.908832761828,82.452140761828,21.653544,0,1.03323166036,1.14656171648,27,5,17.068,82.452140761828,28.543308,0.223694,1.03323166036,0,0,-13.42164,264.7, -0.2, -6.8,0,0,1024,1024,1684,1024,0,0,100,0,265,0,0,100,4.197,4.196,4.189,4.184,0,0,3.992,71.78,82.452140761828,28.543308,6,P-GPS,
4200,2023-07-15 14:22:40,52.2063860080497,0.0867486367417418,33.136484,33.136484,53.908832761828,87.045316761828,25.918636,0,1.06416998156,1.18983599608,27,5,16.564,87.045316761828,33.136484,0.223694,1.06416998156,0,0,-13.197946,264.2, 0, -6.3,0,0,1024,1024,1684,1024,0,0,100,0,265,0,0,100,4.076,4.075,4.089,4.085,0,0,12.207,71.6,87.045316761828,33.136484,6,P-GPS,
4400,2023-07-15 14:22:40,52.2063861091565,0.0867486841654958,36.417324,36.417324,53.908832761828,90.326156761828,29.855644,0,1.09859583568,1.22821854324,27,5,16.564,90.326156761828,36.417324,0.223694,1.09859583568,0,0,-13.42164,264.8, -0.9, -7,0,0,1024,1024,1684,1024,0,0,100,0,265,0,0,100,4.076,4.075,4.089,4.085,0,0,12.207,71.6,90.326156761828,36.417324,6,P-GPS,
4600,2023-07-15 14:22:40,52.2063863215947,0.0867487141681541,40.682416,40.682416,53.908832761828,94.591248761828,34.44882,0.223694,1.17400922392,1.30601710216,27,5,16.564,94.591248761828,40.682416,0.223694,1.17400922392,0.223694,0,-13.869028,264.8, -2.3, -9,0,0,1024,1024,1684,1024,0,0,100,0,265,0,0,100,4.076,4.075,4.089,4.085,0,0,12.207,71.6,94.591248761828,40.682416,6,P-GPS,
4800,2023-07-15 14:22:40,52.2063867287418,0.0867487334688391,44.619424,44.619424,53.908832761828,98.528256761828,38.385828,0.223694,1.3204232706,1.4546260308,27,5,16.564,98.528256761828,44.619424,0.223694,1.3204232706,0.223694,0,-13.197946,263.9, -1.1, -12.4,0,0,1024,1024,1684,1024,0,0,100,0,265,-0.8,0,100,4.076,4.075,4.089,4.085,0,0,12.207,71.6,98.528256761828,44.619424,6,P-GPS,
5000,2023-07-15 14:22:40,52.2063870698423,0.0867489448919515,48.228348,48.228348,53.908832761828,102.13718076183,42.322836,0.223694,1.438894403,1.58775267548,27,5,16.564,102.13718076183,48.228348,0.223694,1.438894403,0,0.223694,-12.974252,264.9, -4.5, -10.7,0,0,1024,1024,1684,1024,0,0,100,0,265,-3.3,0,100,4.076,4.075,4.089,4.085,0,0,12.207,71.6,102.13718076183,48.228348,6,P-GPS,
5200,2023-07-15 14:22:41,52.2063872699184,0.0867490000168887,52.165356,52.165356,53.908832761828,106.07418876183,43.635172,0,1.51062340792,1.66178154924,26,5,16.493,106.07418876183,52.165356,0.223694,1.51062340792,0,0,-13.197946,264.9, -5.3, -10.5,0,0,1024,1024,1684,1024,0,0,100,0,265,-6.1,0,100,4.136,4.134,4.124,4.126,0,0,15.641,71.78,106.07418876183,52.165356,6,P-GPS,
5400,2023-07-15 14:22:41,52.2063873849335,0.086748718272452,56.102364,56.102364,53.908832761828,110.01119676183,47.57218,0,1.55842852756,1.73747380888,27,5,16.493,110.01119676183,56.102364,0.223694,1.55842852756,0,0,-13.42164,264.9, -3.1, -10.7,0,0,1024,1024,1684,1024,0,0,100,0,265,-9,0,100,4.136,4.134,4.124,4.126,0,0,15.641,71.78,110.01119676183,56.102364,6,P-GPS,
5600,2023-07-15 14:22:41,52.2063874392435,0.0867482801752326,60.039372,60.039372,53.908832761828,113.94820476183,51.509188,0,1.59217852864,1.83741147612,27,5,16.493,113.94820476183,60.039372,0.223694,1.59217852864,0,0,-13.42164,265.2, -1.5, -10.9,0,0,1024,1024,1684,1024,0,0,100,0,265,-12,0,100,4.136,4.134,4.124,4.126,0,0,15.641,71.78,113.94820476183,60.039372,6,P-GPS,
5800,2023-07-15 14:22:41,52.206387471271,0.0867478666939715,63.320212,63.320212,53.908832761828,117.22904476183,55.77428,0,1.62219165296,1.9305938938,27,5,16.493,117.22904476183,63.320212,0.223694,1.62219165296,0,0,-13.42164,267.3, -1.7, -9.7,0,0,1024,1024,1684,1024,0,0,100,0,265,-14.9,0,100,4.136,4.134,4.124,4.126,0,0,15.641,71.78,117.22904476183,63.320212,6,P-GPS,
6000,2023-07-15 14:22:41,52.2063875488487,0.0867476524269017,66.601052,66.601052,53.908832761828,120.50988476183,59.711288,0,1.66114178544,1.98624022104,27,5,16.493,120.50988476183,66.601052,0.223694,1.66114178544,0,0,-13.645334,268.7, -3, -10.5,0,0,1024,1024,1684,1024,0,0,100,0,265,-17.8,0,100,4.136,4.134,4.124,4.126,0,0,15.641,71.78,120.50988476183,66.601052,6,P-GPS,
6200,2023-07-15 14:22:42,52.2063875843629,0.0867475274120393,69.881892,69.881892,53.908832761828,123.79072476183,63.320212,0,1.68086947636,2.01704730864,27,5,16.476,123.79072476183,69.881892,0.223694,1.68086947636,0,0,-13.645334,269.5, -5.1, -10.5,0,0,1024,1024,1684,1024,0,0,100,0,265,-20.7,0,100,4.118,4.133,4.125,4.122,0,0,13.069,71.96,123.79072476183,69.881892,6,P-GPS,
6400,2023-07-15 14:22:42,52.2063876277757,0.0867473589997414,73.162732,73.162732,53.908832761828,127.07156476183,66.929136,0,1.70641081576,2.05789704748,27,5,16.476,127.07156476183,73.162732,0.223694,1.70641081576,0,0,-13.197946,269.1, -3.8, -12.6,0,0,1024,1024,1684,1024,0,0,100,0,265,-23.6,0,100,4.118,4.133,4.125,4.122,0,0,13.069,71.96,127.07156476183,73.162732,6,P-GPS,
6600,2023-07-15 14:22:42,52.2063876368652,0.0867472388043165,77.09974,77.09974,53.908832761828,131.00857276183,70.209976,0,1.7173721022,2.08497710084,27,5,16.476,131.00857276183,77.09974,0.223694,1.7173721022,0,0,-12.974252,269.4, -7.1, -11.2,0,0,1024,1024,1684,1024,0,0,100,0,265,-26.5,0,100,4.118,4.133,4.125,4.122,0,0,13.069,71.96,131.00857276183,77.09974,6,P-GPS,
6800,2023-07-15 14:22:42,52.2063877006845,0.0867467661372878,81.692916,81.692916,53.908832761828,135.60174876183,73.490816,0.223694,1.77345150032,2.1931923274,27,5,16.476,135.60174876183,81.692916,0.223694,1.77345150032,0,-0.223694,-13.197946,268.7, -4.9, -11.5,0,0,1024,1024,1024,1024,0,0,0,0,265,-29.5,0,100,4.118,4.133,4.125,4.122,0,0,13.069,71.96,135.60174876183,81.692916,6,P-GPS,
7000,2023-07-15 14:22:42,52.206387890129,0.0867458928265606,85.629924,85.629924,53.908832761828,139.53875676183,77.09974,0.223694,1.91264113732,2.40032487996,27,5,16.476,139.53875676183,85.629924,0.223694,1.91264113732,0,-0.223694,-13.197946,266.5, -1.3, -13.9,0,0,1024,1024,1024,1024,0,0,0,0,265,-32.4,0,100,4.118,4.133,4.125,4.122,0,0,13.069,71.96,139.53875676183,85.629924,6,P-GPS,
7200,2023-07-15 14:22:43,52.2063881083842,0.0867451063745268,89.238848,89.238848,53.908832761828,143.14768076183,80.052496,0.3131716,2.06309717888,2.5933563822,27,5,16.584,143.14768076183,89.238848,0.3131716,2.06309717888,0.223694,-0.223694,-11.855782,265.3, -1.8, -15.9,0,0,1024,1024,1024,1024,0,0,0,0,265,-35.2,0,100,4.144,4.139,4.138,4.138,0,0,12.665,72.14,143.14768076183,89.238848,6,P-GPS,
7400,2023-07-15 14:22:43,52.2063885609916,0.086744548264995,92.191604,92.191604,53.908832761828,146.10043676183,82.349084,0.223694,2.26800204108,2.80033473528,27,5,16.584,146.10043676183,92.191604,0.3131716,2.26800204108,0.223694,0,-9.618842,266.3, -4.4, -18.4,0,0,1024,1024,1024,1024,0,0,0,0,265,-36.7,0,100,4.144,4.139,4.138,4.138,0,0,12.665,72.14,146.10043676183,92.191604,6,P-GPS,
7600,2023-07-15 14:22:43,52.2063892259088,0.0867442541340535,94.816276,94.816276,53.908832761828,148.72510876183,83.66142,0.671082,2.51246399116,3.05168644936,27,5,16.584,148.72510876183,94.816276,0.671082,2.51246399116,0.671082,0,-7.158208,266.8, -6, -22.9,0,0,1024,1024,1024,1024,0,0,0,0,265,-36.9,0,100,4.144,4.139,4.138,4.138,0,0,12.665,72.14,148.72510876183,94.816276,6,P-GPS,
7800,2023-07-15 14:22:43,52.20639000247,0.0867440696698878,96.78478,96.78478,53.908832761828,150.69361276183,83.66142,0.894776,2.78377305496,3.3379922328,27,5,16.584,150.69361276183,96.78478,0.894776,2.78377305496,0.894776,0,-4.921268,268.6, -6.8, -28.3,0,0,1024,1024,1024,1024,0,0,0,0,265,-36.9,0,100,4.144,4.139,4.138,4.138,0,0,12.665,72.14,150.69361276183,96.78478,6,P-GPS,
8000,2023-07-15 14:22:43,52.2063909696023,0.0867440193130571,98.097116,98.0643076,53.941641161828,152.00594876183,83.66142,1.342164,3.10933736984,3.6910434252,28,5,16.584,152.00594876183,98.097116,1.342164,3.10933736984,1.342164,0,-2.013246,267.7, -6.2, -30,0,0,1024,1024,1024,1024,0,0,0,0,265,-36.9,0,100,4.144,4.139,4.138,4.138,0,0,12.665,72.14,152.00594876183,98.097116,6,P-GPS,
8200,2023-07-15 14:22:44,52.2063920670675,0.0867440863328133,98.4252,98.3923916,53.941641161828,152.33403276183,77.09974,1.1408394,3.4754594288,4.0917324144,28,5,16.459,152.33403276183,98.4252,1.342164,3.4754594288,1.11847,0.223694,-0.447388,267.9, -6.3, -27.5,0,0,1024,1024,1024,1024,0,0,0,0,265,-36.9,0,100,4.224,4.218,4.214,4.216,0,0,12.387,72.32,152.33403276183,98.4252,6,P-GPS,
8400,2023-07-15 14:22:44,52.2063924704195,0.0867441206758923,98.753284,98.7204756,53.941641161828,152.66211676183,78.412076,0.223694,3.6111549712,4.2390749388,28,5,16.459,152.66211676183,98.753284,1.342164,3.6111549712,0.223694,0,-0.447388,269.6, -7.6, -27.8,0,0,1024,1024,1024,1024,0,0,0,0,265,-37,0,100,4.224,4.218,4.214,4.216,0,0,12.387,72.32,152.66211676183,98.753284,6,P-GPS,
8600,2023-07-15 14:22:44,52.2063920000528,0.0867439001559387,98.4252,98.3923916,53.941641161828,152.33403276183,80.052496,0.447388,3.4674213708,4.41765106,28,5,16.459,152.66211676183,98.753284,1.342164,3.6111549712,-0.447388,0,0,269.1, -7.6, -29.3,0,0,1024,1024,1024,1024,0,0,0,0,265,-38.8,0,100,4.224,4.218,4.214,4.216,0,0,12.387,72.32,152.33403276183,98.4252,6,P-GPS,
8800,2023-07-15 14:22:44,52.206390677843,0.0867430981165966,98.4252,98.3923916,53.941641161828,152.33403276183,80.38058,1.8119214,3.101624115,4.9323164308,28,5,16.459,152.66211676183,98.753284,1.8119214,3.6111549712,-1.789552,-0.223694,0,270.2, -6.4, -22.7,0,0,1024,1024,1024,1024,0,0,0,0,265,-41.5,0,100,4.224,4.218,4.214,4.216,0,0,12.387,72.32,152.33403276183,98.4252,6,P-GPS,
9000,2023-07-15 14:22:44,52.2063887787499,0.0867418291161611,98.4252,98.4252,53.908832761828,152.33403276183,81.692916,2.125093,2.68045940336,5.6810369272,28,5,16.459,152.66211676183,98.753284,2.125093,3.6111549712,-2.013246,-0.671082,0,272.9, -3.1, -11.8,0,0,1024,1024,1024,1024,0,0,0,0,265,-44.3,0,100,4.224,4.218,4.214,4.216,0,0,12.387,72.32,152.33403276183,98.4252,6,P-GPS,
9200,2023-07-15 14:22:45,52.2063868041307,0.0867404917967483,98.097116,98.097116,53.908832761828,152.00594876183,82.021,1.901399,2.42029863388,6.4610566372,28,5,16.869,152.66211676183,98.753284,2.125093,3.6111549712,-1.789552,-0.671082,-0.223694,276, -0.4, -4.4,0,0,1024,1024,1024,1024,0,0,0,0,265,-47.3,0,99,4.214,4.205,4.213,4.199,0,0,6.542,72.5,152.00594876183,98.097116,6,P-GPS,
9400,2023-07-15 14:22:45,52.2063853876463,0.0867395644049604,98.097116,98.097116,53.908832761828,152.00594876183,83.66142,1.1408394,2.37142067956,7.0179136104,28,5,16.869,152.66211676183,98.753284,2.125093,3.6111549712,-1.11847,-0.223694,0,276.5, 0, -4.1,0,0,1024,1024,1024,1024,0,0,0,0,265,-50.2,0,99,4.214,4.205,4.213,4.199,0,0,6.542,72.5,152.00594876183,98.097116,6,P-GPS,
9600,2023-07-15 14:22:45,52.2063845471073,0.0867391147425327,97.769032,97.769032,53.908832761828,151.67786476183,83.66142,0.447388,2.38173564052,7.3406498412,28,5,16.869,152.66211676183,98.753284,2.125093,3.6111549712,-0.447388,0,0,276.9, -1.2, -5.5,0,0,1024,1024,1024,1024,0,0,0,0,265,-53.1,0,99,4.214,4.205,4.213,4.199,0,0,6.542,72.5,151.67786476183,97.769032,6,P-GPS,
9800,2023-07-15 14:22:45,52.2063841595656,0.0867390742032525,97.769032,97.769032,53.908832761828,151.67786476183,83.66142,0.223694,2.36429469508,7.4823165124,28,5,16.869,152.66211676183,98.753284,2.125093,3.6111549712,0,0.223694,0,277.2, -3.2, -8,0,0,1024,1024,1024,1024,0,0,0,0,265,-56,0,99,4.214,4.205,4.213,4.199,0,0,6.542,72.5,151.67786476183,97.769032,6,P-GPS,
10000,2023-07-15 14:22:45,52.206384146137,0.0867392673691196,97.769032,97.769032,53.908832761828,151.67786476183,83.66142,0.223694,2.32087277768,7.5257876424,28,5,16.869,152.66211676183,98.753284,2.125093,3.6111549712,0,0.223694,0.223694,277.5, -4.4, -9.9,0,0,1024,1024,1024,1024,0,0,0,0,265,-58.9,0,99,4.214,4.205,4.213,4.199,0,0,6.542,72.5,151.67786476183,97.769032,6,P-GPS,
10200,2023-07-15 14:22:46,52.2063843462474,0.0867396777661504,97.769032,97.769032,53.908832761828,151.67786476183,83.66142,0.4921268,2.24346463872,7.643044864,27,5,16.815,152.66211676183,98.753284,2.125093,3.6111549712,0.223694,0.447388,0.223694,278.4, -7, -11.9,0,0,1024,1024,1024,1024,0,0,0,0,265,-61.8,0,99,4.232,4.22,4.238,4.234,0,0,8.143,72.86,151.67786476183,97.769032,6,P-GPS,
10400,2023-07-15 14:22:46,52.2063846264028,0.0867402050424032,97.769032,97.769032,53.908832761828,151.67786476183,83.66142,0.4921268,2.15142067252,7.7990816144,27,5,16.815,152.66211676183,98.753284,2.125093,3.6111549712,0.223694,0.447388,0,278.9, -9.5, -12.6,0,0,1024,1024,1024,1024,0,0,0,0,265,-64.8,0,99,4.232,4.22,4.238,4.234,0,0,8.143,72.86,151.67786476183,97.769032,6,P-GPS,
10600,2023-07-15 14:22:46,52.2063849010667,0.0867405928205803,97.440948,97.440948,53.908832761828,151.34978076183,83.66142,0.3131716,2.0961122718,7.931594742,27,5,16.815,152.66211676183,98.753284,2.125093,3.6111549712,0.223694,0.223694,0,279.3, -10.4, -13.3,0,0,1024,1024,1024,1024,0,0,0,0,265,-67.7,0,99,4.232,4.22,4.238,4.234,0,0,8.143,72.86,151.34978076183,97.440948,6,P-GPS,
10800,2023-07-15 14:22:46,52.2063851499614,0.0867406762695419,97.440948,97.440948,53.908832761828,151.34978076183,83.66142,0,2.10817592048,8.0243112804,28,5,16.815,152.66211676183,98.753284,2.125093,3.6111549712,0,0,0,278.9, -9.7, -12.7,0,0,1024,1024,1024,1024,0,0,0,0,265,-70.6,0,99,4.232,4.22,4.238,4.234,0,0,8.143,72.86,151.34978076183,97.440948,6,P-GPS,
11000,2023-07-15 14:22:46,52.2063852663002,0.0867404067646066,97.440948,97.440948,53.908832761828,151.34978076183,83.66142,0,2.1795112246,8.0979989468,28,5,16.815,152.66211676183,98.753284,2.125093,3.6111549712,0,0,0,278.8, -8.3, -12,0,0,1024,1024,1024,1024,0,0,0,0,265,-73.5,0,99,4.232,4.22,4.238,4.234,0,0,8.143,72.86,151.34978076183,97.440948,6,P-GPS,
11200,2023-07-15 14:22:47,52.2063854131029,0.0867400242907815,97.440948,97.440948,53.908832761828,151.34978076183,83.66142,0,2.27856962672,8.1989175852,28,5,16.814,152.66211676183,98.753284,2.125093,3.6111549712,0,0,0,278.5, -6.7, -11.6,0,0,1024,1024,1024,1024,0,0,0,0,265,-76.4,0,99,4.184,4.195,4.199,4.196,0,0,6.454,72.86,151.34978076183,97.440948,6,P-GPS,
11400,2023-07-15 14:22:47,52.2063856219387,0.0867395899865974,97.440948,97.440948,53.908832761828,151.34978076183,83.66142,0.223694,2.39700138904,8.322342786,27,5,16.814,152.66211676183,98.753284,2.125093,3.6111549712,0.223694,0,0,278.8, -6.5, -12.3,0,0,1024,1024,1024,1024,0,0,0,0,265,-79.3,0,99,4.184,4.195,4.199,4.196,0,0,6.454,72.86,151.34978076183,97.440948,6,P-GPS,
11600,2023-07-15 14:22:47,52.2063858710176,0.0867390780825676,97.440948,97.440948,53.908832761828,151.34978076183,83.66142,0.3131716,2.53762475312,8.4684713996,27,5,16.814,152.66211676183,98.753284,2.125093,3.6111549712,0.223694,-0.223694,0,278.2, -3.8, -13,0,0,1024,1024,1024,1024,0,0,0,0,265,-82.2,0,99,4.184,4.195,4.199,4.196,0,0,6.454,72.86,151.34978076183,97.440948,6,P-GPS,
11800,2023-07-15 14:22:47,52.2063859762237,0.0867386880890745,97.440948,97.440948,53.908832761828,151.34978076183,83.66142,0,2.6328905042,8.5637469932,27,5,16.814,152.66211676183,98.753284,2.125093,3.6111549712,0,0,0,278.3, -4.7, -11.6,0,0,1024,1024,1024,1024,0,0,0,0,265,-85.2,0,99,4.184,4.195,4.199,4.196,0,0,6.454,72.86,151.34978076183,97.440948,6,P-GPS,
12000,2023-07-15 14:22:47,52.2063859858272,0.0867383360036548,97.112864,97.112864,53.908832761828,151.02169676183,83.66142,0,2.70680454856,8.64255277,28,5,16.814,152.66211676183,98.753284,2.125093,3.6111549712,0,0,0,278.2, -4.8, -10.9,0,0,1024,1024,1024,1024,0,0,0,0,265,-88.1,0,99,4.184,4.195,4.199,4.196,0,0,6.454,72.86,151.02169676183,97.112864,6,P-GPS,
12200,2023-07-15 14:22:48,52.2063859589485,0.0867379834687064,97.112864,97.112864,53.908832761828,151.02169676183,83.66142,0,2.77612213608,8.7219819064,28,5,16.871,152.66211676183,98.753284,2.125093,3.6111549712,0,0,0,278.1, -3.5, -10,0,0,1024,1024,1024,1024,0,0,0,0,265,-89.9,0,99,4.221,4.215,4.219,4.216,0,0,7.688,72.86,151.02169676183,97.112864,6,P-GPS,
12400,2023-07-15 14:22:48,52.2063860026526,0.0867378898142626,97.112864,97.112864,53.908832761828,151.02169676183,83.66142,0.223694,2.80148631012,8.7482942432,28,5,16.871,152.66211676183,98.753284,2.125093,3.6111549712,0.223694,0,0,278.5, -5.3, -11.9,0,0,1024,1024,1024,1024,0,0,0,0,265,-89.9,0,99,4.221,4.215,4.219,4.216,0,0,7.688,72.86,151.02169676183,97.112864,6,P-GPS,
12600,2023-07-15 14:22:48,52.2063861710311,0.0867380015822249,97.112864,97.112864,53.908832761828,151.02169676183,83.66142,0.447388,2.80197187444,8.814632828,27,5,16.871,152.66211676183,98.753284,2.125093,3.6111549712,0.447388,0,0.223694,278.9, -6.7, -14.6,0,0,1024,1024,1684,1024,0,0,100,0,265,-90,0,99,4.221,4.215,4.219,4.216,0,0,7.688,72.86,151.02169676183,97.112864,6,P-GPS,
12800,2023-07-15 14:22:48,52.2063864257427,0.0867379227465028,97.440948,97.440948,53.908832761828,151.34978076183,83.66142,0.223694,2.85590232236,8.9092194452,27,5,16.871,152.66211676183,98.753284,2.125093,3.6111549712,0.223694,0,-0.671082,278.3, -5.6, -15.1,0,0,1024,1024,1684,1024,0,0,100,0,265,-90,0,99,4.221,4.215,4.219,4.216,0,0,7.688,72.86,151.34978076183,97.440948,6,P-GPS,
13000,2023-07-15 14:22:48,52.2063865060233,0.0867374272775762,98.4252,98.4252,53.908832761828,152.33403276183,83.66142,0.223694,2.96881899264,9.023786378,27,5,16.871,152.66211676183,98.753284,2.125093,3.6111549712,0,-0.223694,-2.908022,276.8, -1.3, -14.5,0,0,1024,1024,1684,1024,0,0,100,0,265,-89.9,0,99,4.221,4.215,4.219,4.216,0,0,7.688,72.86,152.33403276183,98.4252,6,P-GPS,
13200,2023-07-15 14:22:49,52.20638636858,0.0867372281027023,99.737536,99.737536,53.908832761828,153.64636876183,83.66142,0,2.98931768096,9.090879556,28,5,16.886,153.64636876183,99.737536,2.125093,3.6111549712,0,0,-5.144962,277.8, -1.8, -13.3,0,0,1024,1024,1684,1024,0,0,100,0,265,-89.9,0,99,4.219,4.204,4.202,4.205,0,0,6.222,73.04,153.64636876183,99.737536,6,P-GPS,
13400,2023-07-15 14:22:49,52.2063863040711,0.0867374098949242,102.690292,102.690292,53.908832761828,156.59912476183,83.66142,0,2.94269366372,9.1378283764,28,5,16.886,156.59912476183,102.690292,2.125093,3.6111549712,0,0,-7.158208,277.3, -4.7, -13.9,0,0,1024,1024,1684,1024,0,0,100,0,265,-90,0,99,4.219,4.204,4.202,4.205,0,0,6.222,73.04,156.59912476183,102.690292,6,P-GPS,
13600,2023-07-15 14:22:49,52.2063862882565,0.0867374914470405,107.939636,107.939636,53.908832761828,161.84846876183,83.66142,0,2.92365823004,9.1569556736,28,5,16.886,161.84846876183,107.939636,2.125093,3.6111549712,0,0,-10.06623,278.2, -5.5, -11.7,0,0,1024,1024,1624,1024,0,0,91,0,265,-90,0,99,4.219,4.204,4.202,4.205,0,0,6.222,73.04,161.84846876183,107.939636,6,P-GPS,
13800,2023-07-15 14:22:49,52.2063864603959,0.0867371963657106,112.204728,112.204728,53.908832761828,166.11356076183,83.66142,0,3.00916676296,9.2480646004,28,5,16.886,166.11356076183,112.204728,2.125093,3.6111549712,0,0,-11.855782,276.6, -0.4, -14.4,0,0,1024,1024,1626,1024,0,0,91,0,265,-89.9,0,99,4.219,4.204,4.202,4.205,0,0,6.222,73.04,166.11356076183,112.204728,6,P-GPS,
14000,2023-07-15 14:22:49,52.2063867639347,0.0867373574560195,115.485568,115.485568,53.908832761828,169.39440076183,83.66142,0,3.02297581852,9.364501612,28,5,16.886,169.39440076183,115.485568,2.125093,3.6111549712,0,0,-11.408394,277.5, -3.7, -15.4,0,0,1024,1024,1631,1024,0,0,92,0,265,-89.9,0,99,4.219,4.204,4.202,4.205,0,0,6.222,73.04,169.39440076183,115.485568,6,P-GPS,
14200,2023-07-15 14:22:50,52.2063871855085,0.0867378572830597,118.11024,118.11024,53.908832761828,172.01907276183,83.66142,0.223694,2.99556440032,9.55462629,28,5,16.412,172.01907276183,118.11024,2.125093,3.6111549712,0,0.223694,-11.1847,277.9, -6, -13.5,0,0,1024,1024,1628,1024,0,0,92,0,265,-89.9,0,99,4.03,4.038,4.046,4.048,0,0,11.107,72.86,172.01907276183,118.11024,6,P-GPS,
14400,2023-07-15 14:22:50,52.2063878111421,0.0867384839034186,121.062996,121.062996,53.908832761828,174.97182876183,83.66142,0.3131716,2.99802831116,9.8224740676,28,5,16.412,174.97182876183,121.062996,2.125093,3.6111549712,0.223694,0.223694,-11.1847,277.9, -8.2, -14.9,0,0,1024,1024,1684,1024,0,0,100,0,265,-90,0,99,4.03,4.038,4.046,4.048,0,0,11.107,72.86,174.97182876183,121.062996,6,P-GPS,
14600,2023-07-15 14:22:50,52.206388535625,0.086739016410194,124.015752,124.015752,53.908832761828,177.92458476183,83.66142,0.223694,3.063566371,10.11236909,28,5,16.412,177.92458476183,124.015752,2.125093,3.6111549712,0.223694,0,-11.408394,277.5, -8.9, -15.6,0,0,1024,1024,1684,1024,0,0,100,0,265,-89.9,0,99,4.03,4.038,4.046,4.048,0,0,11.107,72.86,177.92458476183,124.015752,6,P-GPS,
14800,2023-07-15 14:22:50,52.206389134534,0.0867391275093239,127.624676,127.624676,53.908832761828,181.53350876183,83.66142,0,3.1901739866,10.3322837952,28,5,16.412,181.53350876183,127.624676,2.125093,3.6111549712,0,0,-12.974252,276.6, -6.4, -15.3,0,0,1024,1024,1684,1024,0,0,100,0,265,-90,0,99,4.03,4.038,4.046,4.048,0,0,11.107,72.86,181.53350876183,127.624676,6,P-GPS,
15000,2023-07-15 14:22:50,52.2063895594189,0.0867391194558132,130.905516,130.905516,53.908832761828,184.81434876183,83.66142,0,3.2996064048,10.4873034852,28,5,16.412,184.81434876183,130.905516,2.125093,3.6111549712,0,0,-13.197946,270.5, -5, -16.4,0,0,1024,1024,1684,1024,0,0,100,0,265,-89.9,0,99,4.03,4.038,4.046,4.048,0,0,11.107,72.86,184.81434876183,130.905516,6,P-GPS,
15200,2023-07-15 14:22:51,52.2063900421134,0.0867392726472599,135.170608,135.170608,53.908832761828,189.07944076183,83.66142,0,3.403707458,10.6667326248,28,5,16.438,189.07944076183,135.170608,2.125093,3.6111549712,0,0,-12.974252,266, -5.4, -16.8,0,0,1024,1024,1017,1024,0,0,-1,0,265,-89.9,0,99,4.106,4.098,4.078,4.06,0,0,15.992,73.04,189.07944076183,135.170608,6,P-GPS,
15400,2023-07-15 14:22:51,52.2063905966244,0.0867395653376561,139.107616,139.0748076,53.941641161828,193.01644876183,83.66142,0,3.5141405324,10.8793638652,28,5,16.438,193.01644876183,139.107616,2.125093,3.6111549712,0,0,-12.750558,263.8, -6.5, -16.5,0,0,1024,1024,469,1024,0,0,-84,0,265,-90,0,99,4.106,4.098,4.078,4.06,0,0,15.992,73.04,193.01644876183,139.107616,6,P-GPS,
15600,2023-07-15 14:22:51,52.2063912822435,0.0867400480668769,141.732288,141.6994796,53.941641161828,195.64112076183,83.66142,0.3131716,3.6474410616,11.1518048188,28,5,16.438,195.64112076183,141.732288,2.125093,3.6474410616,0.223694,0.223694,-10.961006,264.5, -10.5, -19.9,0,0,1024,1024,364,1024,0,0,-100,0,265,-90,0,99,4.106,4.098,4.078,4.06,0,0,15.992,73.04,195.64112076183,141.732288,6,P-GPS,
15800,2023-07-15 14:22:51,52.2063922394596,0.0867407534609237,144.35696,144.3241516,53.941641161828,198.26579276183,83.66142,0.4921268,3.8545276824,11.5350069308,28,5,16.438,198.26579276183,144.35696,2.125093,3.8545276824,0.447388,0.223694,-8.500372,264.1, -12.9, -22.3,0,0,1024,1024,364,1024,0,0,-100,0,265,-90,0,99,4.106,4.098,4.078,4.06,0,0,15.992,73.04,198.26579276183,144.35696,6,P-GPS,
16000,2023-07-15 14:22:51,52.2063932450745,0.0867415115319637,145.99738,145.9645716,53.941641161828,199.90621276183,83.66142,0.7158208,4.0978347768,11.939140802,28,5,16.438,199.90621276183,145.99738,2.125093,4.0978347768,0.671082,0.223694,-6.263432,264.3, -14.7, -25.1,0,0,1024,1024,364,1024,0,0,-100,0,265,-89.9,0,99,4.106,4.098,4.078,4.06,0,0,15.992,73.04,199.90621276183,145.99738,6,P-GPS,
16200,2023-07-15 14:22:52,52.2063942370167,0.0867423531821496,146.653548,146.5879312,53.974449561828,200.56238076183,83.66142,0.7158208,4.353510638,12.3470476392,28,5,16.403,200.56238076183,146.653548,2.125093,4.353510638,0.671082,0.223694,-3.579104,264.8, -17, -27.6,0,0,1024,1024,364,1024,0,0,-100,0,265,-90,0,99,4.179,4.175,4.173,4.168,0,0,14.674,73.04,200.56238076183,146.653548,6,P-GPS,
16400,2023-07-15 14:22:52,52.2063951997071,0.0867432099533643,146.981632,146.9160152,53.974449561828,200.89046476183,83.66142,0.7158208,4.6198820376,12.7471460772,27,5,16.403,200.89046476183,146.981632,2.125093,4.6198820376,0.671082,0.223694,-1.11847,265, -17.8, -31.3,0,0,1024,1024,364,1024,0,0,-100,0,265,-90,0,99,4.179,4.175,4.173,4.168,0,0,14.674,73.04,200.89046476183,146.981632,6,P-GPS,
16600,2023-07-15 14:22:52,52.2063960795039,0.0867438735434218,146.981632,146.8832068,54.007257961828,200.89046476183,83.66142,0.447388,4.8861222036,13.1007550124,27,5,16.403,200.89046476183,146.981632,2.125093,4.8861222036,0.447388,0,1.11847,264.5, -17.8, -30.7,0,0,1024,1024,364,1024,0,0,-100,0,265,-90,0,99,4.179,4.175,4.173,4.168,0,0,14.674,73.04,200.89046476183,146.981632,6,P-GPS,
16800,2023-07-15 14:22:52,52.2063967153578,0.0867441736023325,145.99738,145.8989548,54.007257961828,199.90621276183,83.66142,0.223694,5.0944555436,13.3422576448,28,5,16.403,200.89046476183,146.981632,2.125093,5.0944555436,0,-0.223694,3.35541,264.1, -16.1, -29.5,0,0,1024,1024,1024,1024,0,0,0,0,265,-89.9,0,99,4.179,4.175,4.173,4.168,0,0,14.674,73.04,199.90621276183,145.99738,6,P-GPS,
17000,2023-07-15 14:22:52,52.2063970576576,0.0867441383217523,144.35696,144.2585348,54.007257961828,198.26579276183,83.66142,0.223694,5.2177495108,13.4673888824,28,5,16.403,200.89046476183,146.981632,2.125093,5.2177495108,0,-0.223694,5.59235,263.5, -14, -29.7,0,0,1024,1024,1493,1024,0,0,71,0,265,-90,0,99,4.179,4.175,4.173,4.168,0,0,14.674,73.04,198.26579276183,144.35696,6,P-GPS,
17200,2023-07-15 14:22:53,52.20639686312,0.0867437162275816,142.388456,142.2900308,54.007257961828,196.29728876183,83.66142,1.4987498,5.1715552836,13.5854991224,28,5,16.86,200.89046476183,146.981632,2.125093,5.2177495108,-1.342164,-0.671082,4.921268,262.5, -7.1, -21.9,0,0,1024,1024,1684,1024,0,0,100,0,265,-90,0,99,4.214,4.22,4.22,4.222,0,0,7.561,73.58,196.29728876183,142.388456,6,P-GPS,
17400,2023-07-15 14:22:53,52.2063955709545,0.0867429285686817,141.07612,140.9776948,54.007257961828,194.98495276183,83.66142,2.3264176,4.7681103888,14.08874717,28,5,16.86,200.89046476183,146.981632,2.3264176,5.2177495108,-2.23694,-0.671082,2.23694,261.4, -5, -12.4,0,0,1024,1024,1684,1024,0,0,100,0,265,-90,0,99,4.214,4.22,4.22,4.222,0,0,7.561,73.58,194.98495276183,141.07612,6,P-GPS,
17600,2023-07-15 14:22:53,52.2063941354815,0.0867420555486846,140.419952,140.3543352,53.974449561828,194.32878476183,83.66142,2.125093,4.3442258608,14.6476710724,28,5,16.86,200.89046476183,146.981632,2.3264176,5.2177495108,-2.013246,-0.671082,-0.223694,261.1, -1.7, -6,0,0,1024,1024,1684,1024,0,0,100,0,265,-90,0,99,4.214,4.22,4.22,4.222,0,0,7.561,73.58,194.32878476183,140.419952,6,P-GPS,
17800,2023-07-15 14:22:53,52.2063929555726,0.0867410772159844,140.748036,140.7152276,53.941641161828,194.65686876183,83.66142,1.4987498,4.0474410744,15.1305451036,28,5,16.86,200.89046476183,146.981632,2.3264176,5.2177495108,-1.342164,-0.671082,-2.684328,261.5, 0.2, -4.3,0,0,1024,1024,1684,1024,0,0,100,0,265,-90,0,99,4.214,4.22,4.22,4.222,0,0,7.561,73.58,194.65686876183,140.748036,6,P-GPS,
18000,2023-07-15 14:22:53,52.2063924720472,0.0867402989069766,141.732288,141.6994796,53.941641161828,195.64112076183,83.66142,0.7158208,3.9795276864,15.3783469488,28,5,16.86,200.89046476183,146.981632,2.3264176,5.2177495108,-0.671082,-0.223694,-5.144962,263, 0.4, -6.7,0,0,1024,1024,1684,1024,0,0,100,0,265,-89.9,0,99,4.214,4.22,4.22,4.222,0,0,7.561,73.58,195.64112076183,141.732288,6,P-GPS,
18200,2023-07-15 14:22:54,52.2063925453029,0.0867397984748856,142.060372,142.0275636,53.941641161828,195.96920476183,83.66142,0.223694,4.0611549856,15.4933731992,28,5,16.824,200.89046476183,146.981632,2.3264176,5.2177495108,-0.223694,0,-7.82929,263.5, -0.5, -9.2,0,0,1024,1024,1678,1024,0,0,99,0,265,-89.9,0,99,4.155,4.168,4.161,4.156,0,0,6.312,73.58,195.96920476183,142.060372,6,P-GPS,
18400,2023-07-15 14:22:54,52.2063929339369,0.0867396468556974,143.044624,143.0118156,53.941641161828,196.95345676183,83.66142,0.223694,4.1993767748,15.6391737288,28,5,16.824,200.89046476183,146.981632,2.3264176,5.2177495108,0,0.223694,-9.395148,263.9, -2.3, -13.4,0,0,1024,1024,1674,1024,0,0,98,0,265,-89.9,0,99,4.155,4.168,4.161,4.156,0,0,6.312,73.58,196.95345676183,143.044624,6,P-GPS,
18600,2023-07-15 14:22:54,52.2063935802338,0.0867398684366742,146.653548,146.5879312,53.974449561828,200.56238076183,83.66142,0.4921268,4.3770998776,15.8801186184,28,5,16.824,200.89046476183,146.981632,2.3264176,5.2177495108,0.223694,0.447388,-10.737312,265.1, -6.2, -14.6,0,0,1024,1024,1024,1024,0,0,0,0,265,-90,0,99,4.155,4.168,4.161,4.156,0,0,6.312,73.58,200.56238076183,146.653548,6,P-GPS,
18800,2023-07-15 14:22:54,52.2063943002791,0.086740139862919,151.246724,151.1811072,53.974449561828,205.15555676183,83.66142,0.6263432,4.579396472,16.1497380496,28,5,16.824,205.15555676183,151.246724,2.3264176,5.2177495108,0.447388,0.447388,-10.737312,266.6, -9.8, -18.7,0,0,1024,1024,1024,1024,0,0,0,0,265,-89.9,0,99,4.155,4.168,4.161,4.156,0,0,6.312,73.58,205.15555676183,151.246724,6,P-GPS,
19000,2023-07-15 14:22:54,52.2063953555436,0.0867405449097276,157.152236,157.0866192,53.974449561828,211.06106876183,83.66142,1.2079476,4.886975222,16.54527612,28,5,16.824,211.06106876183,157.152236,2.3264176,5.2177495108,1.11847,0.447388,-8.276678,267.9, -11.7, -24.6,0,0,1024,1024,1024,1024,0,0,0,0,265,-90,0,99,4.155,4.168,4.161,4.156,0,0,6.312,73.58,211.06106876183,157.152236,6,P-GPS,
19200,2023-07-15 14:22:55,52.2063966628812,0.0867411435706215,159.776908,159.6784828,54.007257961828,213.68574076183,83.66142,1.4987498,5.2765421636,17.04068296,28,5,16.557,213.68574076183,159.776908,2.3264176,5.2765421636,1.342164,0.671082,-5.816044,270, -14, -29.6,0,0,1024,1024,1024,1024,0,0,0,0,265,-90,0,99,4.062,4.065,4.053,4.041,0,0,10.537,73.58,213.68574076183,159.776908,6,P-GPS,
19400,2023-07-15 14:22:55,52.2063981954773,0.0867419772983547,161.417328,161.3189028,54.007257961828,215.32616076183,83.66142,1.7000744,5.7452757744,17.630085866,28,5,16.557,215.32616076183,161.417328,2.3264176,5.7452757744,1.565858,0.671082,-3.131716,271.5, -15.3, -32.1,0,0,1024,1024,1024,1024,0,0,0,0,265,-90,0,99,4.062,4.065,4.053,4.041,0,0,10.537,73.58,215.32616076183,161.417328,6,P-GPS,
19600,2023-07-15 14:22:55,52.206399835434,0.0867430134913899,162.40158,162.2703464,54.040066361828,216.31041276183,83.66142,1.901399,6.2619096492,18.2717197448,28,5,16.557,216.31041276183,162.40158,2.3264176,6.2619096492,1.789552,0.671082,-1.11847,272.4, -15.3, -31.4,0,0,1024,1024,1024,1024,0,0,0,0,265,-90,0,99,4.062,4.065,4.053,4.041,0,0,10.537,73.58,216.31041276183,162.40158,6,P-GPS,
19800,2023-07-15 14:22:55,52.2064013868859,0.0867439548977499,162.729664,162.5984304,54.040066361828,216.63849676183,83.66142,1.8342908,6.7719490356,18.875656772,28,5,16.557,216.63849676183,162.729664,2.3264176,6.7719490356,1.789552,0.447388,0,272.9, -14.7, -31.3,0,0,1024,1024,1024,1024,0,0,0,0,265,-90,0,99,4.062,4.065,4.053,4.041,0,0,10.537,73.58,216.63849676183,162.729664,6,P-GPS,
20000,2023-07-15 14:22:55,52.2064027338883,0.0867445975142769,162.729664,162.565622,54.072874761828,216.63849676183,83.66142,1.3645334,7.2323493128,19.3876646624,28,5,16.557,216.63849676183,162.729664,2.3264176,7.2323493128,1.342164,0.223694,0,272.8, -12.8, -32.8,0,0,1024,1024,1041,1024,0,0,3,0,265,-89.9,0,99,4.062,4.065,4.053,4.041,0,0,10.537,73.58,216.63849676183,162.729664,6,P-GPS,
20200,2023-07-15 14:22:56,52.2064036727584,0.0867450274672007,162.729664,162.565622,54.072874761828,216.63849676183,83.66142,0.671082,7.5577102156,19.743438952,28,5,16.653,216.63849676183,162.729664,2.3264176,7.5577102156,0.671082,0,-0.223694,272.7, -11.8, -31.8,0,0,1024,1024,1024,1024,0,0,0,0,265,-90,0,99,4.168,4.15,4.152,4.132,0,0,12.335,73.94,216.63849676183,162.729664,6,P-GPS,
20400,2023-07-15 14:22:56,52.2064040024477,0.0867450837184308,163.385832,163.22179,54.072874761828,217.29466476183,83.66142,0.3131716,7.6753283296,19.8644035228,28,5,16.653,217.29466476183,163.385832,2.3264176,7.6753283296,0.223694,-0.223694,-0.671082,274.4, -13.3, -32,0,0,1041,1024,1024,1024,3,0,0,0,265,-89.9,0,99,4.168,4.15,4.152,4.132,0,0,12.335,73.94,217.29466476183,163.385832,6,P-GPS,
20600,2023-07-15 14:22:56,52.206404206366,0.086744922446511,163.385832,163.22179,54.072874761828,217.29466476183,83.66142,0.4921268,7.7538060224,19.9470806908,28,5,16.653,217.29466476183,163.385832,2.3264176,7.7538060224,0.223694,-0.447388,0,273.8, -11.2, -34.1,0,0,1249,1024,1024,1024,34,0,0,0,265,-89.9,0,99,4.168,4.15,4.152,4.132,0,0,12.335,73.94,217.29466476183,163.385832,6,P-GPS,
20800,2023-07-15 14:22:56,52.2064041192533,0.0867444794438473,163.385832,163.22179,54.072874761828,217.29466476183,83.66142,0.7158208,7.7360894864,20.0510833188,28,5,16.653,217.29466476183,163.385832,2.3264176,7.7538060224,-0.223694,-0.671082,-0.223694,273.9, -9.5, -33.9,0,0,1684,1024,1024,1024,100,0,0,0,265,-89.9,0,99,4.168,4.15,4.152,4.132,0,0,12.335,73.94,217.29466476183,163.385832,6,P-GPS,
21000,2023-07-15 14:22:56,52.2064035600391,0.086743948106218,163.385832,163.22179,54.072874761828,217.29466476183,83.66142,0.8052984,7.552985806,20.2871725652,28,5,16.653,217.29466476183,163.385832,2.3264176,7.7538060224,-0.671082,-0.447388,-1.11847,272.9, -7.1, -9.4,0,0,1684,1024,1024,1024,100,0,0,0,265,-89.9,0,99,4.168,4.15,4.152,4.132,0,0,12.335,73.94,217.29466476183,163.385832,6,P-GPS,
21200,2023-07-15 14:22:57,52.2064036141478,0.0867434786566618,163.385832,163.22179,54.072874761828,217.29466476183,83.66142,0.8052984,7.5904201904,20.3939967156,28,5,16.281,217.29466476183,163.385832,2.3264176,7.7538060224,0.671082,-0.447388,-0.671082,275.7, -32.1, -8.6,0,0,1684,1024,1024,1024,100,0,0,0,265,-89.9,0,99,4.082,4.093,4.097,4.075,0,0,13.296,73.58,217.29466476183,163.385832,6,P-GPS,
21400,2023-07-15 14:22:57,52.2064050509058,0.0867425066298146,163.057748,162.8608976,54.105683161828,216.96658076183,83.66142,2.5053728,8.1458007856,20.961450802,28,5,16.281,217.29466476183,163.385832,2.5053728,8.1458007856,2.23694,-1.11847,0.894776,276.8, -28.3, -16.4,0,0,1684,1024,1024,1024,100,0,0,0,265,-90,0,99,4.082,4.093,4.097,4.075,0,0,13.296,73.58,216.96658076183,163.057748,6,P-GPS,
21600,2023-07-15 14:22:57,52.206407455173,0.086740249752384,162.40158,162.1719212,54.138491561828,216.31041276183,83.66142,3.8475368,9.1095475356,21.9734259,27,5,16.281,217.29466476183,163.385832,3.8475368,9.1095475356,3.131716,-2.23694,0.671082,277, -26.7, -18.2,0,0,1684,1024,1024,1024,100,0,0,0,265,-89.9,0,99,4.082,4.093,4.097,4.075,0,0,13.296,73.58,216.31041276183,162.40158,6,P-GPS,
21800,2023-07-15 14:22:57,52.2064104797838,0.0867366154487517,162.073496,161.8110288,54.171299961828,215.98232876183,83.66142,5.0778538,10.3830711984,23.3438655764,27,5,16.281,217.29466476183,163.385832,5.0778538,10.3830711984,3.802798,-3.35541,0.671082,276.5, -26.7, -20.5,0,0,1684,1024,1024,1024,100,0,0,0,265,-89.9,0,99,4.082,4.093,4.097,4.075,0,0,13.296,73.58,215.98232876183,162.073496,6,P-GPS,
22000,2023-07-15 14:22:57,52.2064138399736,0.0867312832837731,162.073496,161.7782204,54.204108361828,215.98232876183,83.66142,6.1963238,11.9191932948,25.0539378096,27,5,16.281,217.29466476183,163.385832,6.1963238,11.9191932948,4.026492,-4.697574,0.223694,277.1, -27.3, -21.2,0,0,1684,1024,1024,1024,100,0,0,0,265,-89.9,0,99,4.082,4.093,4.097,4.075,0,0,13.296,73.58,215.98232876183,162.073496,6,P-GPS,
22200,2023-07-15 14:22:58,52.2064174491223,0.0867242938517726,162.073496,161.745412,54.236916761828,215.98232876183,83.66142,7.381902,13.7288718304,27.0974746204,27,5,16.733,217.29466476183,163.385832,7.381902,13.7288718304,4.250186,-6.039738,0,277.8, -26.7, -21.2,0,0,1676,1024,1024,1024,99,0,0,0,265,-89.9,0,99,4.195,4.109,4.101,4.078,0,0,11.381,74.12,215.98232876183,162.073496,6,P-GPS,
22400,2023-07-15 14:22:58,52.2064213846878,0.0867158039373689,162.073496,161.6797952,54.302533561828,215.98232876183,83.66142,8.500372,15.8588915836,29.4776256152,27,5,16.733,217.29466476183,163.385832,8.500372,15.8588915836,4.921268,-6.934514,-0.223694,278.2, -27.7, -21.2,0,0,1660,1024,1024,1024,96,0,0,0,265,-90,0,99,4.195,4.109,4.101,4.078,0,0,11.381,74.12,215.98232876183,162.073496,6,P-GPS,
22600,2023-07-15 14:22:58,52.2064257599419,0.0867060154711476,162.073496,161.6469868,54.335341961828,215.98232876183,83.66142,9.6859502,18.3407486184,32.1864839696,27,5,16.733,217.29466476183,163.385832,9.6859502,18.3407486184,5.368656,-8.052984,-0.447388,279.3, -28.7, -21.9,0,0,1647,1024,1024,1024,94,0,0,0,265,-90,0,99,4.195,4.109,4.101,4.078,0,0,11.381,74.12,215.98232876183,162.073496,6,P-GPS,
22800,2023-07-15 14:22:58,52.2064305537071,0.0866953053705139,161.745412,161.253286,54.400958761828,215.65424476183,83.66142,10.4912486,21.1222447704,35.151904012,27,5,16.733,217.29466476183,163.385832,10.4912486,21.1222447704,5.816044,-8.724066,0,278.7, -27.4, -22.3,0,0,1388,897,1024,1024,55,-19,0,0,265,-90,0,99,4.195,4.109,4.101,4.078,0,0,11.381,74.12,215.65424476183,161.745412,6,P-GPS,
23000,2023-07-15 14:22:58,52.20643566103,0.0866836278280951,161.745412,161.1876692,54.466575561828,215.65424476183,83.66142,11.1623306,24.1702435556,38.35958128,27,5,16.733,217.29466476183,163.385832,11.1623306,24.1702435556,6.039738,-9.395148,-0.223694,278.5, -27.4, -21.5,0,0,1024,1024,1024,1024,0,0,0,0,265,-90,0,99,4.195,4.109,4.101,4.078,0,0,11.381,74.12,215.65424476183,161.745412,6,P-GPS,
23200,2023-07-15 14:22:59,52.2064409280832,0.0866715488429611,161.417328,160.7939684,54.532192361828,215.32616076183,83.66142,11.855782,27.3570218728,41.674213932,27,5,15.964,217.29466476183,163.385832,11.855782,27.3570218728,6.263432,-10.06623,-0.223694,279.6, -21.5, -25.8,0,0,1024,1024,1024,1024,0,0,0,0,265,-89.9,0,99,4.02,4.023,4.013,3.999,0,0,17.712,73.94,215.32616076183,161.417328,6,P-GPS,
23400,2023-07-15 14:22:59,52.2064462460153,0.0866589556004335,161.745412,161.0564356,54.597809161828,215.65424476183,83.66142,10.5583568,30.660762136,45.09350538,27,5,15.964,217.29466476183,163.385832,11.855782,30.660762136,5.59235,-8.94776,-1.789552,275.4, 17.6, -23.4,0,0,1024,1024,1024,1024,0,0,0,0,265,-90,0,99,4.02,4.023,4.013,3.999,0,0,17.712,73.94,215.65424476183,161.745412,6,P-GPS,
23600,2023-07-15 14:22:59,52.2064508264899,0.0866500716891534,162.40158,161.6797952,54.630617561828,216.31041276183,83.66142,7.6279654,33.229659856,47.689305988,26,5,15.964,217.29466476183,163.385832,11.855782,33.229659856,4.921268,-5.816044,-2.460634,273.1, 18.1, -25.1,0,0,1024,1024,1024,1567,0,0,0,82,265,-89.9,0,99,4.02,4.023,4.013,3.999,0,0,17.712,73.94,216.31041276183,162.40158,6,P-GPS,
23800,2023-07-15 14:22:59,52.2064552546876,0.0866448262190048,163.057748,162.2703464,54.696234361828,216.96658076183,83.66142,6.0844768,35.215880392,49.685697128,27,5,15.964,217.29466476183,163.385832,11.855782,35.215880392,4.921268,-3.579104,-1.342164,273.3, 11.8, -31.4,0,0,1024,1024,1024,1024,0,0,0,0,267.9,-89.9,0,99,4.02,4.023,4.013,3.999,0,0,17.712,73.94,216.96658076183,163.057748,6,P-GPS,"Strong wind warning Strong wind warning. Aircraft unable to return to home automatically. Lower altitude immediately and return to home manually (Code: 30149)"
24000,2023-07-15 14:22:59,52.2064598564766,0.0866417444001841,163.713916,162.8608976,54.761851161828,217.62274876183,83.66142,5.6147194,36.933072048,51.500657816,27,5,15.964,217.62274876183,163.713916,11.855782,36.933072048,5.144962,-2.23694,0.671082,275.6, 12.3, -35.3,0,0,1024,1024,1024,1024,0,0,0,0,272.3,-89.9,0,99,4.02,4.023,4.013,3.999,0,0,17.712,73.94,217.62274876183,163.713916,6,P-GPS,
24200,2023-07-15 14:23:00,52.2064639101457,0.0866406889818222,163.713916,162.8280892,54.794659561828,217.62274876183,83.66142,4.2725554,38.215880488,52.998361276,27,5,16.025,217.62274876183,163.713916,11.855782,38.215880488,4.250186,-0.447388,0.894776,278.5, 7.6, -34.7,0,0,1024,1024,1024,1024,0,0,0,0,272.4,-89.9,0,99,4.008,4.021,4.076,4.114,0,0,18.987,74.3,217.62274876183,163.713916,6,P-GPS,
24400,2023-07-15 14:23:00,52.2064669923775,0.0866413123982512,163.713916,162.7952808,54.827467961828,217.62274876183,83.66142,2.908022,39.002954004,54.131563412,27,5,16.025,217.62274876183,163.713916,11.855782,39.002954004,2.908022,0.223694,0.447388,281.2, -1.5, -34.8,0,0,1024,1024,1024,1024,0,0,0,0,272.4,-89.9,0,99,4.008,4.021,4.076,4.114,0,0,18.987,74.3,217.62274876183,163.713916,6,P-GPS,
24600,2023-07-15 14:23:00,52.2064688445197,0.0866424722925113,164.042,163.0905564,54.860276361828,217.95083276183,83.66142,1.6329662,39.376969764,54.855316716,27,5,16.025,217.95083276183,164.042,11.855782,39.376969764,1.565858,0.447388,0.447388,283.1, -5.7, -35.2,0,0,1576,1024,1024,1024,84,0,0,0,272.3,-89.9,0,99,4.008,4.021,4.076,4.114,0,0,18.987,74.3,217.95083276183,164.042,6,P-GPS,
24800,2023-07-15 14:23:00,52.2064694012923,0.0866432529714836,164.370084,163.4186404,54.860276361828,218.27891676183,83.66142,0.223694,39.433072128,55.12303326,27,5,16.025,218.27891676183,164.370084,11.855782,39.433072128,0.223694,0,-0.447388,282.6, -7.7, -17.8,0,0,1684,1024,1024,1024,100,0,0,0,272.4,-89.9,0,99,4.008,4.021,4.076,4.114,0,0,18.987,74.3,218.27891676183,164.370084,6,P-GPS,
25000,2023-07-15 14:23:00,52.2064698255433,0.0866433389035564,164.698168,163.7467244,54.860276361828,218.60700076183,83.66142,1.3645334,39.545276856,55.279201244,27,5,16.025,218.60700076183,164.698168,11.855782,39.545276856,1.342164,-0.223694,-1.342164,284.6, -25.9, -12.1,0,0,1684,1024,1024,1024,100,0,0,0,272.4,-90,0,99,4.008,4.021,4.076,4.114,0,0,18.987,74.3,218.60700076183,164.698168,6,P-GPS,
25200,2023-07-15 14:23:01,52.2064714096609,0.0866426760788773,165.026252,164.042,54.893084761828,218.93508476183,83.66142,3.0422384,40.097114144,55.875657956,27,5,16.329,218.93508476183,165.026252,11.855782,40.097114144,2.908022,-0.894776,0.223694,286.4, -29.2, -17.9,0,0,1684,1024,1024,1024,100,0,0,0,272.4,-89.9,0,98,4.035,4.052,4.055,4.043,0,0,10.505,74.66,218.93508476183,165.026252,6,P-GPS,
25400,2023-07-15 14:23:01,52.2064739247027,0.0866401380701428,164.698168,163.6811076,54.925893161828,218.60700076183,83.66142,4.6528352,41.172245412,56.954726232,27,5,16.329,218.93508476183,165.026252,11.855782,41.172245412,3.802798,-2.684328,0.447388,286.6, -27.6, -19.3,0,0,1684,1024,1024,1024,100,0,0,0,272.3,-89.9,0,98,4.035,4.052,4.055,4.043,0,0,10.505,74.66,218.60700076183,164.698168,6,P-GPS,
25600,2023-07-15 14:23:01,52.2064769811138,0.0866351137209577,164.370084,163.3202152,54.958701561828,218.27891676183,83.66142,6.3305402,42.737206092,58.537731532,27,5,16.329,218.93508476183,165.026252,11.855782,42.737206092,4.47388,-4.47388,0.223694,287, -27.2, -20.6,0,0,1684,1024,1024,1024,100,0,0,0,272.4,-90,0,98,4.035,4.052,4.055,4.043,0,0,10.505,74.66,218.27891676183,164.370084,6,P-GPS,
25800,2023-07-15 14:23:01,52.2064804281165,0.0866277523744706,164.042,162.9593228,54.991509961828,217.95083276183,83.66142,7.9635064,44.733597232,60.608925824,27,5,16.329,218.93508476183,165.026252,11.855782,44.733597232,4.921268,-6.263432,0,287.4, -27.6, -20.6,0,0,1684,1024,1024,1024,100,0,0,0,272.3,-89.9,0,98,4.035,4.052,4.055,4.043,0,0,10.505,74.66,217.95083276183,164.042,6,P-GPS,
26000,2023-07-15 14:23:01,52.2064842715448,0.0866179402374372,164.042,162.9265144,55.024318361828,217.95083276183,83.66142,9.4846256,47.189634056,63.212600448,27,5,16.329,218.93508476183,165.026252,11.855782,47.189634056,5.368656,-7.82929,-0.223694,288.1, -27.8, -22.5,0,0,1684,1024,1024,1024,100,0,0,0,272.4,-90,0,98,4.035,4.052,4.055,4.043,0,0,10.505,74.66,217.95083276183,164.042,6,P-GPS,
26200,2023-07-15 14:23:02,52.2064885341524,0.0866062463180176,164.042,162.8608976,55.089935161828,217.95083276183,83.66142,10.849159,50.047245696,66.25492338,27,5,16.439,218.93508476183,165.026252,11.855782,50.047245696,5.816044,-9.171454,0,287.7, -26.5, -23.4,0,0,1684,1024,1024,1024,100,0,0,0,272.4,-90,0,98,4.048,4.033,4.026,4.033,0,0,16.096,74.84,217.95083276183,164.042,6,P-GPS,
26400,2023-07-15 14:23:02,52.206493210765,0.0865928077692244,164.042,162.8280892,55.122743561828,217.95083276183,83.66142,12.3479088,53.295277296,69.710304068,27,5,16.439,218.93508476183,165.026252,12.3479088,53.295277296,6.487126,-10.513618,0,288.2, -26.5, -22.7,0,0,1684,1024,1024,1024,100,0,0,0,272.4,-90,0,98,4.048,4.033,4.026,4.033,0,0,16.096,74.84,217.95083276183,164.042,6,P-GPS,
26600,2023-07-15 14:23:02,52.2064982998404,0.0865775554204219,164.042,162.7624724,55.188360361828,217.95083276183,83.66142,13.9361362,56.952429644,73.593178208,27,5,16.439,218.93508476183,165.026252,13.9361362,56.952429644,6.934514,-12.079476,0,288.9, -27.1, -23.1,0,0,1024,1024,1024,1024,0,0,0,0,272.4,-89.9,0,98,4.048,4.033,4.026,4.033,0,0,16.096,74.84,217.95083276183,164.042,6,P-GPS,
26800,2023-07-15 14:23:02,52.2065037613027,0.0865605668858722,164.370084,163.0249396,55.253977161828,218.27891676183,83.66142,15.0098674,61.00393896,77.882548424,27,5,16.439,218.93508476183,165.026252,15.0098674,61.00393896,7.158208,-13.197946,-0.223694,288, -16, -27.5,0,0,1024,1024,1024,1024,0,0,0,0,272.4,-90,0,98,4.048,4.033,4.026,4.033,0,0,16.096,74.84,218.27891676183,164.370084,6,P-GPS,
27000,2023-07-15 14:23:02,52.2065089843476,0.0865432108858162,164.370084,162.9593228,55.319593961828,218.27891676183,83.66142,13.8019198,65.083007332,82.205711292,27,5,16.439,218.93508476183,165.026252,15.0098674,65.083007332,6.263432,-12.30317,-1.565858,284.1, 19.9, -21.7,0,0,1024,1024,1024,1024,0,0,0,0,272.3,-90,0,98,4.048,4.033,4.026,4.033,0,0,16.096,74.84,218.27891676183,164.370084,6,P-GPS,
27200,2023-07-15 14:23:03,52.2065137082153,0.0865289065996975,165.026252,163.549874,55.385210761828,218.93508476183,83.66142,11.3636552,68.573493008,85.838585424,27,5,15.981,218.93508476183,165.026252,15.0098674,68.573493008,6.039738,-9.618842,-1.11847,281.4, 19.7, -26.1,0,0,1024,1024,1024,1024,0,0,0,0,272.3,-90,0,98,3.948,3.965,3.976,3.955,0,0,19.938,74.84,218.93508476183,165.026252,6,P-GPS,
27400,2023-07-15 14:23:03,52.20651852183,0.0865176042744255,165.354336,163.8123412,55.450827561828,219.26316876183,83.66142,9.5741032,71.612863184,88.916013344,27,5,15.981,219.26316876183,165.354336,15.0098674,71.612863184,5.816044,-7.605596,0,279.7, 19.3, -29.7,0,0,1024,1024,1024,1024,0,0,0,0,272.4,-90,0,98,3.948,3.965,3.976,3.955,0,0,19.938,74.84,219.26316876183,165.354336,6,P-GPS,
27600,2023-07-15 14:23:03,52.2065228858186,0.0865093889613637,165.354336,163.7795328,55.483635961828,219.26316876183,83.66142,7.1134692,74.041012868,91.347115784,27,5,15.981,219.26316876183,165.354336,15.0098674,74.041012868,4.921268,-5.144962,0,279.6, 17.9, -30.1,0,0,1024,1024,1024,1024,0,0,0,0,272.4,-90,0,98,3.948,3.965,3.976,3.955,0,0,19.938,74.84,219.26316876183,165.354336,6,P-GPS,
27800,2023-07-15 14:23:03,52.2065264984884,0.0865041269883988,165.354336,163.7467244,55.516444361828,219.26316876183,83.66142,5.1002232,75.801839696,93.113848124,27,5,15.981,219.26316876183,165.354336,15.0098674,75.801839696,4.026492,-3.131716,0,280.1, 15.2, -31.9,0,0,1024,1024,1024,1024,0,0,0,0,272.4,-89.9,0,98,3.948,3.965,3.976,3.955,0,0,19.938,74.84,219.26316876183,165.354336,6,P-GPS,
28000,2023-07-15 14:23:03,52.2065293684234,0.0865013155962875,165.68242,164.042,55.549252761828,219.59125276183,83.66142,3.4001488,76.97998934,94.334976772,27,5,15.981,219.59125276183,165.68242,15.0098674,76.97998934,3.131716,-1.342164,0.223694,280.8, 9.2, -34.5,0,0,1024,1024,1024,1024,0,0,0,0,272.3,-89.9,0,98,3.948,3.965,3.976,3.955,0,0,19.938,74.84,219.59125276183,165.68242,6,P-GPS,
28200,2023-07-15 14:23:04,52.2065313491978,0.0865002041130846,165.68242,164.0091916,55.582061161828,219.59125276183,83.66142,2.0579848,77.661091724,95.099084408,27,5,16.542,219.59125276183,165.68242,15.0098674,77.661091724,2.013246,-0.447388,0.447388,282.2, 3.2, -35.5,0,0,1024,1024,1024,1024,0,0,0,0,272.4,-90,0,98,4.119,4.118,4.118,4.116,0,0,17.12,75.38,219.59125276183,165.68242,6,P-GPS,
28400,2023-07-15 14:23:04,52.2065323049062,0.0864998935721595,165.68242,163.9763832,55.614869561828,219.59125276183,83.66142,0.894776,77.953742652,95.454727464,27,5,16.542,219.59125276183,165.68242,15.0098674,77.953742652,0.894776,0,0.223694,284.2, -0.9, -35.2,0,0,1024,1024,1024,1024,0,0,0,0,272.3,-89.9,0,98,4.119,4.118,4.118,4.116,0,0,17.12,75.38,219.59125276183,165.68242,6,P-GPS,
28600,2023-07-15 14:23:04,52.2065322888347,0.0864997705524359,166.010504,164.3044672,55.614869561828,219.91933676183,83.66142,0.223694,77.969490684,95.482942688,27,5,16.542,219.91933676183,166.010504,15.0098674,77.969490684,0,-0.223694,0,285.1, -4.2, -32.2,0,0,1024,1024,1024,1024,0,0,0,0,272.3,-90,0,98,4.119,4.118,4.118,4.116,0,0,17.12,75.38,219.91933676183,166.010504,6,P-GPS,
28800,2023-07-15 14:23:04,52.2065316385712,0.0864994356312383,166.338588,164.6325512,55.614869561828,220.24742076183,83.66142,0.3131716,77.857942124,95.73163036,27,5,16.542,220.24742076183,166.338588,15.0098674,77.969490684,-0.223694,-0.223694,-0.223694,285.3, -5.2, -28.8,0,0,1024,1024,1024,1024,0,0,0,0,272.3,-90,0,98,4.119,4.118,4.118,4.116,0,0,17.12,75.38,220.24742076183,166.338588,6,P-GPS,
29000,2023-07-15 14:23:04,52.2065307091291,0.0864989343258645,166.338588,164.6653596,55.582061161828,220.24742076183,83.66142,0.7158208,77.703086476,96.088913836,27,5,16.542,220.24742076183,166.338588,15.0098674,77.969490684,-0.671082,-0.223694,-0.447388,285.8, -5.4, -25.9,0,1,1024,1024,1024,1024,0,0,0,0,272.4,-89.9,0,98,4.119,4.118,4.118,4.116,0,0,17.12,75.38,220.24742076183,166.338588,6,P-GPS,
29200,2023-07-15 14:23:05,52.2065296887747,0.0864983413987557,166.666672,164.9934436,55.582061161828,220.57550476183,83.66142,0.4921268,77.541341064,96.483926972,27,5,16.249,220.57550476183,166.666672,15.0098674,77.969490684,-0.447388,-0.223694,-0.223694,285.4, -4.4, -26.5,0,1,1024,1024,1024,1024,0,0,0,0,272.3,-90,0,98,4.03,4.04,4.042,4.048,0,0,12.681,75.74,220.57550476183,166.666672,6,P-GPS,
29400,2023-07-15 14:23:05,52.2065288709252,0.0864979487142061,166.994756,165.354336,55.549252761828,220.90358876183,83.66142,0.223694,77.39993686,96.794950604,28,5,16.249,220.90358876183,166.994756,15.0098674,77.969490684,-0.223694,0,0,285.7, -4.5, -27.1,0,1,1024,1024,1024,1024,0,0,0,0,272.3,-90,0,98,4.03,4.04,4.042,4.048,0,0,12.681,75.74,220.90358876183,166.994756,6,P-GPS,
29600,2023-07-15 14:23:05,52.206528193419,0.0864977399441433,166.994756,165.354336,55.549252761828,220.90358876183,83.66142,0,77.264110084,97.046591032,28,5,16.249,220.90358876183,166.994756,15.0098674,77.969490684,0,0,0,285.2, -4.1, -28.3,0,1,1024,1024,1024,1024,0,0,0,0,272.4,-90,0,98,4.03,4.04,4.042,4.048,0,0,12.681,75.74,220.90358876183,166.994756,6,P-GPS,
29800,2023-07-15 14:23:05,52.206527508254,0.0864975978563625,166.666672,165.026252,55.549252761828,220.57550476183,83.66142,0.223694,77.116472284,97.298559544,27,5,16.249,220.90358876183,166.994756,15.0098674,77.969490684,-0.223694,0,-0.223694,285.8, -4.7, -26.8,0,1,1024,1024,1024,1024,0,0,0,0,272.4,-89.9,0,98,4.03,4.04,4.042,4.048,0,0,12.681,75.74,220.57550476183,166.666672,6,P-GPS,
30000,2023-07-15 14:23:05,52.2065267913913,0.0864975424695278,166.338588,164.698168,55.549252761828,220.24742076183,83.66142,0.223694,76.94718094,97.560370576,28,5,16.249,220.90358876183,166.994756,15.0098674,77.969490684,-0.223694,0,0,285.7, -5.4, -26.4,0,1,1024,1024,1024,1024,0,0,0,0,272.4,-90,0,98,4.03,4.04,4.042,4.048,0,0,12.681,75.74,220.24742076183,166.338588,6,P-GPS,
30200,2023-07-15 14:23:06,52.2065260705536,0.0864973401300415,166.010504,164.4028924,55.516444361828,219.91933676183,83.66142,0.223694,76.801511644,97.827430952,28,5,16.474,220.90358876183,166.994756,15.0098674,77.969490684,-0.223694,0,0,285.7, -5.1, -23.3,0,1,1024,1024,1024,1024,0,0,0,0,272.4,-90,0,98,4.099,4.103,4.103,4.101,0,0,13.593,76.1,219.91933676183,166.010504,6,P-GPS,
30400,2023-07-15 14:23:06,52.2065253796145,0.0864969022637025,165.354336,163.7467244,55.516444361828,219.26316876183,83.66142,0.223694,76.702430276,98.097772168,27,5,16.474,220.90358876183,166.994756,15.0098674,77.969490684,-0.223694,0,0,285.6, -3.7, -21.6,0,1,1024,1024,1024,1024,0,0,0,0,272.4,-90,0,98,4.099,4.103,4.103,4.101,0,0,13.593,76.1,219.26316876183,165.354336,6,P-GPS,
30600,2023-07-15 14:23:06,52.206524792849,0.0864963827849604,165.026252,163.4186404,55.516444361828,218.93508476183,83.66142,0,76.643375156,98.341210496,28,5,16.474,220.90358876183,166.994756,15.0098674,77.969490684,0,0,0,285.1, -2, -21.1,0,1,1024,1024,1024,1024,0,0,0,0,272.4,-90,0,98,4.099,4.103,4.103,4.101,0,0,13.593,76.1,218.93508476183,165.026252,6,P-GPS,
30800,2023-07-15 14:23:06,52.206524314438,0.0864960364005613,164.698168,163.0905564,55.516444361828,218.60700076183,83.66142,0,76.583335784,98.532155384,28,5,16.474,220.90358876183,166.994756,15.0098674,77.969490684,0,0,-0.223694,285.5, -2.2, -20.2,0,1,1024,1024,1024,1024,0,0,0,0,272.3,-89.9,0,98,4.099,4.103,4.103,4.101,0,0,13.593,76.1,218.60700076183,164.698168,6,P-GPS,
