time(millisecond),datetime(utc),latitude,longitude,height_above_takeoff(feet),height_above_ground_at_drone_location(feet),ground_elevation_at_drone_location(feet),altitude_above_seaLevel(feet),height_sonar(feet),speed(mph),distance(feet),mileage(feet),satellites,gpslevel,voltage(v),max_altitude(feet),max_ascent(feet),max_speed(mph),max_distance(feet), xSpeed(mph), ySpeed(mph), zSpeed(mph), compass_heading(degrees), pitch(degrees), roll(degrees),isPhoto,isVideo,rc_elevator,rc_aileron,rc_throttle,rc_rudder,rc_elevator(percent),rc_aileron(percent),rc_throttle(percent),rc_rudder(percent),gimbal_heading(degrees),gimbal_pitch(degrees),gimbal_roll(degrees),battery_percent,voltageCell1,voltageCell2,voltageCell3,voltageCell4,voltageCell5,voltageCell6,current(A),battery_temperature(f),altitude(feet),ascent(feet),flycStateRaw,flycState,message
0,2023-07-13 17:54:55,52.2063826067836,0.0867227359012267,0,0,53.794629674184,53.794629674184,0.328084,0,0,0,19,5,0,53.794629674184,0,0,0,0,0,0,270.7, 4.5, 0.7,0,0,1024,1024,1024,1024,0,0,0,0,270.8,0,0,100,4.301,4.305,4.301,4.301,0,0,0,76.64,53.794629674184,0,41,Motors_Started,"Setting new Return-To-Home altitude to 26m (85 ft). Data Recorder File Index is 58. Setting new Maximum Flight Altitude to 120m (394 ft) Aircraft not in flight. Vision systems and obstacle avoidance disabled (Code: 180059)"
200,2023-07-13 17:54:55,52.2063825417146,0.0867226247611261,0,0,53.794629674184,53.794629674184,0.328084,0,0.034367127084,0.034367127084,19,5,0,53.794629674184,0,0,0.034367127084,0,0,0,270.7, 4.5, 0.7,0,0,1024,1024,1024,1024,0,0,0,0,270.8,0,0,100,4.301,4.305,4.301,4.301,0,0,0,76.64,53.794629674184,0,41,Motors_Started,
400,2023-07-13 17:54:55,52.2063824791301,0.0867224966654186,0,0,53.794629674184,53.794629674184,0.328084,0,0.070924871036,0.070996065264,19,5,0,53.794629674184,0,0,0.070924871036,0,0,0,270.6, 4.5, 0.7,0,0,1024,1024,1024,1024,0,0,0,0,270.8,0,0,100,4.301,4.305,4.301,4.301,0,0,0,76.64,53.794629674184,0,41,Motors_Started,
600,2023-07-13 17:54:55,52.206382438576,0.0867224024007202,0,0,53.794629674184,53.794629674184,0,0,0.096573493904,0.096747378424,19,5,0,53.794629674184,0,0,0.096573493904,0,0,0,270.5, 4.5, 0.7,0,0,1024,1024,1024,1024,0,0,0,0,270.8,0,0,100,4.301,4.305,4.301,4.301,0,0,0,76.64,53.794629674184,0,41,Motors_Started,
800,2023-07-13 17:54:55,52.2063824156749,0.0867223218964337,0,0,53.794629674184,53.794629674184,0,0,0.115888455152,0.116591867248,19,5,0,53.794629674184,0,0,0.115888455152,0,0,0,270.7, 4.4, 0.7,0,0,1024,1024,1024,1024,0,0,0,0,270.8,0,0,100,4.301,4.305,4.301,4.301,0,0,0,76.64,53.794629674184,0,41,Motors_Started,
1000,2023-07-13 17:54:56,52.206382419114,0.0867222594870307,0,0,53.794629674184,53.794629674184,0,0,0.126628612976,0.1306020383,19,5,17.244,53.794629674184,0,0,0.126628612976,0,0,0,270.8, 4.4, 0.7,0,0,1024,1024,1024,1024,0,0,0,0,270.8,0,0,100,4.301,4.305,4.301,4.301,0,0,2.488,76.64,53.794629674184,0,41,Motors_Started,
1200,2023-07-13 17:54:56,52.2063824538272,0.086722226557114,0,0,53.794629674184,53.794629674184,0,0,0.1268208702,0.145251645068,19,5,17.244,53.794629674184,0,0,0.1268208702,0,0,0,270.8, 4.5, 0.7,0,0,1024,1024,1024,1024,0,0,0,0,270.8,0,0,100,4.301,4.305,4.301,4.301,0,0,2.488,76.64,53.794629674184,0,41,Motors_Started,
1400,2023-07-13 17:54:56,52.2063824919006,0.0867222108727427,0,0,53.794629674184,53.794629674184,0,0,0.124647969868,0.15957841718,25,5,17.244,53.794629674184,0,0,0.1268208702,0,0,0,270.8, 4.5, 0.7,0,0,1024,1024,1024,1024,0,0,0,0,270.8,0,0,100,4.301,4.305,4.301,4.301,0,0,2.488,76.64,53.794629674184,0,41,Motors_Started,
1600,2023-07-13 17:54:56,52.2063825296931,0.086722177579686,0,0,53.794629674184,53.794629674184,0,0,0.12796260252,0.175248037104,25,5,17.244,53.794629674184,0,0,0.12796260252,0,0,0,270.8, 4.5, 0.7,0,0,1024,1024,1024,1024,0,0,0,0,270.8,0,0,100,4.301,4.305,4.301,4.301,0,0,2.488,76.64,53.794629674184,0,11,AutoTakeoff,
1800,2023-07-13 17:54:56,52.2063825858394,0.0867221200091644,0,0,53.794629674184,53.794629674184,0,0,0.137916999164,0.199441607432,25,5,17.244,53.794629674184,0,0,0.137916999164,0,0,0,271, 4.4, 0.7,0,0,1024,1024,1024,1024,0,0,0,0,270.8,0,0,100,4.301,4.305,4.301,4.301,0,0,2.488,76.64,53.794629674184,0,11,AutoTakeoff,
2000,2023-07-13 17:54:57,52.2063826590706,0.0867220400154854,0,0,53.794629674184,53.794629674184,0,0,0.156755910528,0.231593839432,25,5,17.283,53.794629674184,0,0,0.156755910528,0,0,0,271.3, 0.9, 0.6,0,0,1024,1024,1024,1024,0,0,0,0,270.8,0,0,100,4.327,4.331,4.328,4.321,0,0,3.874,76.64,53.794629674184,0,11,AutoTakeoff,
2200,2023-07-13 17:54:57,52.2063827599687,0.0867219241926128,0,0,53.794629674184,53.794629674184,0,0,0.189897971956,0.27660269914,25,5,17.283,53.794629674184,0,0,0.189897971956,0,0,-0.671082,271.8, -1.7, -0.5,0,0,1024,1024,1024,1024,0,0,0,0,270.8,0,0,100,4.327,4.331,4.328,4.321,0,0,3.874,76.64,53.794629674184,0,11,AutoTakeoff,
2400,2023-07-13 17:54:57,52.2063828707388,0.0867215379900088,0.328084,0.328084,53.794629674184,54.122713674184,0.328084,0,0.28462435294,0.37194226912,25,5,17.283,54.122713674184,0.328084,0,0.28462435294,0,0,-1.11847,271.6, 0.6, -0.4,0,0,1024,1024,1024,1024,0,0,0,0,270.9,0,0,100,4.327,4.331,4.328,4.321,0,0,3.874,76.64,54.122713674184,0.328084,11,AutoTakeoff,
2600,2023-07-13 17:54:57,52.2063829844285,0.0867210685871724,0.656168,0.656168,53.794629674184,54.450797674184,0.656168,0,0.39743767676,0.4847933226,25,5,17.283,54.450797674184,0.656168,0,0.39743767676,0,0,-1.11847,271.6, 0.5, -0.2,0,0,1024,1024,1086,1024,0,0,9,0,270.9,0,0,100,4.327,4.331,4.328,4.321,0,0,3.874,76.64,54.450797674184,0.656168,11,AutoTakeoff,
2800,2023-07-13 17:54:57,52.2063831522616,0.0867206112405838,0.984252,0.984252,53.794629674184,54.778881674184,0.984252,0,0.51504922908,0.60398295896,25,5,17.283,54.778881674184,0.984252,0,0.51504922908,0,0,-0.894776,271.9, 0.1, -1.9,0,0,1024,1024,1564,1024,0,0,82,0,270.9,0,0,100,4.327,4.331,4.328,4.321,0,0,3.874,76.64,54.778881674184,0.984252,11,AutoTakeoff,
3000,2023-07-13 17:54:58,52.2063832125133,0.0867201702178204,1.312336,1.312336,53.794629674184,55.106965674184,1.64042,0,0.61475067584,0.70500986508,25,5,17.057,55.106965674184,1.312336,0,0.61475067584,0,0,-2.013246,272, -0.5, -1.7,0,0,1024,1024,1480,1024,0,0,69,0,271,0,0,100,4.263,4.267,4.262,4.263,0,0,5.553,76.46,55.106965674184,1.312336,11,AutoTakeoff,
3200,2023-07-13 17:54:58,52.2063831067366,0.0867196860265038,2.296588,2.296588,53.794629674184,56.091217674184,2.296588,0.223694,0.70588584936,0.81994097112,26,5,17.057,56.091217674184,2.296588,0.223694,0.70588584936,-0.223694,0,-3.802798,271.6, -1.3, 0.8,0,0,1024,1024,1024,1024,0,0,0,0,271,0,0,100,4.263,4.267,4.262,4.263,0,0,5.553,76.46,56.091217674184,2.296588,11,AutoTakeoff,
3400,2023-07-13 17:54:58,52.2063830084603,0.086719109552414,3.608924,3.608924,53.794629674184,57.403553674184,3.937008,0,0.82394031508,0.95372706464,25,5,17.057,57.403553674184,3.608924,0.223694,0.82394031508,0,0,-4.697574,271.6, -1.6, 1.7,0,0,1024,1024,1024,1024,0,0,0,0,271,0,0,100,4.263,4.267,4.262,4.263,0,0,5.553,76.46,57.403553674184,3.608924,11,AutoTakeoff,
3600,2023-07-13 17:54:58,52.2063830122261,0.0867183996022608,4.92126,4.92126,53.794629674184,58.715889674184,5.249344,0,0.9807579054,1.11247050804,25,5,17.057,58.715889674184,4.92126,0.223694,0.9807579054,0,0,-3.35541,271.4, -1.2, 1.2,0,0,1024,1024,1024,1024,0,0,0,0,271,0,0,100,4.263,4.267,4.262,4.263,0,0,5.553,76.46,58.715889674184,4.92126,6,P-GPS,
3800,2023-07-13 17:54:59,52.2063830979376,0.0867176283243704,5.577428,5.577428,53.794629674184,59.372057674184,5.905512,0,1.15596132308,1.2877297,25,5,17.057,59.372057674184,5.577428,0.223694,1.15596132308,0,0,-1.342164,270.8, -0.8, -0.3,0,0,1024,1024,1024,1024,0,0,0,0,271,0,0,100,4.263,4.267,4.262,4.263,0,0,5.553,76.46,59.372057674184,5.577428,6,P-GPS,
4000,2023-07-13 17:54:59,52.2063831883605,0.0867168904898713,5.905512,5.905512,53.794629674184,59.700141674184,6.233596,0,1.32406828384,1.45596461352,26,5,16.9,59.700141674184,5.905512,0.223694,1.32406828384,0,0,0,270.7, -1.2, -0.4,0,0,1024,1024,1024,1024,0,0,0,0,271,0,0,100,4.264,4.275,4.284,4.29,0,0,8.888,76.64,59.700141674184,5.905512,6,P-GPS,
4200,2023-07-13 17:54:59,52.2063833380717,0.0867162443326572,5.905512,5.905512,53.794629674184,59.700141674184,5.905512,0.223694,1.47574807872,1.61041999904,26,5,16.9,59.700141674184,5.905512,0.223694,1.47574807872,0.223694,0,0,269.9, -1.9, -1.7,0,0,1024,1024,1024,1024,0,0,0,0,271,0,0,100,4.264,4.275,4.284,4.29,0,0,8.888,76.64,59.700141674184,5.905512,6,P-GPS,
4400,2023-07-13 17:54:59,52.2063835056453,0.0867156312309025,5.905512,5.905512,53.794629674184,59.700141674184,5.905512,0.223694,1.62200792592,1.7605151482,26,5,16.9,59.700141674184,5.905512,0.223694,1.62200792592,0.223694,0,0,269.7, -2.4, -3.1,0,0,1024,1024,1085,1024,0,0,9,0,271,0,0,100,4.264,4.275,4.284,4.29,0,0,8.888,76.64,59.700141674184,5.905512,6,P-GPS,
4600,2023-07-13 17:54:59,52.206383588842,0.086715043335978,5.905512,5.905512,53.794629674184,59.700141674184,5.905512,0,1.75687997748,1.89542000816,26,5,16.9,59.700141674184,5.905512,0.223694,1.75687997748,0,0,0,269.7, -2.7, -3.6,0,0,1024,1024,1684,1024,0,0,100,0,271,0,0,100,4.264,4.275,4.284,4.29,0,0,8.888,76.64,59.700141674184,5.905512,6,P-GPS,
4800,2023-07-13 17:55:00,52.2063836047948,0.0867144539207802,5.905512,5.905512,53.794629674184,59.700141674184,6.233596,0,1.88720150396,2.02733602288,26,5,16.9,59.700141674184,5.905512,0.223694,1.88720150396,0,0,-0.894776,269.8, -1.8, -2.7,0,0,1024,1024,1684,1024,0,0,100,0,271,0,0,100,4.264,4.275,4.284,4.29,0,0,8.888,76.64,59.700141674184,5.905512,6,P-GPS,
5000,2023-07-13 17:55:00,52.2063835406546,0.086713892772181,6.56168,6.56168,53.794629674184,60.356309674184,6.889764,0,2.0063484894,2.15496397972,26,5,17.041,60.356309674184,6.56168,0.223694,2.0063484894,0,0,-3.131716,269.6, -1.3, -3,0,0,1024,1024,1633,1024,0,0,92,0,271,0,0,100,4.256,4.259,4.256,4.26,0,0,5.601,76.64,60.356309674184,6.56168,6,P-GPS,
5200,2023-07-13 17:55:00,52.2063833373943,0.0867133889020624,7.874016,7.874016,53.794629674184,61.668645674184,8.2021,0.223694,2.10679468684,2.28983931212,26,5,17.041,61.668645674184,7.874016,0.223694,2.10679468684,-0.223694,0,-5.59235,269.6, -0.8, -1.5,0,0,1024,1024,1024,1024,0,0,0,0,271,0,0,100,4.256,4.259,4.256,4.26,0,0,5.601,76.64,61.668645674184,7.874016,6,P-GPS,
5400,2023-07-13 17:55:00,52.2063831119046,0.086713031240296,9.84252,9.84252,53.794629674184,63.637149674184,10.170604,0.223694,2.17764442664,2.40457028692,26,5,17.041,63.637149674184,9.84252,0.223694,2.17764442664,-0.223694,0,-6.71082,269.7, -2.6, -0.2,0,0,1024,1024,1024,1024,0,0,0,0,271,0,0,100,4.256,4.259,4.256,4.26,0,0,5.601,76.64,63.637149674184,9.84252,6,P-GPS,
5600,2023-07-13 17:55:00,52.2063829676842,0.0867126936636114,11.48294,11.48294,53.794629674184,65.277569674184,11.811024,0,2.24916673864,2.49658144472,26,5,17.041,65.277569674184,11.48294,0.223694,2.24916673864,0,0,-4.697574,269.5, -2.9, -1,0,0,1024,1024,1024,1024,0,0,0,0,271,0,0,100,4.256,4.259,4.256,4.26,0,0,5.601,76.64,65.277569674184,11.48294,6,P-GPS,
5800,2023-07-13 17:55:01,52.2063829013373,0.0867123534273223,12.467192,12.467192,53.794629674184,66.261821674184,12.795276,0,2.3238681846,2.5764108436,26,5,17.041,66.261821674184,12.467192,0.223694,2.3238681846,0,0,-2.460634,269.5, -2.7, -1.1,0,0,1024,1024,1024,1024,0,0,0,0,271,0,0,100,4.256,4.259,4.256,4.26,0,0,5.601,76.64,66.261821674184,12.467192,6,P-GPS,
6000,2023-07-13 17:55:01,52.2063828753527,0.0867120037836869,13.12336,13.12336,53.794629674184,66.917989674184,13.12336,0,2.4015584758,2.65516084612,26,5,16.786,66.917989674184,13.12336,0.223694,2.4015584758,0,0,-0.671082,269.5, -2.4, -1,0,0,1024,1024,1024,1024,0,0,0,0,271,0,0,100,4.266,4.27,4.267,4.291,0,0,10.086,76.82,66.917989674184,13.12336,6,P-GPS,
6200,2023-07-13 17:55:01,52.2063828956554,0.0867116470934974,13.12336,13.12336,53.794629674184,66.917989674184,13.12336,0,2.48154863584,2.7352527122,26,5,16.786,66.917989674184,13.12336,0.223694,2.48154863584,0,0,0,269.5, -2.1, -1.2,0,0,1024,1024,1024,1024,0,0,0,0,271,0,0,100,4.266,4.27,4.267,4.291,0,0,10.086,76.82,66.917989674184,13.12336,6,P-GPS,
6400,2023-07-13 17:55:01,52.20638294767,0.0867113452449826,13.12336,13.12336,53.794629674184,66.917989674184,13.12336,0,2.54983275876,2.80536098216,26,5,16.786,66.917989674184,13.12336,0.223694,2.54983275876,0,0,0,269.6, -2.2, -2.4,0,0,1024,1024,1024,1024,0,0,0,0,271,0,0,100,4.266,4.27,4.267,4.291,0,0,10.086,76.82,66.917989674184,13.12336,6,P-GPS,
6600,2023-07-13 17:55:01,52.2063830323375,0.0867111295671308,13.12336,13.12336,53.794629674184,66.917989674184,13.12336,0,2.59966215668,2.86262804436,26,5,16.786,66.917989674184,13.12336,0.223694,2.59966215668,0,0,0,270.4, -2.3, -2.9,0,0,1024,1024,1087,1024,0,0,10,0,271,0,0,100,4.266,4.27,4.267,4.291,0,0,10.086,76.82,66.917989674184,13.12336,6,P-GPS,
6800,2023-07-13 17:55:02,52.2063831335315,0.0867110306672371,13.12336,13.12336,53.794629674184,66.917989674184,13.12336,0,2.624179874,2.90566610348,26,5,16.786,66.917989674184,13.12336,0.223694,2.624179874,0,0,0,270.5, -2.3, -2.7,0,0,1024,1024,1684,1024,0,0,100,0,271,0,0,100,4.266,4.27,4.267,4.291,0,0,10.086,76.82,66.917989674184,13.12336,6,P-GPS,
7000,2023-07-13 17:55:02,52.2063832293599,0.0867110134226198,13.12336,13.12336,53.794629674184,66.917989674184,13.12336,0,2.63081373248,2.94083998912,26,5,17.035,66.917989674184,13.12336,0.223694,2.63081373248,0,0,-0.223694,270.5, -1.8, -2.2,0,0,1024,1024,1024,1024,0,0,0,0,271,0,0,100,4.253,4.258,4.252,4.255,0,0,5.22,76.82,66.917989674184,13.12336,6,P-GPS,
7200,2023-07-13 17:55:02,52.2063833265281,0.0867110725184386,13.451444,13.451444,53.794629674184,67.246073674184,13.451444,0,2.6209646508,2.978674636,26,5,17.035,67.246073674184,13.451444,0.223694,2.63081373248,0,0,-2.23694,270.8, -1.9, -2,0,0,1024,1024,1024,1024,0,0,0,0,271,0,0,100,4.253,4.258,4.252,4.255,0,0,5.22,76.82,67.246073674184,13.451444,6,P-GPS,
7400,2023-07-13 17:55:02,52.2063834431026,0.0867111923666498,14.107612,14.107612,53.794629674184,67.902241674184,14.107612,0,2.59895349524,3.02894366648,26,5,17.035,67.902241674184,14.107612,0.223694,2.63081373248,0,0,-0.894776,270.4, -3.6, -3.8,0,0,1024,1024,1024,1024,0,0,0,0,271,0,0,100,4.253,4.258,4.252,4.255,0,0,5.22,76.82,67.902241674184,14.107612,6,P-GPS,
7600,2023-07-13 17:55:02,52.2063835025677,0.0867112346398583,14.107612,14.107612,53.794629674184,67.902241674184,14.107612,0,2.59221464988,3.0526083654,26,5,17.035,67.902241674184,14.107612,0.223694,2.63081373248,0,0,-0.223694,270.2, -1.7, -2.9,0,0,1024,1024,1024,1024,0,0,0,0,271,0,0,100,4.253,4.258,4.252,4.255,0,0,5.22,76.82,67.902241674184,14.107612,6,P-GPS,
7800,2023-07-13 17:55:02,52.2063835056289,0.0867112803764939,14.107612,14.107612,53.794629674184,67.902241674184,14.107612,0,2.58221136872,3.06289707964,26,5,17.035,67.902241674184,14.107612,0.223694,2.63081373248,0,0,0,270.3, -1.4, -1.5,0,0,1024,1024,1024,1024,0,0,0,0,271,0,0,100,4.253,4.258,4.252,4.255,0,0,5.22,76.82,67.902241674184,14.107612,6,P-GPS,
8000,2023-07-13 17:55:03,52.2063835325334,0.0867113932873661,14.107612,14.107612,53.794629674184,67.902241674184,14.107612,0,2.55845152544,3.08998369468,26,5,17.123,67.902241674184,14.107612,0.223694,2.63081373248,0,0,0,270.3, -1.6, -1.3,0,0,1024,1024,1024,1024,0,0,0,0,271,0,0,100,4.265,4.27,4.262,4.262,0,0,7.353,76.64,67.902241674184,14.107612,6,P-GPS,
8200,2023-07-13 17:55:03,52.2063836083406,0.0867115064795762,14.107612,14.107612,53.794629674184,67.902241674184,14.107612,0,2.53720152476,3.12747385336,26,5,17.123,67.902241674184,14.107612,0.223694,2.63081373248,0,0,0,270.4, -1.4, -1.3,0,0,1024,1024,1024,1024,0,0,0,0,271,0,0,100,4.265,4.27,4.262,4.262,0,0,7.353,76.64,67.902241674184,14.107612,6,P-GPS,
8400,2023-07-13 17:55:03,52.2063837163974,0.0867116255239648,14.107612,14.107612,53.794629674184,67.902241674184,14.107612,0,2.51690624852,3.17503947168,26,5,17.123,67.902241674184,14.107612,0.223694,2.63081373248,0,0,0,270.4, -1.5, -1.1,0,0,1024,1024,1024,1024,0,0,0,0,271,0,0,100,4.265,4.27,4.262,4.262,0,0,7.353,76.64,67.902241674184,14.107612,6,P-GPS,
8600,2023-07-13 17:55:03,52.2063838514052,0.0867117632712097,14.107612,14.107612,53.794629674184,67.902241674184,14.107612,0,2.49500664152,3.23313330556,26,5,17.123,67.902241674184,14.107612,0.223694,2.63081373248,0,0,0,270.4, -2.1, -1.3,0,0,1024,1024,1024,1024,0,0,0,0,271,0,0,100,4.265,4.27,4.262,4.262,0,0,7.353,76.64,67.902241674184,14.107612,6,P-GPS,
8800,2023-07-13 17:55:03,52.2063840109662,0.086711881170151,14.107612,14.107612,53.794629674184,67.902241674184,14.107612,0,2.48045611612,3.2970473496,26,5,17.123,67.902241674184,14.107612,0.223694,2.63081373248,0,0,0,270.4, -2.4, -1.9,0,0,1024,1024,1024,1024,0,0,0,0,271,0,0,100,4.265,4.27,4.262,4.262,0,0,7.353,76.64,67.902241674184,14.107612,6,P-GPS,
9000,2023-07-13 17:55:04,52.2063841944008,0.0867119623841987,14.107612,14.107612,53.794629674184,67.902241674184,14.107612,0,2.47748039424,3.3663714988,26,5,17.002,67.902241674184,14.107612,0.223694,2.63081373248,0,0,0,270.8, -2.5, -2.4,0,0,1024,1024,1024,1024,0,0,0,0,271,0,0,100,4.249,4.254,4.248,4.251,0,0,6.692,76.82,67.902241674184,14.107612,6,P-GPS,
9200,2023-07-13 17:55:04,52.2063844004247,0.0867120313434458,14.107612,14.107612,53.794629674184,67.902241674184,14.107612,0,2.4812500794,3.4431103464,26,5,17.002,67.902241674184,14.107612,0.223694,2.63081373248,0,0,0,270.5, -2.2, -3.1,0,0,1024,1024,1153,1024,0,0,20,0,271,0,0,100,4.249,4.254,4.248,4.251,0,0,6.692,76.82,67.902241674184,14.107612,6,P-GPS,
9400,2023-07-13 17:55:04,52.2063845421943,0.0867121075397179,14.435696,14.435696,53.794629674184,68.230325674184,14.435696,0,2.47905519744,3.4975722904,26,5,17.002,68.230325674184,14.435696,0.223694,2.63081373248,0,0,0,270, -2.5, -3.8,0,0,1024,1024,1547,1024,0,0,79,0,271,0,0,100,4.249,4.254,4.248,4.251,0,0,6.692,76.82,68.230325674184,14.435696,6,P-GPS,
9600,2023-07-13 17:55:04,52.2063845000582,0.0867121477247349,14.435696,14.435696,53.794629674184,68.230325674184,14.435696,0.223694,2.4660925986,3.5153872516,26,5,17.002,68.230325674184,14.435696,0.223694,2.63081373248,-0.223694,0,-1.11847,270.5, -1, -0.4,0,0,1024,1024,1024,1024,0,0,0,0,271,0,0,100,4.249,4.254,4.248,4.251,0,0,6.692,76.82,68.230325674184,14.435696,6,P-GPS,
9800,2023-07-13 17:55:04,52.20638448708,0.0867122269842704,15.091864,15.091864,53.794629674184,68.886493674184,15.091864,0,2.44775598384,3.5337271472,26,5,17.002,68.886493674184,15.091864,0.223694,2.63081373248,0,0,-2.684328,270.8, -2.9, -0.7,0,0,1024,1024,1024,1024,0,0,0,0,271,0,0,100,4.249,4.254,4.248,4.251,0,0,6.692,76.82,68.886493674184,15.091864,6,P-GPS,
10000,2023-07-13 17:55:05,52.2063845568326,0.0867122761065721,15.748032,15.748032,53.794629674184,69.542661674184,15.748032,0,2.44449810972,3.5614502452,26,5,16.994,69.542661674184,15.748032,0.223694,2.63081373248,0,0,-1.11847,270.5, -3.5, -1.9,0,0,1024,1024,1024,1024,0,0,0,0,271,0,0,100,4.192,4.195,4.192,4.197,0,0,6.997,77,69.542661674184,15.748032,6,P-GPS,
10200,2023-07-13 17:55:05,52.2063846117219,0.0867122084701376,15.748032,15.748032,53.794629674184,69.542661674184,16.076116,0,2.46483931772,3.5865486712,26,5,16.994,69.542661674184,15.748032,0.223694,2.63081373248,0,0,-0.223694,270.4, -1.2, -1,0,0,1024,1024,1024,1024,0,0,0,0,271,0,0,100,4.192,4.195,4.192,4.197,0,0,6.997,77,69.542661674184,15.748032,6,P-GPS,
10400,2023-07-13 17:55:05,52.2063846593665,0.086712104597028,16.076116,16.076116,53.794629674184,69.870745674184,16.4042,0,2.49219496164,3.6155512968,26,5,16.994,69.870745674184,16.076116,0.223694,2.63081373248,0,0,0,270.5, -1, -0.5,0,0,1024,1024,1024,1024,0,0,0,0,271,0,0,100,4.192,4.195,4.192,4.197,0,0,6.997,77,69.870745674184,16.076116,6,P-GPS,
10600,2023-07-13 17:55:05,52.2063847543313,0.0867120168825014,16.076116,16.076116,53.794629674184,69.870745674184,16.4042,0,2.52146005444,3.655347886,26,5,16.994,69.870745674184,16.076116,0.223694,2.63081373248,0,0,0,270.5, -1.5, -1.7,0,0,1024,1024,1190,1024,0,0,25,0,271,0,0,100,4.192,4.195,4.192,4.197,0,0,6.997,77,69.870745674184,16.076116,6,P-GPS,
10800,2023-07-13 17:55:06,52.20638491398,0.0867119721847191,16.076116,16.076116,53.794629674184,69.870745674184,16.4042,0,2.54959325744,3.7144686228,26,5,16.994,69.870745674184,16.076116,0.223694,2.63081373248,0,0,0,270.5, -1.8, -2.2,0,0,1024,1024,1469,1024,0,0,67,0,271,0,0,100,4.192,4.195,4.192,4.197,0,0,6.997,77,69.870745674184,16.076116,6,P-GPS,
11000,2023-07-13 17:55:06,52.2063850923948,0.086711964191926,16.076116,16.076116,53.794629674184,69.870745674184,16.4042,0,2.573490896,3.7795932968,26,5,17.015,69.870745674184,16.076116,0.223694,2.63081373248,0,0,-1.11847,270.3, -1.1, -1.5,0,0,1024,1024,1452,1024,0,0,65,0,271,0,0,100,4.252,4.256,4.253,4.254,0,0,6.977,77,69.870745674184,16.076116,6,P-GPS,
11200,2023-07-13 17:55:06,52.2063852917433,0.0867120838496662,16.732284,16.732284,53.794629674184,70.526913674184,17.060368,0,2.57524942624,3.8570867376,26,5,17.015,70.526913674184,16.732284,0.223694,2.63081373248,0,0,-3.35541,270.9, -2.6, -2,0,0,1024,1024,1024,1024,0,0,0,0,271,0,0,100,4.252,4.256,4.253,4.254,0,0,6.977,77,70.526913674184,16.732284,6,P-GPS,
11400,2023-07-13 17:55:06,52.206385482373,0.0867122309902779,18.04462,18.04462,53.794629674184,71.839249674184,18.372704,0,2.57243118468,3.9340224356,26,5,17.015,71.839249674184,18.04462,0.223694,2.63081373248,0,0,-3.579104,270.6, -5.5, -4.6,0,0,1024,1024,1684,1024,0,0,100,0,271,0,0,100,4.252,4.256,4.253,4.254,0,0,6.977,77,71.839249674184,18.04462,6,P-GPS,
11600,2023-07-13 17:55:06,52.2063855821167,0.0867123116687351,18.700788,18.700788,53.794629674184,72.495417674184,19.356956,0,2.57112212952,3.9746392348,26,5,17.015,72.495417674184,18.700788,0.223694,2.63081373248,0,0,-2.684328,270.2, -3.5, -3,0,0,1024,1024,1684,1024,0,0,100,0,271,0,0,100,4.252,4.256,4.253,4.254,0,0,6.977,77,72.495417674184,18.700788,6,P-GPS,
11800,2023-07-13 17:55:07,52.2063855675153,0.0867123306529294,20.013124,20.013124,53.794629674184,73.807753674184,20.669292,0,2.5650263288,3.9814305736,26,5,17.015,73.807753674184,20.013124,0.223694,2.63081373248,0,0,-4.697574,270.7, -2.3, -0.5,0,0,1024,1024,1684,1024,0,0,100,0,271,0,0,100,4.252,4.256,4.253,4.254,0,0,6.977,77,73.807753674184,20.013124,6,P-GPS,
12000,2023-07-13 17:55:07,52.2063856441309,0.0867124227011087,21.981628,21.981628,53.794629674184,75.776257674184,22.309712,0,2.55835966192,4.0161418608,26,5,17.036,75.776257674184,21.981628,0.223694,2.63081373248,0,0,-6.934514,271, -3.9, -1.6,0,0,1024,1024,1684,1024,0,0,100,0,271,0,0,100,4.225,4.18,4.172,4.178,0,0,7.985,77.18,75.776257674184,21.981628,6,P-GPS,
12200,2023-07-13 17:55:07,52.2063857427665,0.0867122973397225,24.934384,24.934384,53.794629674184,78.729013674184,24.934384,0,2.59928814092,4.0617783452,26,5,17.036,78.729013674184,24.934384,0.223694,2.63081373248,0,0,-9.171454,270.8, -2.5, -2.9,0,0,1024,1024,1684,1024,0,0,100,0,271,0,0,100,4.225,4.18,4.172,4.178,0,0,7.985,77.18,78.729013674184,24.934384,6,P-GPS,
12400,2023-07-13 17:55:07,52.2063857634079,0.0867121005980103,28.871392,28.871392,53.794629674184,82.666021674184,28.215224,0,2.64213263048,4.1063977692,26,5,17.036,82.666021674184,28.871392,0.223694,2.64213263048,0,0,-11.408394,270.7, -1.9, -1.9,0,0,1024,1024,1649,1024,0,0,95,0,271,0,0,100,4.225,4.18,4.172,4.178,0,0,7.985,77.18,82.666021674184,28.871392,6,P-GPS,
12600,2023-07-13 17:55:07,52.2063857560933,0.0867119660756669,33.136484,33.136484,53.794629674184,86.931113674184,32.152232,0,2.66808407488,4.1365814972,26,5,17.036,86.931113674184,33.136484,0.223694,2.66808407488,0,0,-12.750558,270.6, -2.8, -1.9,0,0,1024,1024,1024,1024,0,0,0,0,271,0,0,100,4.225,4.18,4.172,4.178,0,0,7.985,77.18,86.931113674184,33.136484,6,P-GPS,
12800,2023-07-13 17:55:08,52.2063857761896,0.0867118895220432,37.073492,37.073492,53.794629674184,90.868121674184,35.761156,0,2.68668971852,4.1552166684,26,5,17.036,90.868121674184,37.073492,0.223694,2.68668971852,0,0,-11.855782,270.4, -4.4, -2.4,0,0,1024,1024,1024,1024,0,0,0,0,271,0,0,100,4.225,4.18,4.172,4.178,0,0,7.985,77.18,90.868121674184,37.073492,6,P-GPS,
13000,2023-07-13 17:55:08,52.2063858266778,0.0867118494899272,40.026248,40.026248,53.794629674184,93.820877674184,39.041996,0,2.70272646444,4.17568911,26,5,16.504,93.820877674184,40.026248,0.223694,2.70272646444,0,0,-9.842536,270.3, -4.7, -2.6,0,0,1024,1024,1024,1024,0,0,0,0,271,0,0,100,4.148,4.156,4.153,4.173,0,0,14.392,77,93.820877674184,40.026248,6,P-GPS,
13200,2023-07-13 17:55:08,52.2063859373781,0.0867118372246419,42.322836,42.322836,53.794629674184,96.117465674184,41.338584,0,2.72297908976,4.2161746756,26,5,16.504,96.117465674184,42.322836,0.223694,2.72297908976,0,0,-7.381902,270.3, -4.9, -3.2,0,0,1024,1024,1024,825,0,0,0,-30,271,0,0,100,4.148,4.156,4.153,4.173,0,0,14.392,77,96.117465674184,42.322836,6,P-GPS,
13400,2023-07-13 17:55:08,52.2063860981708,0.0867118521993338,43.963256,43.963256,53.794629674184,97.757885674184,41.0105,0,2.74669300128,4.27493452,26,5,16.504,97.757885674184,43.963256,0.223694,2.74669300128,0,0,-4.921268,270.3, -5.7, -3.9,0,0,1024,1024,1024,364,0,0,0,-100,270.7,0,0,100,4.148,4.156,4.153,4.173,0,0,14.392,77,97.757885674184,43.963256,6,P-GPS,
13600,2023-07-13 17:55:08,52.2063862742154,0.0867118458220495,44.619424,44.619424,53.794629674184,98.414053674184,41.994752,0,2.7783137372,4.3391733672,26,5,16.504,98.414053674184,44.619424,0.223694,2.7783137372,0,0,-2.460634,269.3, -6.1, -4.8,0,0,1024,1024,1022,364,0,0,-0,-100,262.5,0,0,100,4.148,4.156,4.153,4.173,0,0,14.392,77,98.414053674184,44.619424,6,P-GPS,
13800,2023-07-13 17:55:09,52.2063864571154,0.0867117952624779,44.619424,44.619424,53.794629674184,98.414053674184,42.322836,0,2.82085638948,4.4068570964,26,5,16.504,98.414053674184,44.619424,0.223694,2.82085638948,0,0,-0.671082,258.9, -5.6, -5,0,0,1024,1024,1017,364,0,0,-1,-100,250.6,0,0,100,4.148,4.156,4.153,4.173,0,0,14.392,77,98.414053674184,44.619424,6,P-GPS,
14000,2023-07-13 17:55:09,52.2063865269445,0.0867116824083975,44.29134,44.29134,53.794629674184,98.085969674184,42.322836,0,2.85544300476,4.4427166776,26,5,17.106,98.414053674184,44.619424,0.223694,2.85544300476,0,0,0,246.4, -4.5, -4.2,0,0,1024,1024,1022,386,0,0,-0,-97,238.6,0,0,99,4.283,4.286,4.283,4.283,0,0,5.409,77.36,98.085969674184,44.29134,6,P-GPS,
14200,2023-07-13 17:55:09,52.2063864125038,0.0867115941189629,43.963256,43.963256,53.794629674184,97.757885674184,42.322836,0.223694,2.8519849994,4.4889109048,26,5,17.106,98.414053674184,44.619424,0.223694,2.85544300476,-0.223694,0,0,234.3, -3.8, -3.1,0,0,1024,1024,1024,1024,0,0,0,0,227.4,0,0,99,4.283,4.286,4.283,4.283,0,0,5.409,77.36,97.757885674184,43.963256,6,P-GPS,
14400,2023-07-13 17:55:09,52.2063861765218,0.0867116337273245,43.635172,43.635172,53.794629674184,97.429801674184,42.322836,0.223694,2.80322843616,4.575459464,26,5,17.106,98.414053674184,44.619424,0.223694,2.85544300476,-0.223694,0,0,224.3, -3.2, -0.5,0,0,1024,1024,1024,1419,0,0,0,60,225.3,0,0,99,4.283,4.286,4.283,4.283,0,0,5.409,77.36,97.429801674184,43.635172,6,P-GPS,
14600,2023-07-13 17:55:09,52.2063858723487,0.0867118271052136,43.635172,43.635172,53.794629674184,97.429801674184,42.322836,0.447388,2.71450796088,4.694553956,26,5,17.106,98.414053674184,44.619424,0.447388,2.85544300476,-0.447388,0,0,224.4, -3, 1.6,0,0,1024,1024,1024,1684,0,0,0,100,226.5,0,0,99,4.283,4.286,4.283,4.283,0,0,5.409,77.36,97.429801674184,43.635172,6,P-GPS,
14800,2023-07-13 17:55:10,52.2063855593738,0.0867120637724478,43.307088,43.307088,53.794629674184,97.101717674184,42.65092,0.223694,2.6180447032,4.8204069784,26,5,17.106,98.414053674184,44.619424,0.447388,2.85544300476,-0.223694,0,0,227.8, -2.8, 3,0,0,1024,1024,1024,1684,0,0,0,100,236.6,0,0,99,4.283,4.286,4.283,4.283,0,0,5.409,77.36,97.101717674184,43.307088,6,P-GPS,
15000,2023-07-13 17:55:10,52.206385371631,0.0867122161160638,43.307088,43.307088,53.794629674184,97.101717674184,42.65092,0,2.55927173544,4.8969161672,26,5,16.987,98.414053674184,44.619424,0.447388,2.85544300476,0,0,0,240.1, -3.6, 2.4,0,0,1024,1024,1024,1684,0,0,0,100,248.6,0,0,99,4.241,4.246,4.242,4.245,0,0,5.748,77.36,97.101717674184,43.307088,6,P-GPS,
15200,2023-07-13 17:55:10,52.2063853313305,0.0867121821580513,42.979004,42.979004,53.794629674184,96.773633674184,42.65092,0,2.56050861212,4.9134516008,26,5,16.987,98.414053674184,44.619424,0.447388,2.85544300476,0,0,0,252, -4.8, 1.5,0,0,1024,1024,1024,1634,0,0,0,92,260.6,0,0,99,4.241,4.246,4.242,4.245,0,0,5.748,77.36,96.773633674184,42.979004,6,P-GPS,
15400,2023-07-13 17:55:10,52.2063854694141,0.0867118837738374,42.979004,42.979004,53.794629674184,96.773633674184,42.65092,0.3131716,2.64163066196,4.9970802124,26,5,16.987,98.414053674184,44.619424,0.447388,2.85544300476,0.223694,-0.223694,0,264.2, -4, 0.4,0,0,1024,1024,1024,1024,0,0,0,0,271.7,0,0,99,4.241,4.246,4.242,4.245,0,0,5.748,77.36,96.773633674184,42.979004,6,P-GPS,
15600,2023-07-13 17:55:10,52.2063857993117,0.0867114423362754,42.979004,42.979004,53.794629674184,96.773633674184,42.322836,0.3131716,2.78079405224,5.152723262,25,5,16.987,98.414053674184,44.619424,0.447388,2.85544300476,0.223694,-0.223694,0,274.9, -2.4, -1.7,0,0,1024,1024,1024,1024,0,0,0,0,274.2,0,0,99,4.241,4.246,4.242,4.245,0,0,5.748,77.36,96.773633674184,42.979004,6,P-GPS,
15800,2023-07-13 17:55:10,52.2063862217644,0.0867110620905871,42.979004,42.979004,53.794629674184,96.773633674184,42.65092,0.223694,2.92441938492,5.328740328,25,5,16.987,98.414053674184,44.619424,0.447388,2.92441938492,0.223694,0,0,275.1, -1.5, -4,0,0,1024,1024,1024,1024,0,0,0,0,274.2,0,0,99,4.241,4.246,4.242,4.245,0,0,5.748,77.36,96.773633674184,42.979004,6,P-GPS,
16000,2023-07-13 17:55:11,52.2063866133826,0.0867108475686671,42.979004,42.979004,53.794629674184,96.773633674184,42.65092,0.223694,3.03351715744,5.4794621176,26,5,16.945,98.414053674184,44.619424,0.447388,3.03351715744,0.223694,0,0,274.7, -2.3, -5,0,0,1024,1024,1024,990,0,0,0,-5,274.2,0,0,99,4.234,4.241,4.239,4.24,0,0,6.534,77.54,96.773633674184,42.979004,6,P-GPS,
16200,2023-07-13 17:55:11,52.206386854999,0.0867107640252811,42.979004,42.979004,53.794629674184,96.773633674184,42.65092,0,3.09311689688,5.5695867924,26,5,16.945,98.414053674184,44.619424,0.447388,3.09311689688,0,0,0,274.6, -2.6, -4.5,0,0,1024,1024,997,685,0,0,-4,-51,274.2,0,0,99,4.234,4.241,4.239,4.24,0,0,6.534,77.54,96.773633674184,42.979004,6,P-GPS,
16400,2023-07-13 17:55:11,52.2063869725904,0.0867107642769126,42.979004,42.979004,53.794629674184,96.773633674184,42.65092,0,3.11478684508,5.6124673712,26,5,16.945,98.414053674184,44.619424,0.447388,3.11478684508,0,0,0,274.7, -3.3, -2.8,0,0,1024,1024,1024,655,0,0,0,-56,272.8,0,0,99,4.234,4.241,4.239,4.24,0,0,6.534,77.54,96.773633674184,42.979004,6,P-GPS,
16600,2023-07-13 17:55:11,52.2063870524388,0.0867107715322858,42.979004,42.979004,53.794629674184,96.773633674184,42.65092,0,3.12839905024,5.6416668472,26,5,16.945,98.414053674184,44.619424,0.447388,3.12839905024,0,0,0,272.9, -3.2, -2.1,0,0,1024,1024,1024,1024,0,0,0,0,270,0,0,99,4.234,4.241,4.239,4.24,0,0,6.534,77.54,96.773633674184,42.979004,6,P-GPS,
16800,2023-07-13 17:55:11,52.2063871155471,0.0867107290598691,42.979004,42.979004,53.794629674184,96.773633674184,42.65092,0,3.1484909144,5.6665684228,26,5,16.945,98.414053674184,44.619424,0.447388,3.1484909144,0,0,0,269.9, -2.2, -2.6,0,0,1024,1024,1024,1024,0,0,0,0,269.1,0,0,99,4.234,4.241,4.239,4.24,0,0,6.534,77.54,96.773633674184,42.979004,6,P-GPS,
17000,2023-07-13 17:55:12,52.206387149339,0.086710662755858,42.979004,42.979004,53.794629674184,96.773633674184,42.65092,0,3.16757556068,5.6858269536,26,5,16.964,98.414053674184,44.619424,0.447388,3.16757556068,0,0,0,269.5, -2.5, -2.7,0,0,1024,1451,1024,1024,0,65,0,0,269.1,0,0,99,4.239,4.246,4.242,4.245,0,0,6.714,77.54,96.773633674184,42.979004,6,P-GPS,
17200,2023-07-13 17:55:12,52.2063871534407,0.0867106064227428,42.979004,42.979004,53.794629674184,96.773633674184,42.65092,0,3.17909787076,5.6985238044,26,5,16.964,98.414053674184,44.619424,0.447388,3.17909787076,0,0,0,269.7, -2, -1.1,0,0,1024,1684,1024,1024,0,100,0,0,269.1,0,0,99,4.239,4.246,4.242,4.245,0,0,6.714,77.54,96.773633674184,42.979004,6,P-GPS,
17400,2023-07-13 17:55:12,52.2063872575769,0.08671064906204,42.979004,42.979004,53.794629674184,96.773633674184,42.65092,0.223694,3.19100731996,5.737697034,26,5,16.964,98.414053674184,44.619424,0.447388,3.19100731996,0.223694,0,0,269.6, 0.4, 12.2,0,0,1024,1684,1024,1024,0,100,0,0,269.1,0,0,99,4.239,4.246,4.242,4.245,0,0,6.714,77.54,96.773633674184,42.979004,6,P-GPS,
17600,2023-07-13 17:55:12,52.2063880866699,0.0867109214985089,42.65092,42.65092,53.794629674184,96.445549674184,42.322836,1.3645334,3.3128609984,6.046260036,26,5,16.964,98.414053674184,44.619424,1.3645334,3.3128609984,1.342164,0.223694,0,270.1, -1.4, 13.3,0,0,1024,1684,1024,1024,0,100,0,0,269.1,0,0,99,4.239,4.246,4.242,4.245,0,0,6.714,77.54,96.445549674184,42.65092,6,P-GPS,
17800,2023-07-13 17:55:12,52.206389791478,0.0867113112362943,42.65092,42.65092,53.794629674184,96.445549674184,41.666668,2.460634,3.660105104,6.6743440456,26,5,16.964,98.414053674184,44.619424,2.460634,3.660105104,2.460634,0.223694,0,270.1, -2.8, 14.8,0,0,1024,1684,1024,1024,0,100,0,0,269.1,0,0,99,4.239,4.246,4.242,4.245,0,0,6.714,77.54,96.445549674184,42.65092,6,P-GPS,
18000,2023-07-13 17:55:13,52.2063924417945,0.0867116984333012,42.65092,42.6181116,53.827438074184,96.445549674184,41.0105,3.802798,4.3550198244,7.64517741,26,5,16.954,98.414053674184,44.619424,3.802798,4.3550198244,3.802798,0.223694,0,269.9, -3.1, 19,0,0,1024,1684,1024,1024,0,100,0,0,269.1,0,0,99,4.228,4.234,4.228,4.233,0,0,6.536,77.54,96.445549674184,42.65092,6,P-GPS,
18200,2023-07-13 17:55:13,52.2063962411194,0.0867127637648109,42.65092,42.5524948,53.893054874184,96.445549674184,40.354332,5.4133948,5.4513125104,9.051673518,26,5,16.954,98.414053674184,44.619424,5.4133948,5.4513125104,5.368656,0.671082,0,274.8, -3.3, 23.3,0,0,1024,1684,1024,1024,0,100,0,0,269.1,0,0,99,4.228,4.234,4.228,4.233,0,0,6.536,77.54,96.445549674184,42.65092,6,P-GPS,
18400,2023-07-13 17:55:13,52.2064014175202,0.0867142040760967,42.65092,42.5196864,53.925863274184,96.445549674184,40.026248,7.2476856,7.1232613828,10.967520036,26,5,16.954,98.414053674184,44.619424,7.2476856,7.1232613828,7.158208,1.11847,0,277.2, -2.8, 25.9,0,0,1024,1684,1024,1024,0,100,0,0,269.1,0,0,99,4.228,4.234,4.228,4.233,0,0,6.536,77.54,96.445549674184,42.65092,6,P-GPS,
18600,2023-07-13 17:55:13,52.2064080941479,0.0867162470403163,42.979004,42.7493452,54.024288474184,96.773633674184,40.354332,9.3056704,9.4115488576,13.4459649972,25,5,16.954,98.414053674184,44.619424,9.3056704,9.4115488576,9.171454,1.565858,0,278.4, -2.7, 25.5,0,0,1024,1684,1024,1024,0,100,0,0,269.1,0,0,99,4.228,4.234,4.228,4.233,0,0,6.536,77.54,96.773633674184,42.979004,6,P-GPS,
18800,2023-07-13 17:55:14,52.206416229996,0.0867189412642765,42.979004,42.65092,54.122713674184,96.773633674184,40.354332,11.1399612,12.2967195536,16.4748364852,25,5,16.954,98.414053674184,44.619424,11.1399612,12.2967195536,10.961006,2.013246,0,279.8, -3.1, 24.9,0,0,1024,1684,1024,1024,0,100,0,0,269.1,0,0,99,4.228,4.234,4.228,4.233,0,0,6.536,77.54,96.773633674184,42.979004,6,P-GPS,
19000,2023-07-13 17:55:14,52.2064257306205,0.0867223121861795,42.979004,42.5524948,54.221138874184,96.773633674184,40.354332,12.7729274,15.7339900048,20.0221135016,25,5,16.879,98.414053674184,44.619424,12.7729274,15.7339900048,12.526864,2.460634,0,280.7, -2.9, 24.4,0,0,1024,1684,1024,1024,0,100,0,0,269.1,0,0,99,4.219,4.224,4.219,4.22,0,0,7.653,77.72,96.773633674184,42.979004,6,P-GPS,
19200,2023-07-13 17:55:14,52.206436524899,0.0867262115999663,42.979004,42.4212612,54.352372474184,96.773633674184,46.259844,14.3835242,19.687336588,24.0557422396,25,5,16.879,98.414053674184,44.619424,14.3835242,19.687336588,14.092722,2.908022,0,280.6, -3.1, 24,0,0,1024,1684,1024,1024,0,100,0,0,269.1,0,0,99,4.219,4.224,4.219,4.22,0,0,7.653,77.72,96.773633674184,42.979004,6,P-GPS,
19400,2023-07-13 17:55:14,52.206448484394,0.0867306978216058,43.307088,42.6181116,54.483606074184,97.101717674184,46.259844,15.7480576,24.1012474904,28.532973354,25,5,16.879,98.414053674184,44.619424,15.7480576,24.1012474904,15.434886,3.131716,0,281, -3, 23.4,0,0,1024,1684,1024,1024,0,100,0,0,269.1,0,0,99,4.219,4.224,4.219,4.22,0,0,7.653,77.72,97.101717674184,43.307088,6,P-GPS,
19600,2023-07-13 17:55:14,52.2064615158503,0.0867356665683773,43.307088,42.4540696,54.647648074184,97.101717674184,46.587928,17.1573298,28.934712212,33.415683484,25,5,16.879,98.414053674184,44.619424,17.1573298,28.934712212,16.77705,3.579104,0,281.1, -3.2, 23,0,0,1024,1252,1024,1024,0,35,0,0,269.1,0,0,99,4.219,4.224,4.219,4.22,0,0,7.653,77.72,97.101717674184,43.307088,6,P-GPS,
19800,2023-07-13 17:55:15,52.2064755512981,0.0867410697349896,43.635172,42.6181116,54.811690074184,97.429801674184,46.259844,18.2981692,34.157481408,38.676838508,25,5,16.879,98.414053674184,44.619424,18.2981692,34.157481408,17.89552,3.802798,0,281.3, -3.7, 19.4,0,0,1024,1024,1024,1024,0,0,0,0,269.1,0,0,99,4.219,4.224,4.219,4.22,0,0,7.653,77.72,97.429801674184,43.635172,6,P-GPS,
20000,2023-07-13 17:55:15,52.206490237369,0.086746755604284,43.635172,42.4540696,54.975732074184,97.429801674184,45.93176,18.5218632,39.634515704,44.184056532,25,5,16.878,98.414053674184,44.619424,18.5218632,39.634515704,18.119214,3.802798,0,283.6, -2.1, -12.6,0,0,1024,995,1024,1024,0,-4,0,0,269.1,0,0,99,4.217,4.225,4.223,4.223,0,0,7.804,77.72,97.429801674184,43.635172,6,P-GPS,
20200,2023-07-13 17:55:15,52.2065040224657,0.0867521490533793,43.635172,42.2900276,55.139774074184,97.429801674184,45.275592,16.2401844,44.783794084,49.355972708,26,5,16.878,98.414053674184,44.619424,18.5218632,44.783794084,15.882274,3.35541,0,283.1, -2.1, -29,0,0,1024,364,1024,1024,0,-100,0,0,269.1,0,0,99,4.217,4.225,4.223,4.223,0,0,7.804,77.72,97.429801674184,43.635172,6,P-GPS,
20400,2023-07-13 17:55:15,52.2065157285427,0.0867567791802443,43.635172,42.1259856,55.303816074184,97.429801674184,45.275592,13.4663788,49.162075064,53.750657888,26,5,16.878,98.414053674184,44.619424,18.5218632,49.162075064,13.197946,2.684328,0,283.4, 0.5, -29.7,0,0,1024,364,1024,1024,0,-100,0,0,269.1,0,0,99,4.217,4.225,4.223,4.223,0,0,7.804,77.72,97.429801674184,43.635172,6,P-GPS,
20600,2023-07-13 17:55:15,52.2065251612423,0.0867608109170567,43.635172,42.0275604,55.402241274184,97.429801674184,36.417324,10.5807262,52.703085676,57.3080727,26,5,16.878,98.414053674184,44.619424,18.5218632,52.703085676,10.289924,2.460634,0,284, 1.1, -30.1,0,0,1024,364,1024,1024,0,-100,0,0,269.1,0,0,99,4.217,4.225,4.223,4.223,0,0,7.804,77.72,97.429801674184,43.635172,6,P-GPS,
20800,2023-07-13 17:55:16,52.2065323549863,0.0867643224897409,43.307088,41.6010512,55.500666474184,97.101717674184,36.417324,8.0306146,55.421261616,60.0475741,26,5,16.878,98.414053674184,44.619424,18.5218632,55.421261616,7.82929,1.789552,0,284.1, -0.7, -29.4,0,0,1024,364,1024,1024,0,-100,0,0,269.1,0,0,99,4.217,4.225,4.223,4.223,0,0,7.804,77.72,97.101717674184,43.307088,6,P-GPS,
21000,2023-07-13 17:55:16,52.2065374737885,0.0867671813898789,43.307088,41.5682428,55.533474874184,97.101717674184,44.619424,5.5252418,57.37040866,62.021655528,26,5,16.889,98.414053674184,44.619424,18.5218632,57.37040866,5.368656,1.342164,0,284.2, -1.6, -29.2,0,0,1024,364,1024,1024,0,-100,0,0,269.1,0,0,99,4.211,4.218,4.211,4.219,0,0,7.301,77.72,97.101717674184,43.307088,6,P-GPS,
21200,2023-07-13 17:55:16,52.2065406767708,0.0867693551954583,43.307088,41.502626,55.599091674184,97.101717674184,43.635172,3.0422384,58.605973004,63.2874036,26,5,16.889,98.414053674184,44.619424,18.5218632,58.605973004,2.908022,0.894776,0,284.2, -2.4, -28.9,0,0,1024,364,1024,1024,0,-100,0,0,269.1,0,0,99,4.211,4.218,4.211,4.219,0,0,7.301,77.72,97.101717674184,43.307088,6,P-GPS,
21400,2023-07-13 17:55:16,52.2065421078745,0.0867708142419282,43.307088,41.502626,55.599091674184,97.101717674184,42.979004,0.9171454,59.178479584,63.902889184,26,5,16.889,98.414053674184,44.619424,18.5218632,59.178479584,0.894776,0.223694,0,284.3, -2.5, -29,0,0,1024,364,1024,1024,0,-100,0,0,269.1,0,0,99,4.211,4.218,4.211,4.219,0,0,7.301,77.72,97.101717674184,43.307088,6,P-GPS,
21600,2023-07-13 17:55:16,52.2065418601878,0.0867716077791534,43.307088,41.502626,55.599091674184,97.101717674184,42.65092,0.894776,59.122049136,64.102036172,26,5,16.889,98.414053674184,44.619424,18.5218632,59.178479584,-0.894776,0,0,284.3, -2.3, -29.3,0,0,1024,364,1024,1024,0,-100,0,0,269.1,0,0,99,4.211,4.218,4.211,4.219,0,0,7.301,77.72,97.101717674184,43.307088,6,P-GPS,
21800,2023-07-13 17:55:17,52.2065399588802,0.0867717514607065,43.635172,41.8635184,55.566283274184,97.429801674184,42.65092,3.1540854,58.44652418,64.79659,26,5,16.889,98.414053674184,44.619424,18.5218632,59.178479584,-3.131716,-0.447388,0,284.3, -2.5, -29.6,0,0,1024,364,1024,1024,0,-100,0,0,269.1,0,0,99,4.211,4.218,4.211,4.219,0,0,7.301,77.72,97.429801674184,43.635172,6,P-GPS,
22000,2023-07-13 17:55:17,52.2065364639031,0.0867712400512555,43.635172,41.8963268,55.533474874184,97.429801674184,42.322836,5.0107456,57.172574008,66.076773768,26,5,16.855,98.414053674184,44.619424,18.5218632,59.178479584,-4.921268,-0.894776,0,284.3, -2.7, -29.5,0,0,1024,364,1024,1024,0,-100,0,0,269.1,0,0,99,4.209,4.213,4.208,4.211,0,0,8.133,77.72,97.429801674184,43.635172,6,P-GPS,
22200,2023-07-13 17:55:17,52.2065314550316,0.0867700999231736,43.635172,41.9619436,55.467858074184,97.429801674184,42.322836,7.0687304,55.330054264,67.921918184,26,5,16.855,98.414053674184,44.619424,18.5218632,59.178479584,-6.934514,-1.342164,0,284.1, -2.7, -29.8,0,0,1003,364,1024,1024,-3,-100,0,0,269.1,0,0,99,4.209,4.213,4.208,4.211,0,0,8.133,77.72,97.429801674184,43.635172,6,P-GPS,
22400,2023-07-13 17:55:17,52.2065249696432,0.0867683369967893,43.963256,42.3556444,55.402241274184,97.757885674184,42.322836,8.8582824,52.932088308,70.320868392,26,5,16.855,98.414053674184,44.619424,18.5218632,59.178479584,-8.724066,-1.565858,0,284.1, -2.7, -30,0,0,1001,364,1024,1024,-3,-100,0,0,269.1,0,0,99,4.209,4.213,4.208,4.211,0,0,8.133,77.72,97.757885674184,43.963256,6,P-GPS,
22600,2023-07-13 17:55:17,52.2065170471542,0.0867660147146799,44.29134,42.7821536,55.303816074184,98.085969674184,42.322836,10.7149426,49.995736508,73.257548276,26,5,16.855,98.414053674184,44.619424,18.5218632,59.178479584,-10.513618,-2.013246,0,283.8, -0.9, -30.3,0,0,1024,364,1024,1024,0,-100,0,0,269.1,0,0,99,4.209,4.213,4.208,4.211,0,0,8.133,77.72,98.085969674184,44.29134,6,P-GPS,
22800,2023-07-13 17:55:18,52.2065077519365,0.0867632979548525,44.29134,42.8805788,55.205390874184,98.085969674184,42.979004,12.5044946,46.551182592,76.70275836,26,5,16.855,98.414053674184,44.619424,18.5218632,59.178479584,-12.30317,-2.23694,0,283.8, -1.3, -30.1,0,0,1024,364,1024,1024,0,-100,0,0,269.1,0,0,99,4.209,4.213,4.208,4.211,0,0,8.133,77.72,98.085969674184,44.29134,6,P-GPS,
23000,2023-07-13 17:55:18,52.2064971583253,0.0867601906665227,44.619424,43.3398964,55.074157274184,98.414053674184,43.635172,14.092722,42.62467328,80.62992384,26,5,16.784,98.414053674184,44.619424,18.5218632,59.178479584,-13.869028,-2.460634,0,283.8, -1.6, -30.1,0,0,1024,364,1024,1024,0,-100,0,0,269.1,0,0,99,4.195,4.201,4.196,4.195,0,0,9.046,77.9,98.414053674184,44.619424,6,P-GPS,
23200,2023-07-13 17:55:18,52.20648530524,0.0867566909344957,44.947508,43.799214,54.942923674184,98.742137674184,44.619424,15.4572554,38.230972352,85.02460902,26,5,16.784,98.742137674184,44.947508,18.5218632,59.178479584,-15.211192,-2.684328,0,284.2, -2.2, -30.2,0,0,1024,1024,1024,1024,0,0,0,0,269.1,0,0,99,4.195,4.201,4.196,4.195,0,0,9.046,77.9,98.742137674184,44.947508,6,P-GPS,
23400,2023-07-13 17:55:18,52.2064723058667,0.0867527905038623,45.275592,44.29134,54.778881674184,99.070221674184,45.275592,16.7994194,33.409449888,89.847115736,26,5,16.784,99.070221674184,45.275592,18.5218632,59.178479584,-16.553356,-2.908022,0,284, -3.1, -29.8,0,0,1024,1024,1024,1024,0,0,0,0,269.1,0,0,99,4.195,4.201,4.196,4.195,0,0,9.046,77.9,99.070221674184,45.275592,6,P-GPS,
23600,2023-07-13 17:55:18,52.2064584539309,0.0867484985731496,45.275592,44.455382,54.614839674184,99.070221674184,46.259844,17.2915462,28.2659457864,94.991144772,26,5,16.784,99.070221674184,45.275592,18.5218632,59.178479584,-17.000744,-3.131716,-0.671082,280.2, -5.4, 8.3,0,0,1024,1024,1024,1024,0,0,0,0,269.1,0,0,99,4.195,4.201,4.196,4.195,0,0,9.046,77.9,99.070221674184,45.275592,6,P-GPS,
23800,2023-07-13 17:55:18,52.2064455265584,0.0867442056306689,45.275592,44.5866156,54.483606074184,99.070221674184,46.916012,15.2559308,23.452756656,99.804465136,26,5,16.784,99.070221674184,45.275592,18.5218632,59.178479584,-14.987498,-2.908022,-0.671082,280.3, -5.3, 27.6,0,0,1684,1013,1024,1024,100,-2,0,0,269.1,0,0,99,4.195,4.201,4.196,4.195,0,0,9.046,77.9,99.070221674184,45.275592,6,P-GPS,
24000,2023-07-13 17:55:19,52.2064345526959,0.0867402317498662,45.275592,44.7178492,54.352372474184,99.070221674184,46.916012,12.8176662,19.3519363148,103.905515136,26,5,16.715,99.070221674184,45.275592,18.5218632,59.178479584,-12.526864,-2.684328,0,279.7, -4.4, 29.6,0,0,1684,1004,1024,1024,100,-3,0,0,269.1,0,0,99,4.237,4.249,4.251,4.227,0,0,10.213,77.72,99.070221674184,45.275592,6,P-GPS,
24200,2023-07-13 17:55:19,52.2064257809469,0.0867363703710345,44.947508,44.5209988,54.221138874184,98.742137674184,34.776904,10.2675546,16.0443574688,107.220475872,26,5,16.715,99.070221674184,45.275592,18.5218632,59.178479584,-9.842536,-2.908022,0.223694,278.5, -18, 24.4,0,0,1684,1010,1024,1024,100,-2,0,0,269.1,0,0,99,4.237,4.249,4.251,4.227,0,0,10.213,77.72,98.742137674184,44.947508,6,P-GPS,
24400,2023-07-13 17:55:19,52.2064191307888,0.0867315736720188,44.947508,44.5866156,54.155522074184,98.742137674184,34.44882,8.0977228,13.471457124,109.873035012,26,5,16.715,99.070221674184,45.275592,18.5218632,59.178479584,-7.158208,-3.802798,0.223694,279.9, -20.5, 21.1,0,0,1684,1014,1024,1024,100,-2,0,0,269.1,0,0,99,4.237,4.249,4.251,4.227,0,0,10.213,77.72,98.742137674184,44.947508,6,P-GPS,
24600,2023-07-13 17:55:19,52.2064145634798,0.0867254915552859,44.947508,44.6522324,54.089905274184,98.742137674184,44.619424,6.6437118,11.6756565416,112.023953716,26,5,16.715,99.070221674184,45.275592,18.5218632,59.178479584,-4.697574,-4.697574,0.223694,279.6, -20.8, 20.3,0,0,1684,1017,1024,1024,100,-1,0,0,269.1,0,0,99,4.237,4.249,4.251,4.227,0,0,10.213,77.72,98.742137674184,44.947508,6,P-GPS,
24800,2023-07-13 17:55:19,52.206411937276,0.086718048067021,44.619424,44.3569568,54.057096874184,98.414053674184,44.619424,6.2410626,10.7524281656,113.944229368,26,5,16.715,99.070221674184,45.275592,18.5218632,59.178479584,-2.23694,-5.816044,0,279.1, -22.7, 18.3,0,0,1670,1024,1024,1024,98,0,0,0,269.1,0,0,99,4.237,4.249,4.251,4.227,0,0,10.213,77.72,98.414053674184,44.619424,6,P-GPS,
25000,2023-07-13 17:55:20,52.2064110198662,0.08670918862286,44.619424,44.3569568,54.057096874184,98.414053674184,44.29134,6.934514,10.7999675372,115.953415784,26,5,16.858,99.070221674184,45.275592,18.5218632,59.178479584,-0.223694,-6.934514,0,279.7, -26.6, 12.6,0,0,1684,1010,1024,1024,100,-2,0,0,269.1,0,0,99,4.207,4.213,4.207,4.212,0,0,6.39,78.08,98.414053674184,44.619424,6,P-GPS,
25200,2023-07-13 17:55:20,52.2064114375805,0.0866985655201372,44.619424,44.3569568,54.057096874184,98.414053674184,43.963256,8.5451108,11.8259190136,118.33333712,26,5,16.858,99.070221674184,45.275592,18.5218632,59.178479584,0.894776,-8.500372,0,280.8, -28.5, 6,0,0,1024,1024,1024,1024,0,0,0,0,269.1,0,0,99,4.207,4.213,4.207,4.212,0,0,6.39,78.08,98.414053674184,44.619424,6,P-GPS,
25400,2023-07-13 17:55:20,52.20641279814,0.0866859492980631,44.619424,44.3241484,54.089905274184,98.414053674184,44.29134,10.2675546,13.7472773428,121.19751044,26,5,16.858,99.070221674184,45.275592,18.5218632,59.178479584,2.013246,-10.06623,0,281.5, -24.1, 1.6,0,0,1024,1024,1024,1024,0,0,0,0,269.1,0,0,99,4.207,4.213,4.207,4.212,0,0,6.39,78.08,98.414053674184,44.619424,6,P-GPS,
25600,2023-07-13 17:55:20,52.2064146679298,0.0866719012528958,44.29134,43.9960644,54.089905274184,98.085969674184,44.29134,10.5359874,16.3100070836,124.411749388,26,5,16.858,99.070221674184,45.275592,18.5218632,59.178479584,2.23694,-10.289924,-0.447388,281.2, 13.8, -2.3,0,0,1024,1024,992,1024,0,0,-5,0,269.1,0,0,99,4.207,4.213,4.207,4.212,0,0,6.39,78.08,98.085969674184,44.29134,6,P-GPS,
25800,2023-07-13 17:55:20,52.2064164006512,0.0866593365995403,44.29134,43.963256,54.122713674184,98.085969674184,44.619424,8.6793272,18.7871725172,127.291342656,26,5,16.858,99.070221674184,45.275592,18.5218632,59.178479584,1.789552,-8.500372,-0.223694,281.6, 26.4, -3.5,0,0,1024,1024,364,1024,0,0,-100,0,269.1,0,0,99,4.207,4.213,4.207,4.212,0,0,6.39,78.08,98.085969674184,44.29134,6,P-GPS,
26000,2023-07-13 17:55:21,52.206417751213,0.0866494839774381,43.963256,43.635172,54.122713674184,97.757885674184,36.08924,6.6213424,20.8004271748,129.548560576,26,5,16.76,99.070221674184,45.275592,18.5218632,59.178479584,1.342164,-6.487126,0.671082,280.8, 27.3, -3.8,0,0,1024,1024,364,1024,0,0,-100,0,269.1,0,0,99,4.242,4.248,4.231,4.228,0,0,8.675,78.08,97.757885674184,43.963256,6,P-GPS,
26200,2023-07-13 17:55:21,52.206418842165,0.086641790059534,43.307088,42.9461956,54.155522074184,97.101717674184,35.433072,5.256809,22.4127959928,131.314308664,25,5,16.76,99.070221674184,45.275592,18.5218632,59.178479584,1.11847,-5.144962,2.684328,280.8, 28.4, -3,0,0,1024,1024,364,1024,0,0,-100,0,269.1,0,0,99,4.242,4.248,4.231,4.228,0,0,8.675,78.08,97.101717674184,43.307088,6,P-GPS,
26400,2023-07-13 17:55:21,52.2064197044618,0.0866359478834283,41.994752,41.6338596,54.155522074184,95.789381674184,46.916012,3.8699062,23.658793408,132.657812644,25,5,16.76,99.070221674184,45.275592,18.5218632,59.178479584,0.671082,-3.802798,4.921268,280.7, 29.6, -2.9,0,0,1024,1024,364,1024,0,0,-100,0,269.1,0,0,99,4.242,4.248,4.231,4.228,0,0,8.675,78.08,95.789381674184,41.994752,6,P-GPS,
26600,2023-07-13 17:55:21,52.2064202484311,0.0866323556139387,40.026248,39.6653556,54.155522074184,93.820877674184,45.275592,1.8119214,24.4328747976,133.485240492,26,5,16.76,99.070221674184,45.275592,18.5218632,59.178479584,0.223694,-1.789552,5.816044,280.6, 25.1, -2.3,0,0,1024,1024,364,1024,0,0,-100,0,269.1,0,0,99,4.242,4.248,4.231,4.228,0,0,8.675,78.08,93.820877674184,40.026248,6,P-GPS,
26800,2023-07-13 17:55:22,52.2064203961269,0.0866312738433819,38.385828,38.0249356,54.155522074184,92.180457674184,44.29134,0.223694,24.663386616,133.732943912,26,5,16.76,99.070221674184,45.275592,18.5218632,59.178479584,0,-0.223694,5.816044,281.5, 12, -0.6,0,0,1024,1024,364,1024,0,0,-100,0,269.1,0,0,99,4.242,4.248,4.231,4.228,0,0,8.675,78.08,92.180457674184,38.385828,6,P-GPS,
27000,2023-07-13 17:55:22,52.2064203814111,0.0866316081077929,36.417324,36.0564316,54.155522074184,90.211953674184,42.65092,0.223694,24.5984587924,133.808075148,26,5,16.76,99.070221674184,45.275592,18.5218632,59.178479584,0,0.223694,5.816044,281.4, 4.1, -0.4,0,0,1024,1024,364,1024,0,0,-100,0,269.1,0,0,99,4.242,4.248,4.231,4.228,0,0,8.675,78.08,90.211953674184,36.417324,6,P-GPS,
27200,2023-07-13 17:55:22,52.2064203425987,0.0866326070007385,34.776904,34.4160116,54.155522074184,88.571533674184,34.44882,0.671082,24.4057750592,134.031828436,26,5,17.03,99.070221674184,45.275592,18.5218632,59.178479584,0,0.671082,5.368656,281.7, -0.2, -2.5,0,0,1024,1024,364,1024,0,0,-100,0,269.1,0,0,99,4.233,4.242,4.238,4.238,0,0,4.105,78.26,88.571533674184,34.776904,6,P-GPS,
27400,2023-07-13 17:55:22,52.206420245709,0.0866337198757374,33.136484,32.7755916,54.155522074184,86.931113674184,32.480316,0.447388,24.1806438184,134.28314078,26,5,17.03,99.070221674184,45.275592,18.5218632,59.178479584,0,0.447388,5.368656,281.6, -2.7, -4.6,0,0,1024,1024,364,1024,0,0,-100,0,269.1,0,0,99,4.233,4.242,4.238,4.238,0,0,4.105,78.26,86.931113674184,33.136484,6,P-GPS,
27600,2023-07-13 17:55:22,52.2064200364534,0.0866346530229791,31.496064,31.1351716,54.155522074184,85.290693674184,30.183728,0.447388,23.9656175648,134.505253648,26,5,17.03,99.070221674184,45.275592,18.5218632,59.178479584,0,0.447388,5.144962,281.2, -4.1, -2.9,0,0,1024,1024,364,1024,0,0,-100,0,269.1,0,0,99,4.233,4.242,4.238,4.238,0,0,4.105,78.26,85.290693674184,31.496064,6,P-GPS,
27800,2023-07-13 17:55:23,52.2064198480862,0.0866353416124188,29.855644,29.4947516,54.155522074184,83.650273674184,28.543308,0.223694,23.7999679532,134.673888824,26,5,17.03,99.070221674184,45.275592,18.5218632,59.178479584,0,0.223694,5.144962,281.5, -4.6, -2.1,0,0,1024,1024,364,1024,0,0,-100,0,269.1,0,0,99,4.233,4.242,4.238,4.238,0,0,4.105,78.26,83.650273674184,29.855644,6,P-GPS,
28000,2023-07-13 17:55:23,52.2064197418307,0.0866357386379052,28.215224,27.8543316,54.155522074184,82.009853674184,26.902888,0,23.7049548268,134.770673604,26,5,17.03,99.070221674184,45.275592,18.5218632,59.178479584,0,0,4.921268,281.5, -3.7, -2.5,0,0,1024,1024,364,1024,0,0,-100,0,269.1,0,0,99,4.233,4.242,4.238,4.238,0,0,4.105,78.26,82.009853674184,28.215224,6,P-GPS,
28200,2023-07-13 17:55:23,52.2064196943442,0.0866359458843563,26.902888,26.5419956,54.155522074184,80.697517674184,25.262468,0,23.6570217544,134.820214288,26,5,17.03,99.070221674184,45.275592,18.5218632,59.178479584,0,0,4.697574,281.6, -3.9, -2.3,0,0,1024,1024,364,1024,0,0,-100,0,269.1,0,0,99,4.233,4.242,4.238,4.238,0,0,4.105,78.26,80.697517674184,26.902888,6,P-GPS,
28400,2023-07-13 17:55:23,52.2064196661205,0.0866359278158208,25.262468,24.9015756,54.155522074184,79.057097674184,23.950132,0,23.6544626992,134.831369144,26,5,17.03,99.070221674184,45.275592,18.5218632,59.178479584,0,0,4.250186,282.1, -3.4, -1.5,0,0,1024,1024,364,1024,0,0,-100,0,269.1,0,0,99,4.233,4.242,4.238,4.238,0,0,4.105,78.26,79.057097674184,25.262468,6,P-GPS,
28600,2023-07-13 17:55:23,52.2064196414114,0.0866357258047016,23.622048,23.2611556,54.155522074184,77.416677674184,22.637796,0,23.6863852724,134.877300904,26,5,17.03,99.070221674184,45.275592,18.5218632,59.178479584,0,0,3.802798,282, -1.9, -1.4,0,0,1024,1024,364,1024,0,0,-100,0,269.1,0,0,99,4.233,4.242,4.238,4.238,0,0,4.105,78.26,77.416677674184,23.622048,6,P-GPS,
28800,2023-07-13 17:55:24,52.2064196781035,0.0866355325447648,22.637796,22.2769036,54.155522074184,76.432425674184,21.981628,0,23.7295283184,134.922576496,26,5,16.932,99.070221674184,45.275592,18.5218632,59.178479584,0,0,3.579104,281.8, -0.8, -2.4,0,0,1024,1024,364,1024,0,0,-100,0,269.1,0,0,99,4.23,4.237,4.232,4.234,0,0,6.043,78.26,76.432425674184,22.637796,6,P-GPS,
29000,2023-07-13 17:55:24,52.2064197230563,0.086635467945382,21.653544,21.2926516,54.155522074184,75.448173674184,21.32546,0,23.7507225448,134.944558124,26,5,16.932,99.070221674184,45.275592,18.5218632,59.178479584,0,0,3.35541,281.6, -1.6, -2.9,0,0,1024,1024,364,1024,0,0,-100,0,269.1,0,0,99,4.23,4.237,4.232,4.234,0,0,6.043,78.26,75.448173674184,21.653544,6,P-GPS,
29200,2023-07-13 17:55:24,52.2064197717014,0.0866354765917179,20.997376,20.6364836,54.155522074184,74.792005674184,20.669292,0,23.7592855372,134.96227466,26,5,16.932,99.070221674184,45.275592,18.5218632,59.178479584,0,0,3.131716,281.6, -2.3, -2.6,0,0,1024,1024,364,1024,0,0,-100,0,269.1,0,0,99,4.23,4.237,4.232,4.234,0,0,6.043,78.26,74.792005674184,20.997376,6,P-GPS,
29400,2023-07-13 17:55:24,52.2064198051488,0.0866354877683477,20.013124,19.6522316,54.155522074184,73.807753674184,20.341208,0,23.7642067972,134.974741852,26,5,16.932,99.070221674184,45.275592,18.5218632,59.178479584,0,0,2.908022,281.7, -2.9, -2.9,0,0,1024,1024,1024,1024,0,0,0,0,269.1,0,0,99,4.23,4.237,4.232,4.234,0,0,6.043,78.26,73.807753674184,20.013124,6,P-GPS,
29600,2023-07-13 17:55:24,52.206419806391,0.0866354295645974,19.356956,18.9960636,54.155522074184,73.151585674184,19.356956,0,23.7751319944,134.987865212,26,5,16.932,99.070221674184,45.275592,18.5218632,59.178479584,0,0,2.23694,281.8, -1.8, -2.1,0,0,1024,1024,1024,1024,0,0,0,0,269.1,0,0,99,4.23,4.237,4.232,4.234,0,0,6.043,78.26,73.151585674184,19.356956,6,P-GPS,
29800,2023-07-13 17:55:25,52.2064197787669,0.0866353698230993,19.028872,18.6679796,54.155522074184,72.823501674184,19.028872,0,23.78034853,135.004597496,26,5,16.937,99.070221674184,45.275592,18.5218632,59.178479584,0,0,0.671082,281.9, -2.7, -1.9,0,0,1024,1024,1024,1024,0,0,0,0,269.1,0,0,99,4.228,4.234,4.229,4.229,0,0,6.099,78.26,72.823501674184,19.028872,6,P-GPS,
30000,2023-07-13 17:55:25,52.2064197004974,0.086635285890034,19.028872,18.6679796,54.155522074184,72.823501674184,19.028872,0,23.7794955116,135.038718232,26,5,16.937,99.070221674184,45.275592,18.5218632,59.178479584,0,0,0,282, -3, -1.8,0,0,1024,1024,1024,1024,0,0,0,0,269.1,0,0,99,4.228,4.234,4.229,4.229,0,0,6.099,78.26,72.823501674184,19.028872,6,P-GPS,
30200,2023-07-13 17:55:25,52.2064196139694,0.0866350999763374,19.028872,18.6679796,54.155522074184,72.823501674184,19.028872,0,23.795768478,135.090883588,26,5,16.937,99.070221674184,45.275592,18.5218632,59.178479584,0,0,0,282.1, -2.4, -1.2,0,0,1024,1024,1024,1024,0,0,0,0,269.1,0,0,99,4.228,4.234,4.229,4.229,0,0,6.099,78.26,72.823501674184,19.028872,6,P-GPS,
30400,2023-07-13 17:55:25,52.2064195351816,0.0866349030607548,19.028872,18.6679796,54.155522074184,72.823501674184,19.028872,0,23.8157487936,135.143377028,26,5,16.937,99.070221674184,45.275592,18.5218632,59.178479584,0,0,0,281.9, -1.9, -1.1,0,0,1024,1024,1024,1024,0,0,0,0,269.1,0,0,99,4.228,4.234,4.229,4.229,0,0,6.099,78.26,72.823501674184,19.028872,6,P-GPS,
30600,2023-07-13 17:55:25,52.206419500492,0.0866347634542331,19.028872,18.6679796,54.155522074184,72.823501674184,19.356956,0,23.8343511564,135.17716968,26,5,16.937,99.070221674184,45.275592,18.5218632,59.178479584,0,0,0,281.9, -2.2, -1.4,0,0,1024,1024,1024,1024,0,0,0,0,269.1,0,0,99,4.228,4.234,4.229,4.229,0,0,6.099,78.26,72.823501674184,19.028872,6,P-GPS,
30800,2023-07-13 17:55:26,52.2064195025931,0.0866346529321122,19.028872,18.6679796,54.155522074184,72.823501674184,19.356956,0,23.8551844904,135.20177598,26,5,16.919,99.070221674184,45.275592,18.5218632,59.178479584,0,0,0,281.8, -2.1, -2,0,0,1024,1024,364,1024,0,0,-100,0,269.1,0,0,99,4.167,4.182,4.187,4.201,0,0,6.85,78.26,72.823501674184,19.028872,6,P-GPS,
31000,2023-07-13 17:55:26,52.2064195246122,0.0866345542646281,19.028872,18.6679796,54.155522074184,72.823501674184,19.356956,0,23.8779207116,135.225398028,26,5,16.919,99.070221674184,45.275592,18.5218632,59.178479584,0,0,0.223694,281.9, -2.4, -2.2,0,0,1024,1024,364,1024,0,0,-100,0,269.1,0,0,99,4.167,4.182,4.187,4.201,0,0,6.85,78.26,72.823501674184,19.028872,6,P-GPS,
31200,2023-07-13 17:55:26,52.2064195754868,0.0866344542900584,18.700788,18.3398956,54.155522074184,72.495417674184,19.028872,0,23.9068577204,135.25426942,26,5,16.919,99.070221674184,45.275592,18.5218632,59.178479584,0,0,1.565858,282, -2.7, -3.8,0,0,1024,1024,364,1024,0,0,-100,0,269.1,0,0,99,4.167,4.182,4.187,4.201,0,0,6.85,78.26,72.495417674184,18.700788,6,P-GPS,
31400,2023-07-13 17:55:26,52.2064196101957,0.0866343122441097,18.04462,17.6837276,54.155522074184,71.839249674184,18.372704,0,23.9402238632,135.28871824,26,5,16.919,99.070221674184,45.275592,18.5218632,59.178479584,0,0,2.23694,281.8, -1, -3,0,0,1024,1024,465,1024,0,0,-85,0,269.1,0,0,99,4.167,4.182,4.187,4.201,0,0,6.85,78.26,71.839249674184,18.04462,6,P-GPS,
31600,2023-07-13 17:55:26,52.2064196239692,0.0866341939913117,17.388452,17.0275596,54.155522074184,71.183081674184,17.388452,0,23.96489578,135.315621128,26,5,16.919,99.070221674184,45.275592,18.5218632,59.178479584,0,0,2.460634,281.7, -1.2, -3.2,0,0,1024,1024,947,1024,0,0,-12,0,269.1,0,0,99,4.167,4.182,4.187,4.201,0,0,6.85,78.26,71.183081674184,17.388452,6,P-GPS,
31800,2023-07-13 17:55:26,52.2064195762214,0.086634101635583,16.732284,16.3713916,54.155522074184,70.526913674184,16.732284,0,23.9721464364,135.342524016,26,5,16.898,99.070221674184,45.275592,18.5218632,59.178479584,0,0,1.789552,281.6, -0.3, -2.8,0,0,1024,1024,364,1024,0,0,-100,0,269.1,0,0,99,4.225,4.228,4.224,4.227,0,0,7.57,78.44,70.526913674184,16.732284,6,P-GPS,
32000,2023-07-13 17:55:27,52.2064194563445,0.0866341356757252,16.4042,16.0433076,54.155522074184,70.198829674184,16.4042,0,23.941273732,135.386815356,26,5,16.898,99.070221674184,45.275592,18.5218632,59.178479584,0,0,1.342164,281.9, -3.6, -2.9,0,0,1024,1024,364,1024,0,0,-100,0,269.1,0,0,99,4.225,4.228,4.224,4.227,0,0,7.57,78.44,70.198829674184,16.4042,6,P-GPS,
