time(millisecond),datetime(utc),latitude,longitude,height_above_takeoff(feet),height_above_ground_at_drone_location(feet),ground_elevation_at_drone_location(feet),altitude_above_seaLevel(feet),height_sonar(feet),speed(mph),distance(feet),mileage(feet),satellites,gpslevel,voltage(v),max_altitude(feet),max_ascent(feet),max_speed(mph),max_distance(feet), xSpeed(mph), ySpeed(mph), zSpeed(mph), compass_heading(degrees), pitch(degrees), roll(degrees),isPhoto,isVideo,rc_elevator,rc_aileron,rc_throttle,rc_rudder,rc_elevator(percent),rc_aileron(percent),rc_throttle(percent),rc_rudder(percent),gimbal_heading(degrees),gimbal_pitch(degrees),gimbal_roll(degrees),battery_percent,voltageCell1,voltageCell2,voltageCell3,voltageCell4,voltageCell5,voltageCell6,current(A),battery_temperature(f),altitude(feet),ascent(feet),flycStateRaw,flycState,message
0,2023-07-17 17:03:47,52.2064084000977,0.0864495160307161,0,0,53.103078142868,53.103078142868,0,0,0,0,25,5,0,53.103078142868,0,0,0,0,0,0,314.5, 2.5, -1.9,0,0,1024,1024,1024,1024,0,0,0,0,314.6,0,0,99,4.291,4.295,4.291,4.293,0,0,0,78.26,53.103078142868,0,6,P-GPS,"Aircraft not in flight. Vision systems and obstacle avoidance disabled (Code: 180059). Vision sensor(s) blocked. Fly with caution (Code: 180038)"
200,2023-07-17 17:03:47,52.2064084729937,0.0864494906595241,0,0,53.103078142868,53.103078142868,0,0,0.0271942922088,0.0271942922088,25,5,0,53.103078142868,0,0,0.0271942922088,0,0,0,314.5, 2.5, -1.9,0,0,1024,1024,1024,1024,0,0,0,0,314.6,0,0,99,4.291,4.295,4.291,4.293,0,0,0,78.26,53.103078142868,0,41,Motors_Started,"Setting new Return-To-Home altitude to 26m (85 ft). Data Recorder File Index is 61. Setting new Maximum Flight Altitude to 120m (394 ft)"
400,2023-07-17 17:03:47,52.2064085525462,0.0864494338624786,0,0,53.103078142868,53.103078142868,0,0,0.058576445444,0.058875658052,25,5,0,53.103078142868,0,0,0.058576445444,0,0,0,314.7, 2.7, -2,0,0,1024,1024,1024,1024,0,0,0,0,314.6,0,0,99,4.291,4.295,4.291,4.293,0,0,0,78.26,53.103078142868,0,41,Motors_Started,
600,2023-07-17 17:03:47,52.2064086463712,0.0864493576141312,0,0,53.103078142868,53.103078142868,0,0,0.096582024088,0.09711778526,25,5,0,53.103078142868,0,0,0.096582024088,0,0,0,315.1, 2.5, -2.2,0,0,1024,1024,1024,1024,0,0,0,0,314.6,0,0,99,4.291,4.295,4.291,4.293,0,0,0,78.26,53.103078142868,0,41,Motors_Started,
800,2023-07-17 17:03:47,52.2064086973273,0.086449321850476,0,0,53.103078142868,53.103078142868,0,0,0.116812011612,0.1173556468,25,5,0,53.103078142868,0,0,0.116812011612,0,0,0,314.8, 2.6, -2.3,0,0,1024,1024,1024,1024,0,0,0,0,314.6,0,0,99,4.291,4.295,4.291,4.293,0,0,0,78.26,53.103078142868,0,41,Motors_Started,
1000,2023-07-17 17:03:48,52.206408725701,0.0864493192083466,0,0,53.103078142868,53.103078142868,0,0,0.126685043424,0.12772474162,24,5,0,53.103078142868,0,0,0.126685043424,0,0,0,314.9, 2.6, -2.3,0,0,1024,1024,1024,1024,0,0,0,0,314.6,0,0,99,4.291,4.295,4.291,4.293,0,0,0,78.26,53.103078142868,0,41,Motors_Started,
1200,2023-07-17 17:03:48,52.2064087515303,0.0864493291593627,0,0,53.103078142868,53.103078142868,0,0,0.134855975444,0.137407484712,25,5,17.346,53.103078142868,0,0,0.134855975444,0,0,0,314.7, 2.5, -2.3,0,0,1024,1024,1024,1024,0,0,0,0,314.6,0,0,99,4.291,4.295,4.291,4.293,0,0,1.338,78.26,53.103078142868,0,41,Motors_Started,
1400,2023-07-17 17:03:48,52.2064087739671,0.0864493336465704,0,0,53.103078142868,53.103078142868,0,0,0.142371067548,0.145654860304,25,5,17.346,53.103078142868,0,0,0.142371067548,0,0,0,314.9, 2.5, -2.3,0,0,1024,1024,1024,1024,0,0,0,0,314.7,0,0,99,4.291,4.295,4.291,4.293,0,0,1.338,78.26,53.103078142868,0,41,Motors_Started,
1600,2023-07-17 17:03:48,52.2064087866975,0.0864493546248072,0,0,53.103078142868,53.103078142868,0,0,0.145594164764,0.152255910384,25,5,17.346,53.103078142868,0,0,0.145594164764,0,0,0,314.8, 2.5, -2.3,0,0,1024,1024,1024,1024,0,0,0,0,314.7,0,0,99,4.291,4.295,4.291,4.293,0,0,1.338,78.26,53.103078142868,0,11,AutoTakeoff,
1800,2023-07-17 17:03:48,52.2064087917606,0.0864493938426054,0,0,53.103078142868,53.103078142868,0,0,0.145485897044,0.161216868676,25,5,17.346,53.103078142868,0,0,0.145594164764,0,0,0,314.9, 2.5, -2,0,0,1024,1024,1024,1024,0,0,0,0,314.7,0,0,99,4.291,4.295,4.291,4.293,0,0,1.338,78.26,53.103078142868,0,11,AutoTakeoff,
2000,2023-07-17 17:03:49,52.2064087963268,0.0864494085167336,0,0,53.103078142868,53.103078142868,0,0,0.146548889204,0.16489665882,24,5,17.346,53.103078142868,0,0,0.146548889204,0,0,0,315.4, 0.8, -1.8,0,0,1024,1024,1024,1024,0,0,0,0,314.7,0,0,99,4.291,4.295,4.291,4.293,0,0,1.338,78.26,53.103078142868,0,11,AutoTakeoff,
2200,2023-07-17 17:03:49,52.2064087631899,0.0864493287056835,0,0,53.103078142868,53.103078142868,0,0,0.138937340404,0.186451121452,24,5,17.185,53.103078142868,0,0,0.146548889204,0,0,-0.671082,315.7, -1.3, -0.2,0,0,1024,1024,1024,1024,0,0,0,0,314.7,0,0,99,4.3,4.302,4.296,4.295,0,0,3.388,78.26,53.103078142868,0,11,AutoTakeoff,"Vision sensor(s) blocked. Fly with caution (Code: 180038)"
2400,2023-07-17 17:03:49,52.2064087606541,0.0864491029815285,0.328084,0.328084,53.103078142868,53.431162142868,0.328084,0,0.160729663936,0.236928485272,24,5,17.185,53.431162142868,0.328084,0,0.160729663936,0,0,-0.894776,315.6, 0.9, 1.1,0,0,1024,1024,1024,1024,0,0,0,0,314.8,0,0,99,4.3,4.302,4.296,4.295,0,0,3.388,78.26,53.431162142868,0.328084,11,AutoTakeoff,
2600,2023-07-17 17:03:49,52.2064087960355,0.0864489571879047,0.656168,0.656168,53.103078142868,53.759246142868,0.656168,0,0.190998693776,0.271988853848,24,5,17.185,53.759246142868,0.656168,0,0.190998693776,0,0,-0.671082,315.7, 1.1, 1.1,0,0,1024,1024,1387,1024,0,0,55,0,314.8,0,0,99,4.3,4.302,4.296,4.295,0,0,3.388,78.26,53.759246142868,0.656168,11,AutoTakeoff,
2800,2023-07-17 17:03:50,52.2064088347066,0.0864489552371062,0.656168,0.656168,53.103078142868,53.759246142868,0.984252,0,0.202150925104,0.286104996032,24,5,17.185,53.759246142868,0.656168,0,0.202150925104,0,0,-0.447388,315.6, 0.5, 0.4,0,0,1024,1024,1684,1024,0,0,100,0,314.9,0,0,99,4.3,4.302,4.296,4.295,0,0,3.388,78.26,53.759246142868,0.656168,11,AutoTakeoff,
3000,2023-07-17 17:03:50,52.2064088458179,0.0864490351689482,0.984252,0.984252,53.103078142868,54.087330142868,0.984252,0,0.194948168968,0.304430455936,25,5,17.185,54.087330142868,0.984252,0,0.202150925104,0,0,-0.447388,315.6, 0.3, 0.2,0,0,1024,1024,1684,1024,0,0,100,0,314.9,0,0,99,4.3,4.302,4.296,4.295,0,0,3.388,78.26,54.087330142868,0.984252,11,AutoTakeoff,
3200,2023-07-17 17:03:50,52.2064088213765,0.0864491784904902,1.312336,1.312336,53.103078142868,54.415414142868,1.312336,0,0.17123196086,0.33769358036,25,5,17.284,54.415414142868,1.312336,0,0.202150925104,0,0,-1.342164,315.6, 0.3, 0.2,0,0,1024,1024,1684,1024,0,0,100,0,314.9,0,0,99,4.256,4.262,4.256,4.258,0,0,3.475,78.44,54.415414142868,1.312336,11,AutoTakeoff,"Home Point updated (Code: 3000001)"
3400,2023-07-17 17:03:50,52.2064087696836,0.0864493973118201,1.968504,1.968504,53.103078142868,55.071582142868,2.296588,0,0.13743110676,0.39012796524,26,5,17.284,55.071582142868,1.968504,0,0.202150925104,0,0,-3.35541,315.9, -0.5, 0,0,0,1024,1024,1684,1024,0,0,100,0,314.9,0,0,99,4.256,4.262,4.256,4.258,0,0,3.475,78.44,55.071582142868,1.968504,11,AutoTakeoff,
3600,2023-07-17 17:03:50,52.2064087048491,0.0864496721897177,3.28084,3.28084,53.103078142868,56.383918142868,3.608924,0,0.116541342312,0.45598098572,26,5,17.284,56.383918142868,3.28084,0,0.202150925104,0,0,-5.59235,315.9, -0.6, 0.2,0,0,1024,1024,1684,1024,0,0,100,0,315,0,0,99,4.256,4.262,4.256,4.258,0,0,3.475,78.44,56.383918142868,3.28084,11,AutoTakeoff,
3800,2023-07-17 17:03:51,52.2064086821296,0.0864500687361903,5.577428,5.577428,53.103078142868,58.680506142868,5.577428,0,0.160809388348,0.545029545,26,5,17.284,58.680506142868,5.577428,0,0.202150925104,0,0,-7.605596,315.7, -1.7, -0.4,0,0,1024,1024,1684,1024,0,0,100,0,315,0,0,99,4.256,4.262,4.256,4.258,0,0,3.475,78.44,58.680506142868,5.577428,6,P-GPS,
4000,2023-07-17 17:03:51,52.2064086745736,0.0864504510363298,8.530184,8.530184,53.103078142868,61.633262142868,8.2021,0,0.231802500856,0.63055120128,26,5,17.284,61.633262142868,8.530184,0,0.231802500856,0,0,-9.842536,315.4, -1.3, -1.7,0,0,1024,1024,1684,1024,0,0,100,0,315,0,0,99,4.256,4.262,4.256,4.258,0,0,3.475,78.44,61.633262142868,8.530184,6,P-GPS,
4200,2023-07-17 17:03:51,52.2064085446389,0.0864507388750317,12.467192,12.467192,53.103078142868,65.570270142868,11.48294,0,0.278450796312,0.71048558704,26,5,17.047,65.570270142868,12.467192,0,0.278450796312,0,0,-11.855782,315.1, -2.6, -0.6,0,0,1024,1024,1684,1024,0,0,100,0,315,0,0,99,4.16,4.166,4.157,4.154,0,0,6.501,78.26,65.570270142868,12.467192,6,P-GPS,
4400,2023-07-17 17:03:51,52.2064083514804,0.0864509415222607,16.732284,16.732284,53.103078142868,69.835362142868,15.419948,0.223694,0.319213920976,0.79426839812,26,5,17.047,69.835362142868,16.732284,0.223694,0.319213920976,-0.223694,0,-13.197946,314.5, -4.5, 0.4,0,0,1024,1024,1684,1024,0,0,100,0,315,0,0,99,4.16,4.166,4.157,4.154,0,0,6.501,78.26,69.835362142868,16.732284,6,P-GPS,
4600,2023-07-17 17:03:51,52.2064081670172,0.0864511219231984,21.32546,21.32546,53.103078142868,74.428538142868,19.028872,0,0.36898951312,0.87272968672,26,5,17.047,74.428538142868,21.32546,0.223694,0.36898951312,0,0,-13.42164,315.1, -6.2, 1.3,0,0,1024,1024,1024,1024,0,0,0,0,315,0,0,99,4.16,4.166,4.157,4.154,0,0,6.501,78.26,74.428538142868,21.32546,6,P-GPS,
4800,2023-07-17 17:03:52,52.2064081111095,0.0864512868007793,25.262468,25.262468,53.103078142868,78.365546142868,22.96588,0,0.40971786088,0.914862234,26,5,17.047,78.365546142868,25.262468,0.223694,0.40971786088,0,0,-12.974252,315, -7, 0.7,0,0,1024,1024,1024,1024,0,0,0,0,315,0,0,99,4.16,4.166,4.157,4.154,0,0,6.501,78.26,78.365546142868,25.262468,6,P-GPS,
5000,2023-07-17 17:03:52,52.2064081571995,0.0864514724808701,28.871392,28.871392,53.103078142868,81.974470142868,26.24672,0,0.44632219276,0.95965226168,26,5,17.047,81.974470142868,28.871392,0.223694,0.44632219276,0,0,-10.961006,315, -6.9, -0.3,0,0,1024,1024,1024,1024,0,0,0,0,315,0,0,99,4.16,4.166,4.157,4.154,0,0,6.501,78.26,81.974470142868,28.871392,6,P-GPS,
5200,2023-07-17 17:03:52,52.2064082506391,0.0864516716833077,31.824148,31.824148,53.103078142868,84.927226142868,28.871392,0,0.48504922812,1.01574150232,26,5,16.716,84.927226142868,31.824148,0.223694,0.48504922812,0,0,-8.94776,315.1, -7.6, -1.4,0,0,1024,1024,1024,1024,0,0,0,0,315,0,0,99,4.237,4.244,4.24,4.24,0,0,11.394,78.08,84.927226142868,31.824148,6,P-GPS,
5400,2023-07-17 17:03:52,52.2064083991982,0.0864518063357994,33.792652,33.792652,53.103078142868,86.895730142868,31.16798,0,0.51208006888,1.07774281664,26,5,16.716,86.895730142868,33.792652,0.223694,0.51208006888,0,0,-6.487126,314.9, -7.9, -1.4,0,0,1024,1024,1684,1024,0,0,100,0,315,0,0,99,4.237,4.244,4.24,4.24,0,0,11.394,78.08,86.895730142868,33.792652,6,P-GPS,
5600,2023-07-17 17:03:52,52.2064085813825,0.0864518677219504,34.776904,34.776904,53.103078142868,87.879982142868,32.8084,0,0.52995080436,1.14561683456,26,5,16.716,87.879982142868,34.776904,0.223694,0.52995080436,0,0,-4.47388,315.1, -7.3, -1.4,0,0,1024,1024,1684,1024,0,0,100,0,315,0,0,99,4.237,4.244,4.24,4.24,0,0,11.394,78.08,87.879982142868,34.776904,6,P-GPS,
5800,2023-07-17 17:03:52,52.2064088239209,0.0864517659767045,35.761156,35.761156,53.103078142868,88.864234142868,34.120736,0,0.52628610608,1.23698166688,26,5,16.716,88.864234142868,35.761156,0.223694,0.52995080436,0,0,-6.039738,315.1, -4.1, -1,0,0,1024,1024,1595,1024,0,0,87,0,315,0,0,99,4.237,4.244,4.24,4.24,0,0,11.394,78.08,88.864234142868,35.761156,6,P-GPS,
6000,2023-07-17 17:03:53,52.2064090954326,0.0864515848248317,37.401576,37.401576,53.103078142868,90.504654142868,36.417324,0,0.52755579116,1.34400594852,26,5,16.716,90.504654142868,37.401576,0.223694,0.52995080436,0,0,-8.276678,315.2, -4.8, -1.6,0,0,1024,1024,1024,1024,0,0,0,0,315,0,0,99,4.237,4.244,4.24,4.24,0,0,11.394,78.08,90.504654142868,37.401576,6,P-GPS,
6200,2023-07-17 17:03:53,52.2064093570752,0.0864513806527291,39.698164,39.698164,53.103078142868,92.801242142868,38.713912,0.223694,0.54379923,1.4498196002,26,5,16.744,92.801242142868,39.698164,0.223694,0.54379923,0.223694,0,-7.82929,314.8, -6.9, -2.5,0,0,1024,1024,1024,1024,0,0,0,0,315,0,0,99,4.197,4.206,4.177,4.172,0,0,13.805,78.26,92.801242142868,39.698164,6,P-GPS,
6400,2023-07-17 17:03:53,52.2064095908495,0.0864511501752639,41.338584,41.3057756,53.135886542868,94.441662142868,40.354332,0,0.56766077932,1.54946855352,26,5,16.744,94.441662142868,41.338584,0.223694,0.56766077932,0,0,-5.59235,314.7, -5.9, -2.5,0,0,1024,1024,1024,1024,0,0,0,0,315,0,0,99,4.197,4.206,4.177,4.172,0,0,13.805,78.26,94.441662142868,41.338584,6,P-GPS,
6600,2023-07-17 17:03:53,52.2064097522076,0.0864509545465597,42.322836,42.2900276,53.135886542868,95.425914142868,41.338584,0,0.58890421832,1.62281173172,26,5,16.744,95.425914142868,42.322836,0.223694,0.58890421832,0,0,-3.131716,314.7, -5.2, -2.7,0,0,1024,1024,1024,1024,0,0,0,0,315,0,0,99,4.197,4.206,4.177,4.172,0,0,13.805,78.26,95.425914142868,42.322836,6,P-GPS,
6800,2023-07-17 17:03:53,52.2064098482258,0.0864508080589292,42.979004,42.9461956,53.135886542868,96.082082142868,41.666668,0,0.6021653736,1.67077105084,26,5,16.744,96.082082142868,42.979004,0.223694,0.6021653736,0,0,-0.894776,314.8, -5.1, -3.1,0,0,1024,1024,1024,1024,0,0,0,0,315,0,0,99,4.197,4.206,4.177,4.172,0,0,13.805,78.26,96.082082142868,42.979004,6,P-GPS,
7000,2023-07-17 17:03:54,52.2064098811228,0.0864506695546153,42.65092,42.6181116,53.135886542868,95.753998142868,41.666668,0,0.59874673832,1.70398299416,26,5,16.744,96.082082142868,42.979004,0.223694,0.6021653736,0,0,0,314.6, -4.4, -2.6,0,0,1024,1024,1024,1024,0,0,0,0,315,0,0,99,4.197,4.206,4.177,4.172,0,0,13.805,78.26,95.753998142868,42.65092,6,P-GPS,
7200,2023-07-17 17:03:54,52.2064098314517,0.0864505117261259,42.322836,42.2900276,53.135886542868,95.425914142868,41.666668,0,0.5677001494,1.7436516306,26,5,16.936,96.082082142868,42.979004,0.223694,0.6021653736,0,0,0,314.7, -4.7, -1.9,0,0,1024,1024,1024,1024,0,0,0,0,315,0,0,99,4.27,4.272,4.266,4.27,0,0,6.582,78.62,95.425914142868,42.322836,6,P-GPS,
7400,2023-07-17 17:03:54,52.2064097397856,0.0864503432267842,42.322836,42.2900276,53.135886542868,95.425914142868,41.666668,0,0.5226050036,1.7940289288,26,5,16.936,96.082082142868,42.979004,0.223694,0.6021653736,0,0,0,314.8, -5.2, -1.2,0,0,1024,1024,1024,1024,0,0,0,0,315,-0.9,0,99,4.27,4.272,4.266,4.27,0,0,6.582,78.62,95.425914142868,42.322836,6,P-GPS,
7600,2023-07-17 17:03:54,52.2064096212536,0.0864501764292581,42.322836,42.2900276,53.135886542868,95.425914142868,41.338584,0,0.46936681292,1.85113522984,26,5,16.936,96.082082142868,42.979004,0.223694,0.6021653736,0,0,0,314.9, -4.9, -0.8,0,0,1024,1024,1024,1024,0,0,0,0,315,-3.4,0,99,4.27,4.272,4.266,4.27,0,0,6.582,78.62,95.425914142868,42.322836,6,P-GPS,
7800,2023-07-17 17:03:54,52.2064095052659,0.0864500567627853,41.994752,41.9619436,53.135886542868,95.097830142868,41.338584,0,0.42095473788,1.90120084824,26,5,16.936,96.082082142868,42.979004,0.223694,0.6021653736,0,0,0,315, -4.5, -1,0,0,1024,1024,1024,1024,0,0,0,0,315,-6.3,0,99,4.27,4.272,4.266,4.27,0,0,6.582,78.62,95.097830142868,41.994752,6,P-GPS,
8000,2023-07-17 17:03:55,52.2064094150818,0.0864500130645508,41.994752,41.994752,53.103078142868,95.097830142868,41.338584,0,0.3866305898,1.93552499632,26,5,16.936,96.082082142868,42.979004,0.223694,0.6021653736,0,0,0,314.8, -4.4, -1.3,0,0,1024,1024,1024,1024,0,0,0,0,315,-9.2,0,99,4.27,4.272,4.266,4.27,0,0,6.582,78.62,95.097830142868,41.994752,6,P-GPS,
8200,2023-07-17 17:03:55,52.2064093280161,0.0864500157612331,41.994752,41.994752,53.103078142868,95.097830142868,41.666668,0,0.3565124786,1.96729665088,26,5,17.144,96.082082142868,42.979004,0.223694,0.6021653736,0,0,0,314.6, -4.4, -1.2,0,0,1024,1024,1024,1024,0,0,0,0,315,-12.1,0,99,4.244,4.249,4.246,4.248,0,0,6.295,78.8,95.097830142868,41.994752,6,P-GPS,
8400,2023-07-17 17:03:55,52.2064092350735,0.0864500744769133,41.666668,41.666668,53.103078142868,94.769746142868,41.666668,0,0.32923557484,2.0036582006,26,5,17.144,96.082082142868,42.979004,0.223694,0.6021653736,0,0,0,315, -4.4, -1.3,0,0,1024,1024,1024,1024,0,0,0,0,315,-15,0,99,4.244,4.249,4.246,4.248,0,0,6.295,78.8,94.769746142868,41.666668,6,P-GPS,
8600,2023-07-17 17:03:55,52.2064091434759,0.0864501992095425,41.666668,41.666668,53.103078142868,94.769746142868,41.666668,0,0.311276912848,2.04718510488,26,5,17.144,96.082082142868,42.979004,0.223694,0.6021653736,0,0,0,315.5, -4.8, -1.2,0,0,1024,1024,1024,1024,0,0,0,0,315,-17.9,0,99,4.244,4.249,4.246,4.248,0,0,6.295,78.8,94.769746142868,41.666668,6,P-GPS,
8800,2023-07-17 17:03:55,52.2064090897441,0.0864503516724353,41.666668,41.666668,53.103078142868,94.769746142868,41.666668,0,0.313400272496,2.08650925312,26,5,17.144,96.082082142868,42.979004,0.223694,0.6021653736,0,0,0,316, -4.8, -1.2,0,0,1024,1024,1024,1024,0,0,0,0,315,-20.8,0,99,4.244,4.249,4.246,4.248,0,0,6.295,78.8,94.769746142868,41.666668,6,P-GPS,
9000,2023-07-17 17:03:56,52.2064090628097,0.086450513755095,41.666668,41.666668,53.103078142868,94.769746142868,41.666668,0,0.32897638848,2.12405846692,26,5,17.144,96.082082142868,42.979004,0.223694,0.6021653736,0,0,0,316.4, -5, -1.3,0,0,1024,1024,1024,1024,0,0,0,0,315,-23.7,0,99,4.244,4.249,4.246,4.248,0,0,6.295,78.8,94.769746142868,41.666668,6,P-GPS,
9200,2023-07-17 17:03:56,52.2064090349329,0.086450689570784,41.666668,41.666668,53.103078142868,94.769746142868,41.666668,0,0.34999344952,2.16466214276,26,5,16.979,96.082082142868,42.979004,0.223694,0.6021653736,0,0,0,316.5, -5.6, -1.6,0,0,1024,1024,1024,1024,0,0,0,0,315,-26.6,0,99,4.24,4.248,4.243,4.245,0,0,6.698,78.8,94.769746142868,41.666668,6,P-GPS,
9400,2023-07-17 17:03:56,52.2064090556649,0.0864508074288952,41.666668,41.666668,53.103078142868,94.769746142868,41.666668,0,0.37493767604,2.1920768418,26,5,16.979,96.082082142868,42.979004,0.223694,0.6021653736,0,0,0,315.7, -5.4, -1.3,0,0,1024,1024,1024,1024,0,0,0,0,315,-29.5,0,99,4.24,4.248,4.243,4.245,0,0,6.698,78.8,94.769746142868,41.666668,6,P-GPS,
9600,2023-07-17 17:03:56,52.2064091274043,0.0864508699250255,41.666668,41.666668,53.103078142868,94.769746142868,41.666668,0,0.40255250632,2.22174875876,26,5,16.979,96.082082142868,42.979004,0.223694,0.6021653736,0,0,0,314.9, -4.8, -1.5,0,0,1024,1024,1024,1024,0,0,0,0,315,-32.5,0,99,4.24,4.248,4.243,4.245,0,0,6.698,78.8,94.769746142868,41.666668,6,P-GPS,
9800,2023-07-17 17:03:57,52.2064092080277,0.086450916015096,41.666668,41.666668,53.103078142868,94.769746142868,41.666668,0,0.42996720536,2.25291673876,27,5,16.979,96.082082142868,42.979004,0.223694,0.6021653736,0,0,0,314.9, -4.8, -1.1,0,0,1024,1024,1024,1024,0,0,0,0,315,-35.4,0,99,4.24,4.248,4.243,4.245,0,0,6.698,78.8,94.769746142868,41.666668,6,P-GPS,
10000,2023-07-17 17:03:57,52.2064092914268,0.0864509522410856,41.666668,41.666668,53.103078142868,94.769746142868,41.666668,0,0.45702429284,2.28440624108,27,5,16.979,96.082082142868,42.979004,0.223694,0.6021653736,0,0,0,314.9, -4.4, -1.4,0,0,1024,1024,1024,1024,0,0,0,0,315,-38.3,0,99,4.24,4.248,4.243,4.245,0,0,6.698,78.8,94.769746142868,41.666668,6,P-GPS,
10200,2023-07-17 17:03:57,52.2064093480285,0.0864509508724577,41.666668,41.666668,53.103078142868,94.769746142868,41.994752,0,0.4717355794,2.30505912888,27,5,16.972,96.082082142868,42.979004,0.223694,0.6021653736,0,0,0,314.8, -4.4, -0.8,0,0,1024,1024,1024,1024,0,0,0,0,315,-41.2,0,99,4.239,4.243,4.239,4.241,0,0,6.952,78.8,94.769746142868,41.666668,6,P-GPS,
10400,2023-07-17 17:03:57,52.2064094042532,0.0864509056542233,41.666668,41.666668,53.103078142868,94.769746142868,41.994752,0,0.48037403112,2.32792658368,27,5,16.972,96.082082142868,42.979004,0.223694,0.6021653736,0,0,0,314.8, -4.2, -0.4,0,0,1024,1024,1024,1024,0,0,0,0,315,-44.1,0,99,4.239,4.243,4.239,4.241,0,0,6.952,78.8,94.769746142868,41.666668,6,P-GPS,
10600,2023-07-17 17:03:57,52.2064094835659,0.0864508819148673,41.666668,41.666668,53.103078142868,94.769746142868,41.994752,0,0.49952757504,2.3573491568,27,5,16.972,96.082082142868,42.979004,0.223694,0.6021653736,0,0,0,314.9, -3.9, -0.6,0,0,1024,1024,1024,1024,0,0,0,0,315,-47,0,99,4.239,4.243,4.239,4.241,0,0,6.952,78.8,94.769746142868,41.666668,6,P-GPS,
10800,2023-07-17 17:03:58,52.2064095831393,0.0864508948024292,41.666668,41.6338596,53.135886542868,94.769746142868,41.994752,0,0.5304134028,2.39378944668,27,5,16.972,96.082082142868,42.979004,0.223694,0.6021653736,0,0,0,314.9, -3.8, -1.1,0,0,1024,1024,1024,1024,0,0,0,0,315,-50,0,99,4.239,4.243,4.239,4.241,0,0,6.952,78.8,94.769746142868,41.666668,6,P-GPS,
11000,2023-07-17 17:03:58,52.2064096734262,0.0864509029827969,41.666668,41.6338596,53.135886542868,94.769746142868,41.994752,0,0.55856301,2.42678157372,27,5,16.972,96.082082142868,42.979004,0.223694,0.6021653736,0,0,0,314.9, -3.7, -1.3,0,0,1024,1024,1024,1024,0,0,0,0,315,-52.9,0,99,4.239,4.243,4.239,4.241,0,0,6.952,78.8,94.769746142868,41.666668,6,P-GPS,
11200,2023-07-17 17:03:58,52.2064097439491,0.0864508715539127,41.666668,41.6338596,53.135886542868,94.769746142868,42.322836,0,0.57641406044,2.45345480292,27,5,16.965,96.082082142868,42.979004,0.223694,0.6021653736,0,0,0,314.9, -3.6, -1.4,0,0,1024,1024,1024,1024,0,0,0,0,315,-55.8,0,99,4.237,4.245,4.241,4.244,0,0,7.011,78.8,94.769746142868,41.666668,6,P-GPS,
11400,2023-07-17 17:03:58,52.2064097734194,0.0864507661187969,41.666668,41.6338596,53.135886542868,94.769746142868,42.322836,0,0.57374017584,2.47936687724,27,5,16.965,96.082082142868,42.979004,0.223694,0.6021653736,0,0,0,314.9, -3.3, -1,0,0,1024,1024,1024,1024,0,0,0,0,315,-58.7,0,99,4.237,4.245,4.241,4.244,0,0,7.011,78.8,94.769746142868,41.666668,6,P-GPS,
11600,2023-07-17 17:03:58,52.2064097637559,0.0864506326059501,41.338584,41.3057756,53.135886542868,94.441662142868,42.322836,0,0.55665356112,2.50942593332,27,5,16.965,96.082082142868,42.979004,0.223694,0.6021653736,0,0,0,314.9, -3.7, -0.1,0,0,1024,1024,1024,1024,0,0,0,0,315,-61.6,0,99,4.237,4.245,4.241,4.244,0,0,7.011,78.8,94.441662142868,41.338584,6,P-GPS,
11800,2023-07-17 17:03:59,52.2064097774458,0.0864505357629562,41.338584,41.3057756,53.135886542868,94.441662142868,42.322836,0,0.55182744548,2.53164706264,27,5,16.965,96.082082142868,42.979004,0.223694,0.6021653736,0,0,0,314.9, -3.4, 0,0,0,1024,1024,1024,1024,0,0,0,0,315,-64.5,0,99,4.237,4.245,4.241,4.244,0,0,7.011,78.8,94.441662142868,41.338584,6,P-GPS,
12000,2023-07-17 17:03:59,52.206409789054,0.0864505312008816,41.338584,41.3057756,53.135886542868,94.441662142868,42.322836,0,0.55526904664,2.53600401816,27,5,16.965,96.082082142868,42.979004,0.223694,0.6021653736,0,0,0,314.8, -4, -0.3,0,0,1024,1024,1024,1024,0,0,0,0,315,-67.5,0,99,4.237,4.245,4.241,4.244,0,0,7.011,78.8,94.441662142868,41.338584,6,P-GPS,
12200,2023-07-17 17:03:59,52.2064097778742,0.0864505538606473,41.338584,41.3057756,53.135886542868,94.441662142868,42.322836,0,0.55365487336,2.54250664304,27,5,16.962,96.082082142868,42.979004,0.223694,0.6021653736,0,0,0,314.8, -4.1, -0.2,0,0,1024,1024,1024,1024,0,0,0,0,315,-70.4,0,99,4.242,4.247,4.243,4.246,0,0,6.947,78.98,94.441662142868,41.338584,6,P-GPS,
12400,2023-07-17 17:03:59,52.206409771449,0.0864506007000618,41.338584,41.3057756,53.135886542868,94.441662142868,42.322836,0,0.55601379732,2.55323827068,27,5,16.962,96.082082142868,42.979004,0.223694,0.6021653736,0,0,0,314.9, -4, -0.1,0,0,1024,1024,1024,1024,0,0,0,0,315,-73.3,0,99,4.242,4.247,4.243,4.246,0,0,6.947,78.98,94.441662142868,41.338584,6,P-GPS,
12600,2023-07-17 17:03:59,52.2064097897565,0.0864506488704058,41.338584,41.3057756,53.135886542868,94.441662142868,42.322836,0,0.56676182916,2.5659121556,27,5,16.962,96.082082142868,42.979004,0.223694,0.6021653736,0,0,0,315, -4, -0.2,0,0,1024,1024,1024,1024,0,0,0,0,315,-76.2,0,99,4.242,4.247,4.243,4.246,0,0,6.947,78.98,94.441662142868,41.338584,6,P-GPS,
12800,2023-07-17 17:04:00,52.2064098357181,0.0864506886011186,41.338584,41.3057756,53.135886542868,94.441662142868,42.322836,0,0.58573492688,2.58488853416,28,5,16.962,96.082082142868,42.979004,0.223694,0.6021653736,0,0,0,315, -3.7, -0.2,0,0,1024,1024,1024,1024,0,0,0,0,315,-79.1,0,99,4.242,4.247,4.243,4.246,0,0,6.947,78.98,94.441662142868,41.338584,6,P-GPS,
13000,2023-07-17 17:04:00,52.2064099011352,0.0864507812814438,41.338584,41.3057756,53.135886542868,94.441662142868,42.322836,0,0.61640093836,2.61649614672,28,5,16.962,96.082082142868,42.979004,0.223694,0.61640093836,0,0,0,314.9, -3.6, -1,0,0,1024,1024,1024,1024,0,0,0,0,315,-82.1,0,99,4.242,4.247,4.243,4.246,0,0,6.947,78.98,94.441662142868,41.338584,6,P-GPS,
13200,2023-07-17 17:04:00,52.2064099412284,0.0864508736288886,41.0105,40.9776916,53.135886542868,94.113578142868,42.322836,0,0.63897967924,2.64180126564,28,5,16.973,96.082082142868,42.979004,0.223694,0.63897967924,0,0,0,314.9, -4, -0.9,0,0,1024,1024,1024,1024,0,0,0,0,315,-85,0,99,4.24,4.243,4.239,4.242,0,0,6.644,78.98,94.113578142868,41.0105,6,P-GPS,
13400,2023-07-17 17:04:00,52.2064099706044,0.0864509331159544,41.0105,40.9776916,53.135886542868,94.113578142868,42.322836,0,0.65476380048,2.65888131868,28,5,16.973,96.082082142868,42.979004,0.223694,0.65476380048,0,0,0,315, -4.2, -1.1,0,0,1024,1024,1024,1024,0,0,0,0,315,-87.9,0,99,4.24,4.243,4.239,4.242,0,0,6.644,78.98,94.113578142868,41.0105,6,P-GPS,
13600,2023-07-17 17:04:00,52.2064100009999,0.0864509234539758,41.0105,40.9776916,53.135886542868,94.113578142868,42.322836,0,0.66346130732,2.67018053164,28,5,16.973,96.082082142868,42.979004,0.223694,0.66346130732,0,0,0,314.9, -4.2, -1.1,0,0,1024,1024,1024,1024,0,0,0,0,315,-89.9,0,99,4.24,4.243,4.239,4.242,0,0,6.644,78.98,94.113578142868,41.0105,6,P-GPS,
13800,2023-07-17 17:04:00,52.2064100344023,0.0864508637037018,41.0105,40.9776916,53.135886542868,94.113578142868,42.322836,0,0.66808729172,2.68826452172,28,5,16.973,96.082082142868,42.979004,0.223694,0.66808729172,0,0,0,314.9, -3.6, -1.3,0,0,1024,1024,1024,1024,0,0,0,0,315,-90,0,99,4.24,4.243,4.239,4.242,0,0,6.644,78.98,94.113578142868,41.0105,6,P-GPS,
14000,2023-07-17 17:04:01,52.2064100464988,0.0864507854291431,41.0105,40.9776916,53.135886542868,94.113578142868,42.322836,0,0.66436353832,2.70631242256,28,5,16.973,96.082082142868,42.979004,0.223694,0.66808729172,0,0,0,314.9, -4, -1.4,0,0,1024,1024,1024,1024,0,0,0,0,315,-89.9,0,99,4.24,4.243,4.239,4.242,0,0,6.644,78.98,94.113578142868,41.0105,6,P-GPS,
14200,2023-07-17 17:04:01,52.2064100563679,0.0864507429335569,41.0105,40.9776916,53.135886542868,94.113578142868,42.322836,0,0.66363847268,2.71647318404,28,5,16.953,96.082082142868,42.979004,0.223694,0.66808729172,0,0,0,315, -4, -1,0,0,1024,1024,1024,1024,0,0,0,0,315,-89.9,0,99,4.24,4.246,4.241,4.247,0,0,6.818,78.98,94.113578142868,41.0105,6,P-GPS,
14400,2023-07-17 17:04:01,52.2064100748211,0.0864507312817901,41.0105,40.9776916,53.135886542868,94.113578142868,42.322836,0,0.66871065132,2.72369103204,28,5,16.953,96.082082142868,42.979004,0.223694,0.66871065132,0,0,0,314.9, -3.3, -1.1,0,0,1024,1024,1024,1024,0,0,0,0,315,-90,0,99,4.24,4.246,4.241,4.247,0,0,6.818,78.98,94.113578142868,41.0105,6,P-GPS,
14600,2023-07-17 17:04:01,52.2064101079751,0.0864507641090906,41.0105,40.9776916,53.135886542868,94.113578142868,42.322836,0,0.68274936568,2.73784129496,28,5,16.953,96.082082142868,42.979004,0.223694,0.68274936568,0,0,0,314.9, -3.2, -1.2,0,0,1024,1024,1024,1024,0,0,0,0,315,-90,0,99,4.24,4.246,4.241,4.247,0,0,6.818,78.98,94.113578142868,41.0105,6,P-GPS,
14800,2023-07-17 17:04:02,52.2064101458666,0.0864508206467915,41.0105,40.9776916,53.135886542868,94.113578142868,42.322836,0,0.7005577652,2.75657489136,28,5,16.953,96.082082142868,42.979004,0.223694,0.7005577652,0,0,0,314.9, -3, -1.3,0,0,1024,1024,1024,1024,0,0,0,0,315,-89.9,0,99,4.24,4.246,4.241,4.247,0,0,6.818,78.98,94.113578142868,41.0105,6,P-GPS,
15000,2023-07-17 17:04:02,52.2064101526088,0.0864508609594018,41.0105,40.9776916,53.135886542868,94.113578142868,42.322836,0,0.70658466828,2.76591544284,28,5,16.953,96.082082142868,42.979004,0.223694,0.70658466828,0,0,0,314.9, -3, -1.3,0,0,1024,1024,1024,1024,0,0,0,0,315,-89.9,0,99,4.24,4.246,4.241,4.247,0,0,6.818,78.98,94.113578142868,41.0105,6,P-GPS,
15200,2023-07-17 17:04:02,52.2064101216651,0.0864509005993159,41.0105,40.9776916,53.135886542868,94.113578142868,42.65092,0,0.70025592792,2.78026911784,28,5,16.959,96.082082142868,42.979004,0.223694,0.70658466828,0,0,0,314.9, -3.3, -1.1,0,0,1024,1024,1024,1024,0,0,0,0,315,-89.9,0,99,4.236,4.241,4.237,4.238,0,0,6.784,79.16,94.113578142868,41.0105,6,P-GPS,
15400,2023-07-17 17:04:02,52.2064100602916,0.0864509731421074,41.0105,40.9776916,53.135886542868,94.113578142868,42.65092,0,0.68777561256,2.80792003736,28,5,16.959,96.082082142868,42.979004,0.223694,0.70658466828,0,0,0,314.9, -3.5, -1.1,0,0,1024,1024,1024,1024,0,0,0,0,315,-90,0,99,4.236,4.241,4.237,4.238,0,0,6.784,79.16,94.113578142868,41.0105,6,P-GPS,
15600,2023-07-17 17:04:02,52.2064099979415,0.0864510815944652,41.0105,40.9776916,53.135886542868,94.113578142868,42.322836,0,0.6799868984,2.84116806992,28,5,16.959,96.082082142868,42.979004,0.223694,0.70658466828,0,0,0,315, -3.6, -1.1,0,0,1097,1024,1024,1024,11,0,0,0,315,-89.9,0,99,4.236,4.241,4.237,4.238,0,0,6.784,79.16,94.113578142868,41.0105,6,P-GPS,
15800,2023-07-17 17:04:02,52.2064099339636,0.0864511966460852,41.0105,40.9776916,53.135886542868,94.113578142868,42.322836,0,0.6740813864,2.87590560384,28,5,16.959,96.082082142868,42.979004,0.223694,0.70658466828,0,0,0,314.8, -0.8, -0.5,0,0,1507,1024,1024,1024,73,0,0,0,315,-90,0,99,4.236,4.241,4.237,4.238,0,0,6.784,79.16,94.113578142868,41.0105,6,P-GPS,
16000,2023-07-17 17:04:03,52.20640976941,0.0864514380250101,41.0105,40.9776916,53.135886542868,94.113578142868,42.322836,0,0.65898624156,2.95663395288,28,5,16.959,96.082082142868,42.979004,0.223694,0.70658466828,0,0,0,314.8, -3.2, 0,0,0,1684,1024,1024,1024,100,0,0,0,315,-90,0,99,4.236,4.241,4.237,4.238,0,0,6.784,79.16,94.113578142868,41.0105,6,P-GPS,
16200,2023-07-17 17:04:03,52.2064096101851,0.086451766634288,41.0105,40.9776916,53.135886542868,94.113578142868,42.322836,0,0.66942915528,3.05029865404,28,5,16.948,96.082082142868,42.979004,0.223694,0.70658466828,0,0,0,315, -9.5, -0.1,0,0,1553,1024,1024,1024,80,0,0,0,315,-89.9,0,99,4.235,4.242,4.237,4.24,0,0,6.691,79.34,94.113578142868,41.0105,6,P-GPS,
16400,2023-07-17 17:04:03,52.206409705655,0.0864518049413422,41.0105,40.9776916,53.135886542868,94.113578142868,42.322836,0.223694,0.69914372316,3.08616807776,28,5,16.948,96.082082142868,42.979004,0.223694,0.70658466828,0.223694,0,0,314.9, -10.8, -0.6,0,0,1024,1024,1024,1024,0,0,0,0,315,-90,0,99,4.235,4.242,4.237,4.24,0,0,6.691,79.34,94.113578142868,41.0105,6,P-GPS,
16600,2023-07-17 17:04:03,52.2064100863522,0.0864513779319648,41.0105,40.9776916,53.135886542868,94.113578142868,41.994752,0.6263432,0.74283795028,3.25471139024,28,5,16.948,96.082082142868,42.979004,0.6263432,0.74283795028,0.447388,-0.447388,0,314.9, -1.8, -0.9,0,0,1271,1024,1024,1024,37,0,0,0,315,-90,0,99,4.235,4.242,4.237,4.24,0,0,6.691,79.34,94.113578142868,41.0105,6,P-GPS,
16800,2023-07-17 17:04:03,52.206410478075,0.0864508142304372,41.0105,40.9776916,53.135886542868,94.113578142868,41.666668,0.3131716,0.81181433044,3.4452757008,28,5,16.948,96.082082142868,42.979004,0.6263432,0.81181433044,0.223694,-0.223694,0,314.2, 3.1, -0.6,0,0,1102,1024,1024,1024,12,0,0,0,315,-89.9,0,99,4.235,4.242,4.237,4.24,0,0,6.691,79.34,94.113578142868,41.0105,6,P-GPS,
17000,2023-07-17 17:04:04,52.2064105993571,0.0864507093626114,41.0105,40.9776916,53.135886542868,94.113578142868,41.666668,0,0.84559713992,3.4953413192,28,5,16.948,96.082082142868,42.979004,0.6263432,0.84559713992,0,0,0.223694,310, -3, 0,0,0,1024,1024,1024,1024,0,0,0,0,315,-90,0,99,4.235,4.242,4.237,4.24,0,0,6.691,79.34,94.113578142868,41.0105,6,P-GPS,
17200,2023-07-17 17:04:04,52.2064106489767,0.0864507899963508,41.0105,40.9776916,53.135886542868,94.113578142868,41.994752,0,0.8685367732,3.5208990628,28,5,16.952,96.082082142868,42.979004,0.6263432,0.8685367732,0,0,0,309.4, -0.8, -1.8,0,0,1024,1024,1024,1024,0,0,0,0,315,-89.9,0,99,4.219,4.233,4.23,4.232,0,0,6.71,79.34,94.113578142868,41.0105,6,P-GPS,
17400,2023-07-17 17:04:04,52.2064105649523,0.0864510555503996,41.0105,40.9776916,53.135886542868,94.113578142868,41.994752,0,0.86159123492,3.5877297736,28,5,16.952,96.082082142868,42.979004,0.6263432,0.8685367732,0,0,0,309.2, -3.8, -1.4,0,0,1024,1024,1024,1024,0,0,0,0,315,-90,0,99,4.219,4.233,4.23,4.232,0,0,6.71,79.34,94.113578142868,41.0105,6,P-GPS,
17600,2023-07-17 17:04:04,52.206410438393,0.0864512659053275,41.0105,40.9776916,53.135886542868,94.113578142868,41.994752,0,0.84031170668,3.6536418492,28,5,16.952,96.082082142868,42.979004,0.6263432,0.8685367732,0,0,0,308.4, -4.7, -1.5,0,0,1024,1024,1024,1024,0,0,0,0,315,-90,0,99,4.219,4.233,4.23,4.232,0,0,6.71,79.34,94.113578142868,41.0105,6,P-GPS,
17800,2023-07-17 17:04:05,52.2064103480033,0.0864513488158995,41.0105,40.9776916,53.135886542868,94.113578142868,41.994752,0,0.82037076116,3.6914699344,28,5,16.952,96.082082142868,42.979004,0.6263432,0.8685367732,0,0,0,308.2, -4.5, -1.5,0,0,1141,1024,1024,1024,18,0,0,0,315,-89.9,0,99,4.219,4.233,4.23,4.232,0,0,6.71,79.34,94.113578142868,41.0105,6,P-GPS,
18000,2023-07-17 17:04:05,52.206410264947,0.0864512962108535,40.682416,40.6496076,53.135886542868,93.785494142868,41.994752,0,0.78825789924,3.7239502504,28,5,16.952,96.082082142868,42.979004,0.6263432,0.8685367732,0,0,0,308.3, -3.8, -1.1,0,0,1684,1024,1024,1024,100,0,0,0,315,-90,0,99,4.219,4.233,4.23,4.232,0,0,6.71,79.34,93.785494142868,40.682416,6,P-GPS,
18200,2023-07-17 17:04:05,52.206410197311,0.0864512309287849,40.682416,40.6496076,53.135886542868,93.785494142868,41.994752,0,0.75958991932,3.752624792,28,5,16.93,96.082082142868,42.979004,0.6263432,0.8685367732,0,0,0,308.1, -3.9, 0,0,0,1684,1024,1024,1024,100,0,0,0,315,-89.9,0,99,4.229,4.236,4.233,4.232,0,0,6.94,79.34,93.785494142868,40.682416,6,P-GPS,
18400,2023-07-17 17:04:05,52.2064102070088,0.0864511862912466,40.682416,40.6496076,53.135886542868,93.785494142868,41.994752,0,0.7576771896,3.7632219052,28,5,16.93,96.082082142868,42.979004,0.6263432,0.8685367732,0,0,0,308.2, -7.3, -0.5,0,0,1684,1024,1024,1024,100,0,0,0,315,-89.9,0,99,4.229,4.236,4.233,4.232,0,0,6.94,79.34,93.785494142868,40.682416,6,P-GPS,
18600,2023-07-17 17:04:05,52.2064103672961,0.0864508836652289,40.682416,40.6496076,53.135886542868,93.785494142868,41.994752,0.3131716,0.78015422444,3.8526576036,28,5,16.93,96.082082142868,42.979004,0.6263432,0.8685367732,0.223694,-0.223694,0,308.2, -9.2, -0.6,0,0,1684,1024,1024,1024,100,0,0,0,315,-89.9,0,99,4.229,4.236,4.233,4.232,0,0,6.94,79.34,93.785494142868,40.682416,6,P-GPS,
18800,2023-07-17 17:04:06,52.2064107550353,0.0864501607559491,40.682416,40.6496076,53.135886542868,93.785494142868,41.666668,0.9395148,0.87120737696,4.0674541984,28,5,16.93,96.082082142868,42.979004,0.9395148,0.87120737696,0.671082,-0.671082,0,308.2, -9.6, -0.8,0,0,1684,1024,1024,1024,100,0,0,0,315,-90,0,99,4.229,4.236,4.233,4.232,0,0,6.94,79.34,93.785494142868,40.682416,6,P-GPS,
19000,2023-07-17 17:04:06,52.206411381038,0.0864489898049663,40.682416,40.6496076,53.135886542868,93.785494142868,41.666668,1.2750558,1.09394032372,4.4148951544,28,5,16.93,96.082082142868,42.979004,1.2750558,1.09394032372,0.894776,-0.894776,0,308.3, -9, -1.1,0,0,1684,1024,1024,1024,100,0,0,0,315,-90,0,99,4.229,4.236,4.233,4.232,0,0,6.94,79.34,93.785494142868,40.682416,6,P-GPS,
19200,2023-07-17 17:04:06,52.2064121644666,0.0864473649322811,40.682416,40.6496076,53.135886542868,93.785494142868,41.338584,1.5882274,1.45520673948,4.8771655104,28,5,16.921,96.082082142868,42.979004,1.5882274,1.45520673948,1.11847,-1.11847,0,308.1, -8.6, -1.3,0,0,1684,1024,1024,1024,100,0,0,0,315,-89.9,0,99,4.233,4.239,4.235,4.236,0,0,7.384,79.34,93.785494142868,40.682416,6,P-GPS,
19400,2023-07-17 17:04:06,52.2064130370255,0.0864453117674883,40.682416,40.6167992,53.168694942868,93.785494142868,41.338584,2.0579848,1.93539376272,5.4357941372,28,5,16.921,96.082082142868,42.979004,2.0579848,1.93539376272,1.342164,-1.565858,0,306.2, -8.6, -1.1,0,0,1684,1024,1024,1024,100,0,0,0,315,-90,0,99,4.233,4.239,4.235,4.236,0,0,7.384,79.34,93.785494142868,40.682416,6,P-GPS,
19600,2023-07-17 17:04:06,52.2064139854017,0.0864428479035962,40.682416,40.6167992,53.168694942868,93.785494142868,41.338584,2.23694,2.52495414904,6.0863190924,28,5,16.921,96.082082142868,42.979004,2.23694,2.52495414904,1.342164,-1.789552,0,304.1, -8.1, -1.7,0,0,1684,1024,1024,1024,100,0,0,0,315,-89.9,0,99,4.233,4.239,4.235,4.236,0,0,7.384,79.34,93.785494142868,40.682416,6,P-GPS,
19800,2023-07-17 17:04:07,52.2064149697505,0.0864399785754987,40.682416,40.6167992,53.168694942868,93.785494142868,41.338584,2.4158952,3.20821204492,6.8215553364,28,5,16.921,96.082082142868,42.979004,2.4158952,3.20821204492,1.342164,-2.013246,0,302.8, -8, -1.6,0,0,1024,1024,1024,1024,0,0,0,0,315,-90,0,99,4.233,4.239,4.235,4.236,0,0,7.384,79.34,93.785494142868,40.682416,6,P-GPS,
20000,2023-07-17 17:04:07,52.2064159388416,0.0864367490134983,40.682416,40.5839908,53.201503342868,93.785494142868,41.666668,2.6172198,3.9640421216,7.6255579868,28,5,16.921,96.082082142868,42.979004,2.6172198,3.9640421216,1.342164,-2.23694,0,302.1, 2.1, -0.8,0,0,1144,1024,1024,1024,18,0,0,0,315,-90,0,99,4.233,4.239,4.235,4.236,0,0,7.384,79.34,93.785494142868,40.682416,6,P-GPS,
20200,2023-07-17 17:04:07,52.2064166158604,0.0864339939697308,40.682416,40.5839908,53.201503342868,93.785494142868,41.666668,1.4987498,4.58579411,8.2892391104,28,5,16.93,96.082082142868,42.979004,2.6172198,4.58579411,0.671082,-1.342164,0,300.7, 17.2, -1.4,0,0,1684,1024,1024,1024,100,0,0,0,315,-90,0,99,4.226,4.233,4.228,4.231,0,0,6.912,79.52,93.785494142868,40.682416,6,P-GPS,
20400,2023-07-17 17:04:07,52.2064166008682,0.0864327868590792,40.682416,40.5839908,53.201503342868,93.785494142868,41.666668,0.3131716,4.7898951664,8.5591866256,28,5,16.93,96.082082142868,42.979004,2.6172198,4.7898951664,0.223694,-0.223694,0,300.5, -0.6, -0.7,0,0,1684,1024,1024,1024,100,0,0,0,315,-89.9,0,99,4.226,4.233,4.228,4.231,0,0,6.912,79.52,93.785494142868,40.682416,6,P-GPS,
20600,2023-07-17 17:04:07,52.206416323788,0.0864320234846294,40.682416,40.5839908,53.201503342868,93.785494142868,41.338584,0.3131716,4.8635828328,8.757546212,28,5,16.93,96.082082142868,42.979004,2.6172198,4.8635828328,0.223694,-0.223694,0,301.1, -6.8, -0.1,0,0,1684,1024,1024,1024,100,0,0,0,315,-90,0,99,4.226,4.233,4.228,4.231,0,0,6.912,79.52,93.785494142868,40.682416,6,P-GPS,
20800,2023-07-17 17:04:08,52.2064161562103,0.0864311321713526,40.682416,40.5839908,53.201503342868,93.785494142868,41.666668,0.6263432,4.9902888736,8.9660107856,28,5,16.93,96.082082142868,42.979004,2.6172198,4.9902888736,0.447388,-0.447388,0,304.5, -8.7, -0.8,0,0,1684,1024,1024,1024,100,0,0,0,315,-90,0,99,4.226,4.233,4.228,4.231,0,0,6.912,79.52,93.785494142868,40.682416,6,P-GPS,
21000,2023-07-17 17:04:08,52.2064161353242,0.08642984909948,40.682416,40.5839908,53.201503342868,93.785494142868,41.666668,1.006623,5.2250001672,9.2529858604,28,5,16.93,96.082082142868,42.979004,2.6172198,5.2250001672,0.447388,-0.894776,0,303, -9.9, -0.6,0,0,1684,1024,1024,1024,100,0,0,0,315,-89.9,0,99,4.226,4.233,4.228,4.231,0,0,6.912,79.52,93.785494142868,40.682416,6,P-GPS,
21200,2023-07-17 17:04:08,52.2064163090958,0.08642816839936,40.682416,40.5839908,53.201503342868,93.785494142868,41.666668,1.2974252,5.5774936168,9.6340882348,28,5,16.928,96.082082142868,42.979004,2.6172198,5.5774936168,0.671082,-1.11847,0,302.8, -10, -0.7,0,0,1684,1024,1024,1024,100,0,0,0,315,-89.9,0,99,4.226,4.233,4.226,4.231,0,0,6.681,79.52,93.785494142868,40.682416,6,P-GPS,
21400,2023-07-17 17:04:08,52.2064166976917,0.0864260831458878,40.682416,40.5839908,53.201503342868,93.785494142868,41.338584,1.8119214,6.051017254,10.1213914,28,5,16.928,96.082082142868,42.979004,2.6172198,6.051017254,0.894776,-1.565858,0,302.6, -10.4, -0.5,0,0,1594,1024,1035,1024,86,0,2,0,315,-90,0,99,4.226,4.233,4.226,4.231,0,0,6.681,79.52,93.785494142868,40.682416,6,P-GPS,
21600,2023-07-17 17:04:08,52.2064171779709,0.0864235534135518,40.682416,40.5839908,53.201503342868,93.785494142868,41.338584,1.9908766,6.6297246216,10.7135174032,28,5,16.928,96.082082142868,42.979004,2.6172198,6.6297246216,0.894776,-1.789552,0,298.7, -10.5, -0.2,0,0,1024,1024,1684,1024,0,0,100,0,315,-89.9,0,99,4.226,4.233,4.226,4.231,0,0,6.681,79.52,93.785494142868,40.682416,6,P-GPS,
21800,2023-07-17 17:04:08,52.2064177558446,0.0864206147819799,40.682416,40.5839908,53.201503342868,93.785494142868,41.338584,2.4158952,7.3080711,11.4035764804,28,5,16.928,96.082082142868,42.979004,2.6172198,7.3080711,0.894776,-2.23694,-1.11847,292.9, 9.3, -0.7,0,0,1024,1024,1684,1024,0,0,100,0,315,-90,0,99,4.226,4.233,4.226,4.231,0,0,6.681,79.52,93.785494142868,40.682416,6,P-GPS,
22000,2023-07-17 17:04:09,52.2064179949219,0.086419117823439,41.338584,41.2401588,53.201503342868,94.441662142868,42.322836,0,7.64517741,11.7494426332,28,5,16.928,96.082082142868,42.979004,2.6172198,7.64517741,0,0,-3.579104,290.7, 8.8, -0.6,0,0,1024,1024,1684,1024,0,0,100,0,315,-89.9,0,99,4.226,4.233,4.226,4.231,0,0,6.681,79.52,94.441662142868,41.338584,6,P-GPS,
22200,2023-07-17 17:04:09,52.2064177491966,0.086419635838077,42.979004,42.8805788,53.201503342868,96.082082142868,43.635172,0.223694,7.5012141508,11.8958993308,28,5,16.908,96.082082142868,42.979004,2.6172198,7.64517741,0,0.223694,-5.816044,291, -7.4, 0.2,0,0,1024,1024,1684,1024,0,0,100,0,315,-89.9,0,98,4.165,4.181,4.166,4.163,0,0,7.216,79.52,96.082082142868,42.979004,6,P-GPS,
22400,2023-07-17 17:04:09,52.2064175822357,0.0864200843290632,45.93176,45.8333348,53.201503342868,99.034838142868,45.93176,0,7.3842193964,12.0132549776,28,5,16.908,99.034838142868,45.93176,2.6172198,7.64517741,0,0,-8.052984,291.3, -7, -0.3,0,0,1024,1024,1684,1024,0,0,100,0,315,-90,0,98,4.165,4.181,4.166,4.163,0,0,7.216,79.52,99.034838142868,45.93176,6,P-GPS,
22600,2023-07-17 17:04:09,52.2064175941352,0.0864201254323493,50.524936,50.4265108,53.201503342868,103.62801414287,48.884516,0,7.3779858004,12.0233927732,28,5,16.908,103.62801414287,50.524936,2.6172198,7.64517741,0,0,-10.289924,291.1, -4.4, -1.2,0,0,1024,1024,1684,1024,0,0,100,0,315,-90,0,98,4.165,4.181,4.166,4.163,0,0,7.216,79.52,103.62801414287,50.524936,6,P-GPS,
22800,2023-07-17 17:04:09,52.2064176227487,0.0864199424264425,55.118112,55.0196868,53.201503342868,108.22119014287,52.49344,0,7.4191931508,12.0656499924,28,5,16.908,108.22119014287,55.118112,2.6172198,7.64517741,0,0,-12.30317,291.2, -2.4, -1.8,0,0,1024,1024,1684,1024,0,0,100,0,315,-90,0,98,4.165,4.181,4.166,4.163,0,0,7.216,79.52,108.22119014287,55.118112,6,P-GPS,
23000,2023-07-17 17:04:10,52.2064175404377,0.0864198694952825,59.711288,59.6128628,53.201503342868,112.81436614287,56.430448,0,7.4201774028,12.0998035368,28,5,16.908,112.81436614287,59.711288,2.6172198,7.64517741,0,0,-13.197946,290.8, -3.6, -0.6,0,0,1024,1024,1684,1024,0,0,100,0,315,-89.9,0,98,4.165,4.181,4.166,4.163,0,0,7.216,79.52,112.81436614287,59.711288,6,P-GPS,
23200,2023-07-17 17:04:10,52.2064173959393,0.0864198960074437,63.97638,63.8779548,53.201503342868,117.07945814287,60.367456,0,7.3913388192,12.1528547196,28,5,16.922,117.07945814287,63.97638,2.6172198,7.64517741,0,0,-13.42164,290.6, -4.1, 0.1,0,0,1024,1024,1684,1024,0,0,100,0,315,-90,0,98,4.132,4.148,4.142,4.149,0,0,6.897,79.7,117.07945814287,63.97638,6,P-GPS,
23400,2023-07-17 17:04:10,52.2064172757196,0.0864198981078667,67.913388,67.8149628,53.201503342868,121.01646614287,64.304464,0,7.3715225456,12.1967195504,28,5,16.922,121.01646614287,67.913388,2.6172198,7.64517741,0,0,-13.42164,290.8, -3, 0.4,0,0,1024,1024,1684,1024,0,0,100,0,315,-90,0,98,4.132,4.148,4.142,4.149,0,0,6.897,79.7,121.01646614287,67.913388,6,P-GPS,
23600,2023-07-17 17:04:10,52.2064172480056,0.08641993797746,71.850396,71.7519708,53.201503342868,124.95347414287,68.241472,0,7.359088162,12.2102038028,28,5,16.922,124.95347414287,71.850396,2.6172198,7.64517741,0,0,-13.42164,290.8, -2, -0.1,0,0,1024,1024,1681,1024,0,0,100,0,315,-90,0,98,4.132,4.148,4.142,4.149,0,0,6.897,79.7,124.95347414287,71.850396,6,P-GPS,
23800,2023-07-17 17:04:10,52.2064173075628,0.0864201019782082,75.45932,75.3608948,53.201503342868,128.56239814287,72.506564,0,7.3357613896,12.2528219144,28,5,16.922,128.56239814287,75.45932,2.6172198,7.64517741,0,0,-13.42164,290.8, -2.4, -1.3,0,0,1024,1024,1684,1024,0,0,100,0,315,-90,0,98,4.132,4.148,4.142,4.149,0,0,6.897,79.7,128.56239814287,75.45932,6,P-GPS,
24000,2023-07-17 17:04:11,52.2064174222655,0.0864203672710693,79.396328,79.2979028,53.201503342868,132.49940614287,76.443572,0,7.3013781864,12.3254269036,28,5,16.922,132.49940614287,79.396328,2.6172198,7.64517741,0,0,-13.197946,290.8, -3, -1.5,0,0,1024,1024,1684,1024,0,0,100,0,315,-89.9,0,98,4.132,4.148,4.142,4.149,0,0,6.897,79.7,132.49940614287,79.396328,6,P-GPS,
24200,2023-07-17 17:04:11,52.206417532282,0.0864206442647893,83.005252,82.9068268,53.201503342868,136.10833014287,80.38058,0,7.2645015448,12.3992129952,28,5,16.499,136.10833014287,83.005252,2.6172198,7.64517741,0,0,-13.42164,290.9, -3.6, -1.7,0,0,1024,1024,1674,1024,0,0,98,0,315,-90,0,98,4.162,4.169,4.16,4.159,0,0,13.854,79.52,136.10833014287,83.005252,6,P-GPS,
24400,2023-07-17 17:04:11,52.2064176497174,0.0864209019492961,86.94226,86.8438348,53.201503342868,140.04533814287,83.66142,0,7.2332351396,12.4710305828,28,5,16.499,140.04533814287,86.94226,2.6172198,7.64517741,0,0,-13.42164,290.9, -4.2, -2,0,0,1024,1024,1656,1024,0,0,96,0,315,-89.9,0,98,4.162,4.169,4.16,4.159,0,0,13.854,79.52,140.04533814287,86.94226,6,P-GPS,
24600,2023-07-17 17:04:11,52.2064177931621,0.0864211062634874,90.2231,90.1246748,53.201503342868,143.32617814287,83.66142,0,7.2175527244,12.5404859656,28,5,16.499,143.32617814287,90.2231,2.6172198,7.64517741,0,0,-12.974252,290.8, -4.3, -2.6,0,0,1024,1024,1640,1024,0,0,93,0,315,-90,0,98,4.162,4.169,4.16,4.159,0,0,13.854,79.52,143.32617814287,90.2231,6,P-GPS,
24800,2023-07-17 17:04:12,52.2064179040953,0.0864212465270093,93.50394,93.4055148,53.201503342868,146.60701814287,83.66142,0,7.2093506244,12.591699878,28,5,16.499,146.60701814287,93.50394,2.6172198,7.64517741,0,0,-12.079476,290.8, -3.7, -2.4,0,0,1024,1024,1635,1024,0,0,93,0,315,-90,0,98,4.162,4.169,4.16,4.159,0,0,13.854,79.52,146.60701814287,93.50394,6,P-GPS,
25000,2023-07-17 17:04:12,52.2064179599345,0.0864213616850594,96.456696,96.3582708,53.201503342868,149.55977414287,83.66142,0,7.1966537736,12.6245410864,28,5,16.499,149.55977414287,96.456696,2.6172198,7.64517741,0,0,-11.632088,290.8, -3, -2,0,0,1024,1024,1596,1024,0,0,87,0,315,-90,0,98,4.162,4.169,4.16,4.159,0,0,13.854,79.52,149.55977414287,96.456696,6,P-GPS,
25200,2023-07-17 17:04:12,52.2064179766657,0.0864215541743235,99.409452,99.3110268,53.201503342868,152.51253014287,83.66142,0,7.1620081032,12.6680122164,28,5,16.658,152.51253014287,99.409452,2.6172198,7.64517741,0,0,-11.408394,290.7, -4.1, -2.2,0,0,1024,1024,1351,1024,0,0,50,0,315,-90,0,98,4.178,4.186,4.177,4.182,0,0,12.876,79.7,152.51253014287,99.409452,6,P-GPS,
25400,2023-07-17 17:04:12,52.2064179632585,0.0864217811003898,102.034124,101.9356988,53.201503342868,155.13720214287,83.66142,0,7.1153545584,12.7189636616,28,5,16.658,155.13720214287,102.034124,2.6172198,7.64517741,0,0,-9.618842,290.6, -5.6, -2.4,0,0,1024,1024,1505,1024,0,0,73,0,315,-90,0,98,4.178,4.186,4.177,4.182,0,0,12.876,79.7,155.13720214287,102.034124,6,P-GPS,
25600,2023-07-17 17:04:12,52.2064178970618,0.0864220088058143,103.674544,103.5761188,53.201503342868,156.77762214287,83.66142,0,7.0591537692,12.7753284928,28,5,16.658,156.77762214287,103.674544,2.6172198,7.64517741,0,0,-7.605596,290.8, -6.6, -2.2,0,0,1024,1024,1616,1024,0,0,90,0,315,-90,0,98,4.178,4.186,4.177,4.182,0,0,12.876,79.7,156.77762214287,103.674544,6,P-GPS,
25800,2023-07-17 17:04:13,52.2064178497638,0.0864221121476743,105.314964,105.2165388,53.201503342868,158.41804214287,83.66142,0,7.0305448444,12.8041670764,28,5,16.658,158.41804214287,105.314964,2.6172198,7.64517741,0,0,-8.052984,291, -3.5, -2.3,0,0,1024,1024,1675,1024,0,0,99,0,315,-90,0,98,4.178,4.186,4.177,4.182,0,0,12.876,79.7,158.41804214287,105.314964,6,P-GPS,
26000,2023-07-17 17:04:13,52.2064178033482,0.086422079294053,107.611552,107.5131268,53.201503342868,160.71463014287,83.66142,0,7.0286747656,12.8226053972,28,5,16.658,160.71463014287,107.611552,2.6172198,7.64517741,0,0,-10.289924,291.1, -3.2, -2.7,0,0,1024,1024,1684,1024,0,0,100,0,315,-90,0,98,4.178,4.186,4.177,4.182,0,0,12.876,79.7,160.71463014287,107.611552,6,P-GPS,
26200,2023-07-17 17:04:13,52.2064176434122,0.0864219913401505,110.564308,110.4658828,53.201503342868,163.66738614287,83.66142,0,7.0176183348,12.884186764,28,5,16.687,163.66738614287,110.564308,2.6172198,7.64517741,0,0,-12.079476,290.9, -4.5, -2.4,0,0,1024,1024,1684,1024,0,0,100,0,315,-90,0,98,4.133,4.135,4.124,4.123,0,0,11.33,79.7,163.66738614287,110.564308,6,P-GPS,
26400,2023-07-17 17:04:13,52.2064173430128,0.0864217499260584,114.173232,114.0748068,53.201503342868,167.27631014287,83.66142,0.223694,7.0133204344,13.0063652456,28,5,16.687,167.27631014287,114.173232,2.6172198,7.64517741,-0.223694,0,-13.197946,290.8, -4.4, -0.8,0,0,1024,1024,1684,1024,0,0,100,0,315,-90,0,98,4.133,4.135,4.124,4.123,0,0,11.33,79.7,167.27631014287,114.173232,6,P-GPS,
26600,2023-07-17 17:04:13,52.2064170467769,0.0864214683383184,118.11024,118.0118148,53.201503342868,171.21331814287,83.66142,0.223694,7.0198821144,13.1314308664,28,5,16.687,171.21331814287,118.11024,2.6172198,7.64517741,0,-0.223694,-13.42164,290.7, -4.2, 0.8,0,0,1024,1024,1024,1024,0,0,0,0,315,-90,0,98,4.133,4.135,4.124,4.123,0,0,11.33,79.7,171.21331814287,118.11024,6,P-GPS,
26800,2023-07-17 17:04:14,52.206416864961,0.0864212644347755,121.719164,121.6207388,53.201503342868,174.82224214287,83.66142,0,7.0312666292,13.21194268,28,5,16.687,174.82224214287,121.719164,2.6172198,7.64517741,0,0,-12.526864,290.4, -4.9, 2.2,0,0,1024,1024,1024,1024,0,0,0,0,315,-90,0,98,4.133,4.135,4.124,4.123,0,0,11.33,79.7,174.82224214287,121.719164,6,P-GPS,
27000,2023-07-17 17:04:14,52.2064167994925,0.0864212376884573,125.000004,124.9015788,53.201503342868,178.10308214287,83.66142,0,7.0261813272,13.23654898,28,5,16.687,178.10308214287,125.000004,2.6172198,7.64517741,0,0,-10.289924,290.4, -6.2, 2.3,0,0,1024,1024,1024,1024,0,0,0,0,315,-90,0,98,4.133,4.135,4.124,4.123,0,0,11.33,79.7,178.10308214287,125.000004,6,P-GPS,
27200,2023-07-17 17:04:14,52.2064168866953,0.0864213629239944,127.296592,127.1981668,53.201503342868,180.39967014287,83.66142,0,7.0149936628,13.2789374328,28,5,16.923,180.39967014287,127.296592,2.6172198,7.64517741,0,0,-8.052984,290.4, -5.9, 1.5,0,0,1024,1024,1024,1024,0,0,0,0,315,-90,0,98,4.216,4.225,4.225,4.238,0,0,7.805,80.06,180.39967014287,127.296592,6,P-GPS,
27400,2023-07-17 17:04:14,52.2064171049807,0.0864215981049676,128.937012,128.8385868,53.201503342868,182.04009014287,83.66142,0.223694,7.0035763396,13.3743770684,28,5,16.923,182.04009014287,128.937012,2.6172198,7.64517741,0.223694,0,-5.59235,290.7, -6.6, 0,0,0,1024,1024,1024,1024,0,0,0,0,315,-89.9,0,98,4.216,4.225,4.225,4.238,0,0,7.805,80.06,182.04009014287,128.937012,6,P-GPS,
27600,2023-07-17 17:04:14,52.2064174054486,0.0864219423838686,129.59318,129.4947548,53.201503342868,182.69625814287,83.66142,0.3131716,6.9859582288,13.5083337656,28,5,16.923,182.69625814287,129.59318,2.6172198,7.64517741,0.223694,0.223694,-3.131716,291, -7.6, -2.7,0,0,1024,1024,1024,1024,0,0,0,0,315,-90,0,98,4.216,4.225,4.225,4.238,0,0,7.805,80.06,182.69625814287,129.59318,6,P-GPS,
27800,2023-07-17 17:04:15,52.2064177309748,0.0864223222528821,130.249348,130.1509228,53.201503342868,183.35242614287,83.66142,0.447388,6.9683729264,13.6543311456,28,5,16.923,183.35242614287,130.249348,2.6172198,7.64517741,0.447388,0,-0.894776,290.9, -6.7, -6.1,0,0,1024,1024,1024,1024,0,0,0,0,315,-90,0,98,4.216,4.225,4.225,4.238,0,0,7.805,80.06,183.35242614287,130.249348,6,P-GPS,
28000,2023-07-17 17:04:15,52.2064179262579,0.08642254548486,129.921264,129.8228388,53.201503342868,183.02434214287,83.66142,0.223694,6.9601708264,13.7413390224,28,5,16.923,183.35242614287,130.249348,2.6172198,7.64517741,0.223694,0,0,290.9, -5.7, -7.3,0,0,1024,1024,1024,1024,0,0,0,0,315,-90,0,98,4.216,4.225,4.225,4.238,0,0,7.805,80.06,183.02434214287,129.921264,6,P-GPS,
28200,2023-07-17 17:04:15,52.2064178790199,0.0864225328910592,129.921264,129.8228388,53.201503342868,183.02434214287,83.66142,0,6.9540028472,13.7587930912,28,5,16.591,183.35242614287,130.249348,2.6172198,7.64517741,0,0,0,290.9, -5.3, -7.3,0,0,1024,1024,1024,1024,0,0,0,0,315,-90,0,98,4.233,4.236,4.231,4.229,0,0,13.794,80.06,183.02434214287,129.921264,6,P-GPS,
28400,2023-07-17 17:04:15,52.2064175937668,0.0864223123448968,129.59318,129.4947548,53.201503342868,182.69625814287,83.66142,0.223694,6.9459975976,13.8739505752,28,5,16.591,183.35242614287,130.249348,2.6172198,7.64517741,0,-0.223694,0,290.8, -4.6, -6.6,0,0,1024,1024,1024,1024,0,0,0,0,315,-90,0,98,4.233,4.236,4.231,4.229,0,0,13.794,80.06,182.69625814287,129.59318,6,P-GPS,
28600,2023-07-17 17:04:15,52.206417098427,0.0864219073494421,129.59318,129.4947548,53.201503342868,182.69625814287,83.66142,0.223694,6.940945104,14.076115936,28,5,16.591,183.35242614287,130.249348,2.6172198,7.64517741,0,-0.223694,0,290.8, -3.9, -5.1,0,0,1024,1024,1024,1024,0,0,0,0,315,-89.9,0,98,4.233,4.236,4.231,4.229,0,0,13.794,80.06,182.69625814287,129.59318,6,P-GPS,
28800,2023-07-17 17:04:15,52.206416514565,0.086421394734394,129.59318,129.4947548,53.201503342868,182.69625814287,83.66142,0.3131716,6.9496721384,14.3180122692,28,5,16.591,183.35242614287,130.249348,2.6172198,7.64517741,-0.223694,-0.223694,0,290.7, -3.1, -3.4,0,0,1024,1024,1024,1024,0,0,0,0,315,-90,0,98,4.233,4.236,4.231,4.229,0,0,13.794,80.06,182.69625814287,129.59318,6,P-GPS,
29000,2023-07-17 17:04:16,52.2064159337786,0.0864208920308261,129.59318,129.4947548,53.201503342868,182.69625814287,83.66142,0.3131716,6.96522332,14.5578744816,28,5,16.591,183.35242614287,130.249348,2.6172198,7.64517741,-0.223694,-0.223694,0,290.6, -2.4, -2.2,0,0,1024,1024,1024,1024,0,0,0,0,315,-89.9,0,98,4.233,4.236,4.231,4.229,0,0,13.794,80.06,182.69625814287,129.59318,6,P-GPS,
29200,2023-07-17 17:04:16,52.206415361165,0.0864205010236294,129.265096,129.1994792,53.168694942868,182.36817414287,83.66142,0.3131716,6.9667981232,14.7843508668,28,5,17.014,183.35242614287,130.249348,2.6172198,7.64517741,-0.223694,-0.223694,0,290.5, -2.4, -1.2,0,0,1024,1024,1024,1024,0,0,0,0,315,-89.9,0,98,4.225,4.227,4.225,4.227,0,0,4.654,80.42,182.36817414287,129.265096,6,P-GPS,
29400,2023-07-17 17:04:16,52.2064148537629,0.086420266576581,129.265096,129.1994792,53.168694942868,182.36817414287,83.66142,0,6.9507548156,14.9767393244,28,5,17.014,183.35242614287,130.249348,2.6172198,7.64517741,0,0,0,290.6, -3.1, -0.3,0,0,1024,1024,1024,1024,0,0,0,0,315,-90,0,98,4.225,4.227,4.225,4.227,0,0,4.654,80.42,182.36817414287,129.265096,6,P-GPS,
29600,2023-07-17 17:04:16,52.206414455769,0.0864201435148594,129.265096,129.1994792,53.168694942868,182.36817414287,83.66142,0,6.9290028464,15.1245411664,28,5,17.014,183.35242614287,130.249348,2.6172198,7.64517741,0,0,0,290.6, -3.5, -0.2,0,0,1024,1024,1024,411,0,0,0,-93,315,-89.9,0,98,4.225,4.227,4.225,4.227,0,0,4.654,80.42,182.36817414287,129.265096,6,P-GPS,
29800,2023-07-17 17:04:16,52.206414221592,0.0864201028798873,129.265096,129.1994792,53.168694942868,182.36817414287,83.66142,0,6.9108598012,15.210466366,28,5,17.014,183.35242614287,130.249348,2.6172198,7.64517741,0,0,0,290.7, -3.6, -0.5,0,0,1024,1024,1024,1024,0,0,0,0,313.1,-89.9,0,98,4.225,4.227,4.225,4.227,0,0,4.654,80.42,182.36817414287,129.265096,6,P-GPS,
30000,2023-07-17 17:04:17,52.2064140926768,0.0864201009821674,129.265096,129.1994792,53.168694942868,182.36817414287,83.66142,0,6.8969490396,15.2574808032,28,5,17.014,183.35242614287,130.249348,2.6172198,7.64517741,0,0,0,285.8, -3, -0.8,0,0,1024,1024,1024,1024,0,0,0,0,308.5,-89.9,0,98,4.225,4.227,4.225,4.227,0,0,4.654,80.42,182.36817414287,129.265096,6,P-GPS,
30200,2023-07-17 17:04:17,52.2064140241071,0.0864201859601794,129.265096,129.1994792,53.168694942868,182.36817414287,83.66142,0,6.8713256792,15.2889112504,28,5,16.895,183.35242614287,130.249348,2.6172198,7.64517741,0,0,0,284, -2.9, -0.9,0,0,1024,1024,1024,1024,0,0,0,0,308.4,-89.9,0,98,4.219,4.225,4.22,4.221,0,0,5.914,80.42,182.36817414287,129.265096,6,P-GPS,
30400,2023-07-17 17:04:17,52.2064139661604,0.0864203588868517,129.265096,129.1994792,53.168694942868,182.36817414287,83.66142,0,6.8281170164,15.3329729316,28,5,16.895,183.35242614287,130.249348,2.6172198,7.64517741,0,0,0,284.3, -4.5, -0.2,0,0,1024,1024,1024,1024,0,0,0,0,308.4,-89.9,0,98,4.219,4.225,4.22,4.221,0,0,5.914,80.42,182.36817414287,129.265096,6,P-GPS,
30600,2023-07-17 17:04:17,52.2064139912701,0.0864205311215377,129.265096,129.1994792,53.168694942868,182.36817414287,83.66142,0.223694,6.794127514,15.372539862,28,5,16.895,183.35242614287,130.249348,2.6172198,7.64517741,0.223694,0,0,284.3, -4.2, -0.9,0,0,1024,1024,1024,1024,0,0,0,0,308.4,-89.9,0,98,4.219,4.225,4.22,4.221,0,0,5.914,80.42,182.36817414287,129.265096,6,P-GPS,
30800,2023-07-17 17:04:17,52.2064140726474,0.0864207259890678,129.265096,129.1994792,53.168694942868,182.36817414287,83.66142,0.223694,6.7615815812,15.4252957692,28,5,16.895,183.35242614287,130.249348,2.6172198,7.64517741,0.223694,0,0,284.3, -4.5, -1.5,0,0,1024,1024,1024,1024,0,0,0,0,308.4,-89.9,0,98,4.219,4.225,4.22,4.221,0,0,5.914,80.42,182.36817414287,129.265096,6,P-GPS,
31000,2023-07-17 17:04:18,52.2064142143272,0.0864209237643383,129.265096,129.1994792,53.168694942868,182.36817414287,83.66142,0.223694,6.7355973284,15.4933075824,28,5,16.895,183.35242614287,130.249348,2.6172198,7.64517741,0.223694,0,0,284.2, -4.4, -2.3,0,0,1024,1024,1024,1024,0,0,0,0,308.4,-89.9,0,98,4.219,4.225,4.22,4.221,0,0,5.914,80.42,182.36817414287,129.265096,6,P-GPS,
31200,2023-07-17 17:04:18,52.2064143722757,0.0864211245696699,129.265096,129.1994792,53.168694942868,182.36817414287,83.66142,0.223694,6.7115159628,15.5663718892,28,5,16.869,183.35242614287,130.249348,2.6172198,7.64517741,0.223694,0,0,284.2, -4.7, -2.3,0,0,1024,1024,1024,1024,0,0,0,0,308.4,-89.9,0,98,4.219,4.224,4.22,4.222,0,0,6.63,80.6,182.36817414287,129.265096,6,P-GPS,
31400,2023-07-17 17:04:18,52.2064145343706,0.0864212977217619,129.265096,129.1994792,53.168694942868,182.36817414287,83.66142,0.223694,6.6944227864,15.6370411828,28,5,16.869,183.35242614287,130.249348,2.6172198,7.64517741,0.223694,0,0,284.2, -4.7, -2.5,0,0,1024,1024,1024,1024,0,0,0,0,308.4,-90,0,98,4.219,4.224,4.22,4.222,0,0,6.63,80.6,182.36817414287,129.265096,6,P-GPS,
31600,2023-07-17 17:04:18,52.206414720273,0.0864213996132467,129.59318,129.5275632,53.168694942868,182.69625814287,83.66142,0.223694,6.696030398,15.7085963032,28,5,16.869,183.35242614287,130.249348,2.6172198,7.64517741,0.223694,0,0,284.1, -4.1, -2.9,0,0,1024,1024,1024,1024,0,0,0,0,308.4,-90,0,98,4.219,4.224,4.22,4.222,0,0,6.63,80.6,182.69625814287,129.59318,6,P-GPS,
31800,2023-07-17 17:04:18,52.2064149214245,0.0864214535252687,129.59318,129.5275632,53.168694942868,182.69625814287,83.66142,0.223694,6.7103676688,15.782972946,28,5,16.869,183.35242614287,130.249348,2.6172198,7.64517741,0.223694,0,0,283.9, -3.7, -4.1,0,0,1024,1024,1024,1024,0,0,0,0,308.4,-89.9,0,98,4.219,4.224,4.22,4.222,0,0,6.63,80.6,182.69625814287,129.59318,6,P-GPS,
32000,2023-07-17 17:04:19,52.2064150426637,0.0864215228322379,129.59318,129.5275632,53.168694942868,182.69625814287,83.66142,0.223694,6.7117456216,15.8298233412,28,5,16.869,183.35242614287,130.249348,2.6172198,7.64517741,0.223694,0,0,284.1, -4, -3.3,0,1,1024,1024,1024,1024,0,0,0,0,308.4,-89.9,0,98,4.219,4.224,4.22,4.222,0,0,6.63,80.6,182.69625814287,129.59318,6,P-GPS,
32200,2023-07-17 17:04:19,52.2064151113704,0.086421607226605,129.59318,129.5275632,53.168694942868,182.69625814287,83.66142,0,6.703248246,15.86122098,28,5,16.869,183.35242614287,130.249348,2.6172198,7.64517741,0,0,0,284, -4, -2.2,0,1,1024,1024,1024,1024,0,0,0,0,308.4,-90,0,98,4.217,4.225,4.22,4.221,0,0,6.63,80.6,182.69625814287,129.59318,6,P-GPS,
