time(millisecond),datetime(utc),latitude,longitude,height_above_takeoff(feet),height_above_ground_at_drone_location(feet),ground_elevation_at_drone_location(feet),altitude_above_seaLevel(feet),height_sonar(feet),speed(mph),distance(feet),mileage(feet),satellites,gpslevel,voltage(v),max_altitude(feet),max_ascent(feet),max_speed(mph),max_distance(feet), xSpeed(mph), ySpeed(mph), zSpeed(mph), compass_heading(degrees), pitch(degrees), roll(degrees),isPhoto,isVideo,rc_elevator,rc_aileron,rc_throttle,rc_rudder,rc_elevator(percent),rc_aileron(percent),rc_throttle(percent),rc_rudder(percent),gimbal_heading(degrees),gimbal_pitch(degrees),gimbal_roll(degrees),battery_percent,voltageCell1,voltageCell2,voltageCell3,voltageCell4,voltageCell5,voltageCell6,current(A),battery_temperature(f),altitude(feet),ascent(feet),flycStateRaw,flycState,message
100,2022-07-09 12:48:47,52.1653618502185,0.0999797230479209,0,0,58.647981207444,58.647981207444,0.328084,0,0,0,23,5,0,58.647981207444,0,0,0,0,0,0,295.1, 3.1, -1.8,0,0,1024,1024,1024,1024,0,0,0,0,295.3,0,0,78,4.084,4.085,4.085,4.082,0,0,0,94.64,58.647981207444,0,41,Motors_Started,
300,2022-07-09 12:48:48,52.1653618782313,0.0999797345324179,0,0,58.647981207444,58.647981207444,0.328084,0,0.0105386486312,0.0105386486312,23,5,0,58.647981207444,0,0,0.0105386486312,0,0,0,295.2, 3, -1.8,0,0,1024,1024,1024,1024,0,0,0,0,295.3,0,0,78,4.084,4.085,4.085,4.082,0,0,0,94.64,58.647981207444,0,41,Motors_Started,"Setting new Return-To-Home altitude to 26m (85 ft). Data Recorder File Index is 6. Setting new Maximum Flight Altitude to 120m (394 ft)"
500,2022-07-09 12:48:48,52.1653619171668,0.099979751067597,0,0,58.647981207444,58.647981207444,0,0,0.0210772972624,0.0210772972624,23,5,0,58.647981207444,0,0,0.0210772972624,0,0,0,295.2, 2.8, -1.9,0,0,1024,1024,1024,1024,0,0,0,0,295.3,0,0,78,4.084,4.085,4.085,4.082,0,0,0,94.64,58.647981207444,0,41,Motors_Started,
700,2022-07-09 12:48:48,52.1653619561024,0.0999797676027762,0,0,58.647981207444,58.647981207444,0,0,0.039897639072,0.039898623324,23,5,0,58.647981207444,0,0,0.039897639072,0,0,0,295.1, 3.1, -1.9,0,0,1024,1024,1024,1024,0,0,0,0,295.3,0,0,78,4.084,4.085,4.085,4.082,0,0,0,94.64,58.647981207444,0,41,Motors_Started,
900,2022-07-09 12:48:48,52.1653619827744,0.0999797611178958,0,0,58.647981207444,58.647981207444,0,0,0.04910761312,0.0497375344,23,5,0,58.647981207444,0,0,0.04910761312,0,0,0,295.3, 3.1, -1.9,0,0,1024,1024,1024,1024,0,0,0,0,295.3,0,0,78,4.084,4.085,4.085,4.082,0,0,0,94.64,58.647981207444,0,41,Motors_Started,
1100,2022-07-09 12:48:48,52.1653620291,0.0999797813184421,0,0,58.647981207444,58.647981207444,0,0,0.066554792156,0.067233597952,23,5,0,58.647981207444,0,0,0.066554792156,0,0,0,295.2, 3, -1.9,0,0,1024,1024,1024,1024,0,0,0,0,295.3,0,0,78,4.084,4.085,4.085,4.082,0,0,0,94.64,58.647981207444,0,41,Motors_Started,
1300,2022-07-09 12:48:49,52.1653620599479,0.0999797844530774,0,0,58.647981207444,58.647981207444,0,0,0.077743768892,0.078510173116,23,5,16.352,58.647981207444,0,0,0.077743768892,0,0,0,295.2, 3, -1.9,0,0,1024,1024,1024,1024,0,0,0,0,295.3,0,0,78,4.084,4.085,4.085,4.082,0,0,3.699,94.64,58.647981207444,0,41,Motors_Started,
1500,2022-07-09 12:48:49,52.1653620831696,0.0999797831611642,0,0,58.647981207444,58.647981207444,0,0,0.086050199604,0.086987535592,23,5,16.352,58.647981207444,0,0,0.086050199604,0,0,0,295.2, 3, -2,0,0,1024,1024,1024,1024,0,0,0,0,295.3,0,0,78,4.084,4.085,4.085,4.082,0,0,3.699,94.64,58.647981207444,0,41,Motors_Started,
1700,2022-07-09 12:48:49,52.1653621315346,0.0999797893003705,0,0,58.647981207444,58.647981207444,0,0,0.103703415392,0.104687011224,23,5,16.352,58.647981207444,0,0,0.103703415392,0,0,0,295.2, 3, -2,0,0,1024,1024,1024,1024,0,0,0,0,295.3,0,0,78,4.084,4.085,4.085,4.082,0,0,3.699,94.64,58.647981207444,0,11,AutoTakeoff,
1900,2022-07-09 12:48:49,52.165362165556,0.0999798188070562,0,0,58.647981207444,58.647981207444,0,0,0.117029531304,0.11874672296,23,5,16.352,58.647981207444,0,0,0.117029531304,0,0,0,295.3, 2.3, -2.1,0,0,1024,1024,1024,1024,0,0,0,0,295.3,0,0,78,4.084,4.085,4.085,4.082,0,0,3.699,94.64,58.647981207444,0,11,AutoTakeoff,
2100,2022-07-09 12:48:49,52.1653622128277,0.0999797978121579,0,0,58.647981207444,58.647981207444,0,0,0.133351710304,0.1366223797,23,5,16.352,58.647981207444,0,0,0.133351710304,0,0,-0.223694,295.5, -2.2, -0.2,0,0,1024,1024,1024,1024,0,0,0,0,295.3,0,0,78,4.084,4.085,4.085,4.082,0,0,3.699,94.64,58.647981207444,0,11,AutoTakeoff,
2300,2022-07-09 12:48:50,52.1653622448546,0.0999795764432734,0,0,58.647981207444,58.647981207444,0.328084,0.223694,0.147673561156,0.187522643796,23,5,16.406,58.647981207444,0,0.223694,0.147673561156,0,-0.223694,-0.671082,295.6, -0.6, 0.3,0,0,1024,1024,1024,1024,0,0,0,0,295.3,0,0,77,4.081,4.081,4.078,4.073,0,0,3.713,94.82,58.647981207444,0,11,AutoTakeoff,
2500,2022-07-09 12:48:50,52.1653622090968,0.0999792251403314,0.328084,0.328084,58.647981207444,58.976065207444,0.328084,0.223694,0.176107617184,0.238422579808,23,5,16.406,58.976065207444,0.328084,0.223694,0.176107617184,0,-0.223694,-0.894776,296.1, 2.3, 0.7,0,0,1024,1024,1024,1024,0,0,0,0,295.4,0,0,77,4.081,4.081,4.078,4.073,0,0,3.713,94.82,58.976065207444,0.328084,11,AutoTakeoff,
2700,2022-07-09 12:48:50,52.165362173339,0.0999788738373893,0.656168,0.656168,58.647981207444,59.304149207444,0.656168,0.223694,0.223643051776,0.35255250472,23,5,16.406,59.304149207444,0.656168,0.223694,0.223643051776,-0.223694,0,-0.894776,295.7, 1.8, 2.3,0,0,1024,1024,1024,1024,0,0,0,0,295.4,0,0,77,4.081,4.081,4.078,4.073,0,0,3.713,94.82,59.304149207444,0.656168,11,AutoTakeoff,
2900,2022-07-09 12:48:50,52.1653620779379,0.0999787908531365,0.984252,0.984252,58.647981207444,59.632233207444,1.312336,0.223694,0.224554141044,0.39200460572,23,5,16.406,59.632233207444,0.984252,0.223694,0.224554141044,-0.223694,0,-0.894776,295.6, 0.6, 3.4,0,0,1024,1024,1024,1024,0,0,0,0,295.4,0,0,77,4.081,4.081,4.078,4.073,0,0,3.713,94.82,59.632233207444,0.984252,11,AutoTakeoff,
3100,2022-07-09 12:48:50,52.1653619349335,0.0999787818998728,1.312336,1.312336,58.647981207444,59.960317207444,1.312336,0.223694,0.212878287652,0.44421917432,23,5,16.406,59.960317207444,1.312336,0.223694,0.224554141044,-0.223694,0,-0.894776,295.4, -0.8, 4.4,0,0,1024,1024,1024,1024,0,0,0,0,295.4,0,0,77,4.081,4.081,4.078,4.073,0,0,3.713,94.82,59.960317207444,1.312336,11,AutoTakeoff,
3300,2022-07-09 12:48:51,52.165361960947,0.0999788837035032,1.64042,1.64042,58.647981207444,60.288401207444,1.64042,0,0.192134848668,0.46890093364,23,5,16.266,60.288401207444,1.64042,0.223694,0.224554141044,0,0,-1.11847,295.4, -0.8, 4.2,0,0,1024,1024,1024,1024,0,0,0,0,295.4,0,0,77,4.064,4.065,4.065,4.062,0,0,6.899,94.64,60.288401207444,1.64042,11,AutoTakeoff,
3500,2022-07-09 12:48:51,52.1653621153753,0.0999789689474037,1.968504,1.968504,58.647981207444,60.616485207444,1.968504,0,0.172431764048,0.49357941212,23,5,16.266,60.616485207444,1.968504,0.223694,0.224554141044,0,0,-1.11847,295.4, -0.7, 3.2,0,0,1024,1024,1024,1024,0,0,0,0,295.4,0,0,77,4.064,4.065,4.065,4.062,0,0,6.899,94.64,60.616485207444,1.968504,11,AutoTakeoff,
3700,2022-07-09 12:48:51,52.1653622698036,0.0999790541913042,2.296588,2.296588,58.647981207444,60.944569207444,2.624672,0,0.214104665644,0.59791340496,23,5,16.266,60.944569207444,2.296588,0.223694,0.224554141044,0,0,-0.894776,295.4, -0.2, 2.6,0,0,1024,1024,1024,1024,0,0,0,0,295.4,0,0,77,4.064,4.065,4.065,4.062,0,0,6.899,94.64,60.944569207444,2.296588,11,AutoTakeoff,
3900,2022-07-09 12:48:51,52.1653624043942,0.0999791162269231,2.624672,2.624672,58.647981207444,61.272653207444,2.952756,0,0.243563656088,0.64894359032,23,5,16.266,61.272653207444,2.624672,0.223694,0.243563656088,0,0,-1.11847,295.4, 0, 1.8,0,0,1024,1024,1024,1024,0,0,0,0,295.4,0,0,77,4.064,4.065,4.065,4.062,0,0,6.899,94.64,61.272653207444,2.624672,11,AutoTakeoff,
4100,2022-07-09 12:48:51,52.1653625632408,0.0999791539062689,2.952756,2.952756,58.647981207444,61.600737207444,3.28084,0,0.289653224492,0.70750986516,23,5,16.266,61.600737207444,2.952756,0.223694,0.289653224492,0,0,-1.11847,295.4, 0.5, 1.9,0,0,1024,1024,1024,1024,0,0,0,0,295.4,0,0,77,4.064,4.065,4.065,4.062,0,0,6.899,94.64,61.600737207444,2.952756,11,AutoTakeoff,
4300,2022-07-09 12:48:52,52.165362675128,0.099979165895965,3.28084,3.28084,58.647981207444,61.928821207444,3.608924,0,0.325773632472,0.74841865912,23,5,16.254,61.928821207444,3.28084,0.223694,0.325773632472,0,0,-1.11847,295.6, 0.4, 2.3,0,0,1024,1024,1024,1024,0,0,0,0,295.4,0,0,77,4.061,4.063,4.063,4.061,0,0,7.6,94.64,61.928821207444,3.28084,11,AutoTakeoff,
4500,2022-07-09 12:48:52,52.165362814939,0.0999792508885753,3.608924,3.608924,58.647981207444,62.256905207444,3.937008,0,0.36749673092,0.80286091808,23,5,16.254,62.256905207444,3.608924,0.223694,0.36749673092,0,0,-0.447388,295.9, 0.4, 2.7,0,0,1024,1024,1024,1024,0,0,0,0,295.4,0,0,77,4.061,4.063,4.063,4.061,0,0,7.6,94.64,62.256905207444,3.608924,6,P-GPS,
4700,2022-07-09 12:48:52,52.1653629508365,0.09997932582434,3.937008,3.937008,58.647981207444,62.584989207444,3.937008,0,0.41128282156,0.8552001586,23,5,16.254,62.584989207444,3.937008,0.223694,0.41128282156,0,0,0,295.6, 1, 1.7,0,0,1024,1024,1024,1024,0,0,0,0,295.4,0,0,77,4.061,4.063,4.063,4.061,0,0,7.6,94.64,62.584989207444,3.937008,6,P-GPS,
4900,2022-07-09 12:48:52,52.1653630611993,0.0999794553111381,3.937008,3.937008,58.647981207444,62.584989207444,3.937008,0,0.44586943684,0.90480974024,23,5,16.254,62.584989207444,3.937008,0.223694,0.44586943684,0,0,0,295.3, 0.5, 1.8,0,0,1024,1024,1024,1024,0,0,0,0,295.4,0,0,77,4.061,4.063,4.063,4.061,0,0,7.6,94.64,62.584989207444,3.937008,6,P-GPS,
5100,2022-07-09 12:48:52,52.1653631351821,0.099979519090185,3.937008,3.937008,58.647981207444,62.584989207444,3.937008,0,0.47103347964,0.93534451812,23,5,16.254,62.584989207444,3.937008,0.223694,0.47103347964,0,0,0,295.3, 0.3, 2.5,0,0,1024,1024,1024,1024,0,0,0,0,295.4,0,0,77,4.061,4.063,4.063,4.061,0,0,7.6,94.64,62.584989207444,3.937008,6,P-GPS,
5300,2022-07-09 12:48:53,52.1653632426091,0.0999795220209948,3.937008,3.937008,58.647981207444,62.584989207444,3.937008,0,0.51000001632,0.97454399444,23,5,16.27,62.584989207444,3.937008,0.223694,0.51000001632,0,0,0,295.6, 0.9, 1.7,0,0,1024,1024,1024,1024,0,0,0,0,295.4,0,0,77,4.06,4.062,4.061,4.057,0,0,7.118,94.82,62.584989207444,3.937008,6,P-GPS,
5500,2022-07-09 12:48:53,52.1653632894841,0.0999794714111694,3.937008,3.937008,58.647981207444,62.584989207444,3.937008,0,0.52812665732,0.99505908696,23,5,16.27,62.584989207444,3.937008,0.223694,0.52812665732,0,0,0,295.4, 1.3, 3,0,0,1024,1024,1024,1024,0,0,0,0,295.4,0,0,77,4.06,4.062,4.061,4.057,0,0,7.118,94.82,62.584989207444,3.937008,6,P-GPS,
5700,2022-07-09 12:48:53,52.1653633246154,0.0999794936813955,3.937008,3.937008,58.647981207444,62.584989207444,3.937008,0,0.54037731388,1.0088090874,23,5,16.27,62.584989207444,3.937008,0.223694,0.54037731388,0,0,0,295.4, 1, 3,0,0,1024,1024,1024,1024,0,0,0,0,295.4,0,0,77,4.06,4.062,4.061,4.057,0,0,7.118,94.82,62.584989207444,3.937008,6,P-GPS,
5900,2022-07-09 12:48:53,52.1653634078125,0.099979613187728,3.937008,3.937008,58.647981207444,62.584989207444,3.937008,0,0.56881891584,1.04926512544,23,5,16.27,62.584989207444,3.937008,0.223694,0.56881891584,0,0,0,295.5, 0.2, 1.8,0,0,1024,1024,1024,1024,0,0,0,0,295.4,0,0,77,4.06,4.062,4.061,4.057,0,0,7.118,94.82,62.584989207444,3.937008,6,P-GPS,
6100,2022-07-09 12:48:53,52.1653634681777,0.099979703000571,3.937008,3.937008,58.647981207444,62.584989207444,4.265092,0,0.59032810288,1.0790846802,23,5,16.27,62.584989207444,3.937008,0.223694,0.59032810288,0,0,0,295.3, 0, 2.5,0,0,1024,1024,1024,1024,0,0,0,0,295.4,0,0,77,4.06,4.062,4.061,4.057,0,0,7.118,94.82,62.584989207444,3.937008,6,P-GPS,
6300,2022-07-09 12:48:54,52.1653635163735,0.0999797432262079,3.937008,3.937008,58.647981207444,62.584989207444,4.265092,0,0.60791340528,1.09883861784,23,5,16.232,62.584989207444,3.937008,0.223694,0.60791340528,0,0,0,295.3, -0.2, 3.2,0,0,1024,1024,1024,1024,0,0,0,0,295.4,0,0,77,4.056,4.058,4.058,4.056,0,0,7.628,94.82,62.584989207444,3.937008,6,P-GPS,
6500,2022-07-09 12:48:54,52.1653635660285,0.0999797457956311,3.937008,3.937008,58.647981207444,62.584989207444,4.265092,0,0.6260334846,1.116961978,23,5,16.232,62.584989207444,3.937008,0.223694,0.6260334846,0,0,0,295.3, -0.3, 3.2,0,0,1024,1024,1024,1024,0,0,0,0,295.4,0,0,77,4.056,4.058,4.058,4.056,0,0,7.628,94.82,62.584989207444,3.937008,6,P-GPS,
6700,2022-07-09 12:48:54,52.1653636332552,0.0999796663290048,3.937008,3.937008,58.647981207444,62.584989207444,4.265092,0,0.65066275048,1.1472605354,23,5,16.232,62.584989207444,3.937008,0.223694,0.65066275048,0,0,0,295.4, 0.3, 3.3,0,0,1024,1024,1024,1024,0,0,0,0,295.4,0,0,77,4.056,4.058,4.058,4.056,0,0,7.628,94.82,62.584989207444,3.937008,6,P-GPS,
6900,2022-07-09 12:48:54,52.1653636912479,0.0999795714929764,3.937008,3.937008,58.647981207444,62.584989207444,4.265092,0,0.6725557958,1.17722772796,23,5,16.232,62.584989207444,3.937008,0.223694,0.6725557958,0,0,0,295.5, 0.7, 3.4,0,0,1024,1024,1024,1024,0,0,0,0,295.4,0,0,77,4.056,4.058,4.058,4.056,0,0,7.628,94.82,62.584989207444,3.937008,6,P-GPS,
7100,2022-07-09 12:48:54,52.1653637391048,0.0999795688052732,3.937008,3.937008,58.647981207444,62.584989207444,4.265092,0,0.69002298796,1.19469820096,23,5,16.232,62.584989207444,3.937008,0.223694,0.69002298796,0,0,0,295.5, 0.1, 3.5,0,0,1024,1024,1024,1024,0,0,0,0,295.4,0,0,77,4.056,4.058,4.058,4.056,0,0,7.628,94.82,62.584989207444,3.937008,6,P-GPS,
7300,2022-07-09 12:48:55,52.1653637941108,0.099979648597933,3.937008,3.937008,58.647981207444,62.584989207444,4.265092,0,0.70942259488,1.22156171888,23,5,16.229,62.584989207444,3.937008,0.223694,0.70942259488,0,0,0,295.1, -1, 2.8,0,0,1024,1024,1024,1024,0,0,0,0,295.4,0,0,77,4.056,4.057,4.056,4.054,0,0,7.472,94.82,62.584989207444,3.937008,6,P-GPS,
7500,2022-07-09 12:48:55,52.1653638649946,0.0999797147159539,3.937008,3.937008,58.647981207444,62.584989207444,4.265092,0,0.73509188704,1.25135830776,23,5,16.229,62.584989207444,3.937008,0.223694,0.73509188704,0,0,0,295.2, -0.5, 3.1,0,0,1024,1024,1024,1024,0,0,0,0,295.4,0,0,77,4.056,4.057,4.056,4.054,0,0,7.472,94.82,62.584989207444,3.937008,6,P-GPS,
7700,2022-07-09 12:48:55,52.1653639511767,0.0999797888028094,3.937008,3.937008,58.647981207444,62.584989207444,4.265092,0,0.76667325288,1.28690620916,23,5,16.229,62.584989207444,3.937008,0.223694,0.76667325288,0,0,0,295.4, -0.4, 2.6,0,0,1024,1024,1024,1024,0,0,0,0,295.4,0,0,77,4.056,4.057,4.056,4.054,0,0,7.472,94.82,62.584989207444,3.937008,6,P-GPS,
7900,2022-07-09 12:48:55,52.165364013395,0.0999798842930871,3.937008,3.937008,58.647981207444,62.584989207444,4.265092,0,0.7900590804,1.31808075084,23,5,16.229,62.584989207444,3.937008,0.223694,0.7900590804,0,0,0,295.4, -1.5, 2,0,0,1024,1024,1024,1024,0,0,0,0,295.4,0,0,77,4.056,4.057,4.056,4.054,0,0,7.472,94.82,62.584989207444,3.937008,6,P-GPS,
8100,2022-07-09 12:48:55,52.1653640833385,0.0999799111696819,3.937008,3.937008,58.647981207444,62.584989207444,4.265092,0,0.81583992112,1.34430122412,23,5,16.229,62.584989207444,3.937008,0.223694,0.81583992112,0,0,0,295.5, -1.2, 2.3,0,0,1024,1024,1024,1024,0,0,0,0,295.4,0,0,77,4.056,4.057,4.056,4.054,0,0,7.472,94.82,62.584989207444,3.937008,6,P-GPS,
8300,2022-07-09 12:48:56,52.1653641461254,0.0999798712177037,3.937008,3.937008,58.647981207444,62.584989207444,4.265092,0,0.83831695596,1.36889111992,23,5,16.22,62.584989207444,3.937008,0.223694,0.83831695596,0,0,0,295.2, -1, 2,0,0,1024,1024,1024,1024,0,0,0,0,295.4,0,0,77,4.054,4.056,4.055,4.054,0,0,7.507,95,62.584989207444,3.937008,6,P-GPS,
8500,2022-07-09 12:48:56,52.1653641914712,0.0999797787472731,3.937008,3.937008,58.647981207444,62.584989207444,4.265092,0,0.85429464676,1.39538718376,23,5,16.22,62.584989207444,3.937008,0.223694,0.85429464676,0,0,0,295, -0.6, 2.2,0,0,1024,1024,1024,1024,0,0,0,0,295.4,0,0,77,4.054,4.056,4.055,4.054,0,0,7.507,95,62.584989207444,3.937008,6,P-GPS,
8700,2022-07-09 12:48:56,52.1653642394695,0.0999796160452129,3.937008,3.937008,58.647981207444,62.584989207444,4.265092,0,0.872047272,1.43579072836,23,5,16.22,62.584989207444,3.937008,0.223694,0.872047272,0,0,0,294.8, -0.2, 2,0,0,1024,1024,1024,1024,0,0,0,0,295.4,0,0,77,4.054,4.056,4.055,4.054,0,0,7.507,95,62.584989207444,3.937008,6,P-GPS,
8900,2022-07-09 12:48:56,52.1653642961771,0.0999793446094557,3.937008,3.937008,58.647981207444,62.584989207444,4.265092,0.223694,0.89641735152,1.49996067792,23,5,16.22,62.584989207444,3.937008,0.223694,0.89641735152,0,-0.223694,0,294.9, 1, 2.3,0,0,1024,1024,1024,1024,0,0,0,0,295.4,0,0,77,4.054,4.056,4.055,4.054,0,0,7.507,95,62.584989207444,3.937008,6,P-GPS,
9100,2022-07-09 12:48:56,52.1653643493156,0.0999790608132321,3.937008,3.937008,58.647981207444,62.584989207444,4.265092,0.223694,0.92375987208,1.56636816036,23,5,16.22,62.584989207444,3.937008,0.223694,0.92375987208,0,-0.223694,0,295.4, 1.8, 2.3,0,0,1024,1024,1024,1024,0,0,0,0,295.4,0,0,77,4.054,4.056,4.055,4.054,0,0,7.507,95,62.584989207444,3.937008,6,P-GPS,
9300,2022-07-09 12:48:57,52.1653644182611,0.0999788090256847,3.937008,3.937008,58.647981207444,62.584989207444,4.265092,0,0.95901905956,1.62807419908,23,5,16.214,62.584989207444,3.937008,0.223694,0.95901905956,0,0,0,295.8, 2.7, 1.8,0,0,1024,1024,1024,1024,0,0,0,0,295.4,0,0,77,4.054,4.054,4.054,4.054,0,0,7.382,95,62.584989207444,3.937008,6,P-GPS,
9500,2022-07-09 12:48:57,52.1653644709037,0.0999786796521473,3.937008,3.937008,58.647981207444,62.584989207444,4.265092,0,0.98425528084,1.66281829468,23,5,16.214,62.584989207444,3.937008,0.223694,0.98425528084,0,0,0,295.7, 2.6, 1.2,0,0,1024,1024,1024,1024,0,0,0,0,295.4,0,0,77,4.054,4.054,4.054,4.054,0,0,7.382,95,62.584989207444,3.937008,6,P-GPS,
9700,2022-07-09 12:48:57,52.1653644329223,0.0999787177452545,3.937008,3.937008,58.647981207444,62.584989207444,4.265092,0,0.9687828394,1.67908798024,23,5,16.214,62.584989207444,3.937008,0.223694,0.98425528084,0,0,0,295.8, 1.7, 1.6,0,0,1024,1024,1024,1024,0,0,0,0,295.4,0,0,77,4.054,4.054,4.054,4.054,0,0,7.382,95,62.584989207444,3.937008,6,P-GPS,
9900,2022-07-09 12:48:57,52.1653643121887,0.0999788727916379,3.937008,3.937008,58.647981207444,62.584989207444,4.265092,0,0.91818244408,1.73516409752,23,5,16.214,62.584989207444,3.937008,0.223694,0.98425528084,0,0,0,295.7, 0.6, 2,0,0,1024,1024,1024,1024,0,0,0,0,295.4,0,0,77,4.054,4.054,4.054,4.054,0,0,7.382,95,62.584989207444,3.937008,6,P-GPS,
10100,2022-07-09 12:48:57,52.1653641394946,0.0999791170066538,3.937008,3.937008,58.647981207444,62.584989207444,4.265092,0,0.84618112944,1.81857289284,23,5,16.214,62.584989207444,3.937008,0.223694,0.98425528084,0,0,0,295.4, -0.7, 2.8,0,0,1024,1024,1024,1024,0,0,0,0,295.4,0,0,77,4.054,4.054,4.054,4.054,0,0,7.382,95,62.584989207444,3.937008,6,P-GPS,
10300,2022-07-09 12:48:58,52.1653639890414,0.0999793235774586,3.937008,3.937008,58.647981207444,62.584989207444,4.265092,0,0.78545278104,1.890337987,23,5,16.203,62.584989207444,3.937008,0.223694,0.98425528084,0,0,0,295.4, -1.5, 3.4,0,0,1024,1024,1024,1024,0,0,0,0,295.4,0,0,77,4.05,4.05,4.049,4.046,0,0,7.472,95,62.584989207444,3.937008,6,P-GPS,
10500,2022-07-09 12:48:58,52.1653638765813,0.0999794451246646,3.937008,3.937008,58.647981207444,62.584989207444,4.265092,0,0.7419291576,1.9395669912,23,5,16.203,62.584989207444,3.937008,0.223694,0.98425528084,0,0,0,295.3, -1.3, 3.3,0,0,1024,1024,1024,1024,0,0,0,0,295.4,0,0,77,4.05,4.05,4.049,4.046,0,0,7.472,95,62.584989207444,3.937008,6,P-GPS,
10700,2022-07-09 12:48:58,52.165363832572,0.0999794859211874,3.937008,3.937008,58.647981207444,62.584989207444,4.265092,0,0.72520343528,1.9580381204,23,5,16.203,62.584989207444,3.937008,0.223694,0.98425528084,0,0,0,295.4, -0.7, 2.9,0,0,1024,1024,1024,1024,0,0,0,0,295.4,0,0,77,4.05,4.05,4.049,4.046,0,0,7.472,95,62.584989207444,3.937008,6,P-GPS,
10900,2022-07-09 12:48:58,52.1653637908115,0.0999794556655413,3.937008,3.937008,58.647981207444,62.584989207444,3.937008,0,0.710547923,1.97471134928,23,5,16.203,62.584989207444,3.937008,0.223694,0.98425528084,0,0,0,295.4, -0.3, 3.2,0,0,1024,1024,1024,1024,0,0,0,0,295.4,0,0,77,4.05,4.05,4.049,4.046,0,0,7.472,95,62.584989207444,3.937008,6,P-GPS,
11100,2022-07-09 12:48:58,52.1653637954826,0.0999794004192316,3.937008,3.937008,58.647981207444,62.584989207444,3.937008,0,0.71339241128,1.98719166464,23,5,16.203,62.584989207444,3.937008,0.223694,0.98425528084,0,0,0,295.4, 0, 3.4,0,0,1024,1024,1024,1024,0,0,0,0,295.4,0,0,77,4.05,4.05,4.049,4.046,0,0,7.472,95,62.584989207444,3.937008,6,P-GPS,
11300,2022-07-09 12:48:59,52.1653638435344,0.0999793568420403,3.937008,3.937008,58.647981207444,62.584989207444,3.937008,0,0.73186354048,2.00725400124,23,5,16.194,62.584989207444,3.937008,0.223694,0.98425528084,0,0,0,295.4, 0.3, 2.9,0,0,1024,1024,1024,1024,0,0,0,0,295.4,0,0,77,4.048,4.049,4.05,4.047,0,0,7.68,95,62.584989207444,3.937008,6,P-GPS,
11500,2022-07-09 12:48:59,52.1653639045877,0.099979360267356,3.937008,3.937008,58.647981207444,62.584989207444,3.937008,0,0.7539206278,2.02954074736,23,5,16.194,62.584989207444,3.937008,0.223694,0.98425528084,0,0,0,295.3, 0.2, 2.4,0,0,1024,1024,1024,1024,0,0,0,0,295.4,0,0,77,4.048,4.049,4.05,4.047,0,0,7.68,95,62.584989207444,3.937008,6,P-GPS,
11700,2022-07-09 12:48:59,52.1653639713518,0.0999793600478181,3.937008,3.937008,58.647981207444,62.584989207444,3.937008,0,0.77814635036,2.05390098436,23,5,16.194,62.584989207444,3.937008,0.223694,0.98425528084,0,0,0,295.3, 0.1, 2.4,0,0,1024,1024,1024,1024,0,0,0,0,295.4,0,0,77,4.048,4.049,4.05,4.047,0,0,7.68,95,62.584989207444,3.937008,6,P-GPS,
11900,2022-07-09 12:48:59,52.1653640128092,0.0999794073458066,3.937008,3.937008,58.647981207444,62.584989207444,3.937008,0,0.7921752222,2.07236227104,23,5,16.194,62.584989207444,3.937008,0.223694,0.98425528084,0,0,0,295.4, 0, 2.5,0,0,1024,1024,1024,1024,0,0,0,0,295.4,0,0,77,4.048,4.049,4.05,4.047,0,0,7.68,95,62.584989207444,3.937008,6,P-GPS,
12100,2022-07-09 12:48:59,52.1653640342469,0.0999795137706453,3.937008,3.937008,58.647981207444,62.584989207444,3.937008,0,0.79821524864,2.09743116948,23,5,16.194,62.584989207444,3.937008,0.223694,0.98425528084,0,0,0,295.4, -0.8, 2.6,0,0,1024,1024,1024,1024,0,0,0,0,295.4,0,0,77,4.048,4.049,4.05,4.047,0,0,7.68,95,62.584989207444,3.937008,6,P-GPS,
12300,2022-07-09 12:49:00,52.1653640399139,0.0999795552380027,3.937008,3.937008,58.647981207444,62.584989207444,3.937008,0,0.79979005184,2.1069390438,23,5,16.189,62.584989207444,3.937008,0.223694,0.98425528084,0,0,0,295.3, -1.5, 2.9,0,0,1024,1024,1024,1024,0,0,0,0,295.4,0,0,77,4.046,4.047,4.047,4.043,0,0,7.581,95.18,62.584989207444,3.937008,6,P-GPS,
12500,2022-07-09 12:49:00,52.1653640510091,0.0999795015690492,3.937008,3.937008,58.647981207444,62.584989207444,3.937008,0,0.80448493388,2.11961292872,23,5,16.189,62.584989207444,3.937008,0.223694,0.98425528084,0,0,0,295.3, -1.2, 3.2,0,0,1024,1024,1024,1024,0,0,0,0,295.4,0,0,77,4.046,4.047,4.047,4.043,0,0,7.581,95.18,62.584989207444,3.937008,6,P-GPS,
12700,2022-07-09 12:49:00,52.1653641260264,0.0999794246565701,3.937008,3.937008,58.647981207444,62.584989207444,3.937008,0,0.83300855684,2.15194560692,23,5,16.189,62.584989207444,3.937008,0.223694,0.98425528084,0,0,0,295.3, -0.3, 3,0,0,1024,1024,1024,1024,0,0,0,0,295.4,0,0,77,4.046,4.047,4.047,4.043,0,0,7.581,95.18,62.584989207444,3.937008,6,P-GPS,
12900,2022-07-09 12:49:00,52.1653642295372,0.0999793661983722,3.937008,3.937008,58.647981207444,62.584989207444,3.937008,0,0.87175855808,2.1919127998,23,5,16.189,62.584989207444,3.937008,0.223694,0.98425528084,0,0,0,295.6, -0.2, 3.1,0,0,1024,1024,1024,1024,0,0,0,0,295.4,0,0,77,4.046,4.047,4.047,4.043,0,0,7.581,95.18,62.584989207444,3.937008,6,P-GPS,
13100,2022-07-09 12:49:00,52.1653643601388,0.0999793735195045,3.937008,3.937008,58.647981207444,62.584989207444,3.937008,0,0.9190781134,2.23958996668,23,5,16.189,62.584989207444,3.937008,0.223694,0.98425528084,0,0,0,295.8, -0.1, 2,0,0,1024,1024,1024,1024,0,0,0,0,295.4,0,0,77,4.046,4.047,4.047,4.043,0,0,7.581,95.18,62.584989207444,3.937008,6,P-GPS,
13300,2022-07-09 12:49:01,52.1653644444512,0.0999793898626425,3.937008,3.937008,58.647981207444,62.584989207444,3.937008,0,0.94943572592,2.27056765796,23,5,16.176,62.584989207444,3.937008,0.223694,0.98425528084,0,0,0,295.7, -0.2, 1.9,0,0,1024,1024,1024,1024,0,0,0,0,295.4,0,0,77,4.044,4.047,4.046,4.044,0,0,7.854,95.18,62.584989207444,3.937008,6,P-GPS,
13500,2022-07-09 12:49:01,52.1653644958955,0.0999794207769025,3.937008,3.937008,58.647981207444,62.584989207444,3.937008,0,0.96764110708,2.29057093944,23,5,16.176,62.584989207444,3.937008,0.223694,0.98425528084,0,0,0,295.7, -0.4, 3,0,0,1024,1024,1024,1024,0,0,0,0,295.4,0,0,77,4.044,4.047,4.046,4.044,0,0,7.854,95.18,62.584989207444,3.937008,6,P-GPS,
13700,2022-07-09 12:49:01,52.1653645677334,0.0999795162924947,3.937008,3.937008,58.647981207444,62.584989207444,3.937008,0,0.99256236772,2.324393119,23,5,16.176,62.584989207444,3.937008,0.223694,0.99256236772,0,0,0,295.6, -1.3, 2.5,0,0,1024,1024,1024,1024,0,0,0,0,295.4,0,0,77,4.044,4.047,4.046,4.044,0,0,7.854,95.18,62.584989207444,3.937008,6,P-GPS,
13900,2022-07-09 12:49:01,52.1653646924142,0.0999796060760952,3.937008,3.937008,58.647981207444,62.584989207444,3.937008,0,1.0373031828,2.37412409172,23,5,16.176,62.584989207444,3.937008,0.223694,1.0373031828,0,0,0,295.5, -1.7, 1.9,0,0,1024,1024,1024,1024,0,0,0,0,295.4,0,0,77,4.044,4.047,4.046,4.044,0,0,7.854,95.18,62.584989207444,3.937008,6,P-GPS,
14100,2022-07-09 12:49:01,52.1653648582451,0.0999796611988874,3.937008,3.937008,58.647981207444,62.584989207444,4.265092,0,1.09756565192,2.43587278136,23,5,16.176,62.584989207444,3.937008,0.223694,1.09756565192,0,0,0,295.3, -1.1, 1,0,0,1024,1024,1024,1024,0,0,0,0,295.4,0,0,77,4.044,4.047,4.046,4.044,0,0,7.854,95.18,62.584989207444,3.937008,6,P-GPS,
14300,2022-07-09 12:49:02,52.1653650137025,0.0999796512022729,3.937008,3.937008,58.647981207444,62.584989207444,3.937008,0,1.15430777972,2.4926345942,23,5,16.188,62.584989207444,3.937008,0.223694,1.15430777972,0,0,0,295.3, -0.7, 0.7,0,0,1024,1024,1024,1024,0,0,0,0,295.4,0,0,77,4.046,4.047,4.048,4.045,0,0,7.429,95.18,62.584989207444,3.937008,6,P-GPS,
14500,2022-07-09 12:49:02,52.1653651146293,0.0999796020790206,3.937008,3.937008,58.647981207444,62.584989207444,3.937008,0,1.19132549744,2.53106307312,23,5,16.188,62.584989207444,3.937008,0.223694,1.19132549744,0,0,0,295.3, -0.8, 0.6,0,0,1024,1024,1024,1024,0,0,0,0,295.4,0,0,77,4.046,4.047,4.048,4.045,0,0,7.429,95.18,62.584989207444,3.937008,6,P-GPS,
14700,2022-07-09 12:49:02,52.1653651627465,0.0999795345499338,3.937008,3.937008,58.647981207444,62.584989207444,3.937008,0,1.20931106232,2.55422908436,23,5,16.188,62.584989207444,3.937008,0.223694,1.20931106232,0,0,0,295.3, -0.8, 0.8,0,0,1024,1024,1024,1024,0,0,0,0,295.4,0,0,77,4.046,4.047,4.048,4.045,0,0,7.429,95.18,62.584989207444,3.937008,6,P-GPS,
14900,2022-07-09 12:49:02,52.1653652042489,0.099979433921246,3.937008,3.937008,58.647981207444,62.584989207444,3.937008,0,1.2254265484,2.581364912,23,5,16.188,62.584989207444,3.937008,0.223694,1.2254265484,0,0,0,295.2, -0.3, 0.6,0,0,1024,1024,1024,1024,0,0,0,0,295.4,0,0,77,4.046,4.047,4.048,4.045,0,0,7.429,95.18,62.584989207444,3.937008,6,P-GPS,
15100,2022-07-09 12:49:02,52.1653652489007,0.0999793341641632,3.937008,3.937008,58.647981207444,62.584989207444,3.937008,0,1.24305778256,2.60900270816,23,5,16.188,62.584989207444,3.937008,0.223694,1.24305778256,0,0,0,295, -0.3, 0.6,0,0,1024,1024,1024,1024,0,0,0,0,295.4,0,0,77,4.046,4.047,4.048,4.045,0,0,7.429,95.18,62.584989207444,3.937008,6,P-GPS,
15300,2022-07-09 12:49:03,52.1653652496097,0.0999792125994989,3.937008,3.937008,58.647981207444,62.584989207444,3.937008,0,1.24551513172,2.63620743344,23,5,16.179,62.584989207444,3.937008,0.223694,1.24551513172,0,0,0,295.1, -0.1, 0.9,0,0,1024,1024,1024,1024,0,0,0,0,295.4,0,0,77,4.044,4.046,4.047,4.044,0,0,7.264,95.36,62.584989207444,3.937008,6,P-GPS,
15500,2022-07-09 12:49:03,52.1653652202701,0.0999791092708872,3.937008,3.937008,58.647981207444,62.584989207444,3.937008,0,1.23721132568,2.66168971772,23,5,16.179,62.584989207444,3.937008,0.223694,1.24551513172,0,0,0,295.1, 0, 1.1,0,0,1024,1024,1024,1024,0,0,0,0,295.4,0,0,77,4.044,4.046,4.047,4.044,0,0,7.264,95.36,62.584989207444,3.937008,6,P-GPS,
15700,2022-07-09 12:49:03,52.1653651986022,0.0999790389620048,3.937008,3.937008,58.647981207444,62.584989207444,3.937008,0,1.23121066932,2.679297986,23,5,16.179,62.584989207444,3.937008,0.223694,1.24551513172,0,0,0,295.1, 0, 1.2,0,0,1024,1024,1024,1024,0,0,0,0,295.4,0,0,77,4.044,4.046,4.047,4.044,0,0,7.264,95.36,62.584989207444,3.937008,6,P-GPS,
15900,2022-07-09 12:49:03,52.1653651713188,0.099978981606516,3.937008,3.937008,58.647981207444,62.584989207444,3.937008,0,1.22300856932,2.69554142484,23,5,16.179,62.584989207444,3.937008,0.223694,1.24551513172,0,0,0,295.4, 0, 1.2,0,0,1024,1024,1024,1024,0,0,0,0,295.4,0,0,77,4.044,4.046,4.047,4.044,0,0,7.264,95.36,62.584989207444,3.937008,6,P-GPS,
16100,2022-07-09 12:49:03,52.1653651602214,0.0999789710678216,3.937008,3.937008,58.647981207444,62.584989207444,3.937008,0,1.21932090516,2.70022646436,23,5,16.179,62.584989207444,3.937008,0.223694,1.24551513172,0,0,0,295.3, -0.6, 2,0,0,1024,1024,1024,1024,0,0,0,0,295.4,0,0,77,4.044,4.046,4.047,4.044,0,0,7.264,95.36,62.584989207444,3.937008,6,P-GPS,
16300,2022-07-09 12:49:04,52.165365214073,0.0999789900369041,3.937008,3.937008,58.647981207444,62.584989207444,3.937008,0,1.23821526272,2.72032817104,23,5,16.181,62.584989207444,3.937008,0.223694,1.24551513172,0,0,0,295.3, -0.1, 1.3,0,0,1024,1024,1024,1024,0,0,0,0,295.4,0,0,77,4.043,4.044,4.044,4.041,0,0,7.171,95.36,62.584989207444,3.937008,6,P-GPS,
16500,2022-07-09 12:49:04,52.1653652939317,0.0999789816261566,3.937008,3.937008,58.647981207444,62.584989207444,3.937008,0,1.26734584108,2.74952764704,23,5,16.181,62.584989207444,3.937008,0.223694,1.26734584108,0,0,0,295.3, 0.3, 0.6,0,0,1024,1024,1024,1024,0,0,0,0,295.4,0,0,77,4.043,4.044,4.044,4.041,0,0,7.171,95.36,62.584989207444,3.937008,6,P-GPS,
16700,2022-07-09 12:49:04,52.1653653239705,0.0999789363701328,3.937008,3.937008,58.647981207444,62.584989207444,4.265092,0,1.27956697008,2.76444890736,23,5,16.181,62.584989207444,3.937008,0.223694,1.27956697008,0,0,-0.894776,295.4, 0, 0.4,0,0,1024,1024,1024,1024,0,0,0,0,295.4,0,0,77,4.043,4.044,4.044,4.041,0,0,7.171,95.36,62.584989207444,3.937008,6,P-GPS,
16900,2022-07-09 12:49:04,52.1653653422073,0.0999788460409609,4.593176,4.593176,58.647981207444,63.241157207444,4.593176,0,1.28907812524,2.78573171644,23,5,16.181,63.241157207444,4.593176,0.223694,1.28907812524,0,0,-2.684328,295.6, 1, 1.1,0,0,1024,1024,1024,1024,0,0,0,0,295.4,0,0,77,4.043,4.044,4.044,4.041,0,0,7.171,95.36,63.241157207444,4.593176,6,P-GPS,
17100,2022-07-09 12:49:04,52.1653653571534,0.099978896717346,5.577428,5.577428,58.647981207444,64.225409207444,5.905512,0,1.2927985978,2.79831373784,23,5,16.181,64.225409207444,5.577428,0.223694,1.2927985978,0,0,-4.697574,296.1, 0.6, 1.2,0,0,1024,1024,1024,1024,0,0,0,0,295.4,0,0,77,4.043,4.044,4.044,4.041,0,0,7.171,95.36,64.225409207444,5.577428,6,P-GPS,
17300,2022-07-09 12:49:05,52.165365458379,0.0999791344136561,7.545932,7.545932,58.647981207444,66.193913207444,7.874016,0,1.32300857252,2.8630742386,23,5,16.116,66.193913207444,7.545932,0.223694,1.32300857252,0,0,-7.158208,295.6, -0.5, -0.3,0,0,1024,1024,1024,1024,0,0,0,0,295.4,0,0,77,3.995,3.998,3.997,3.992,0,0,8.501,95.18,66.193913207444,7.545932,6,P-GPS,
17500,2022-07-09 12:49:05,52.1653654846971,0.0999793109602461,9.84252,9.84252,58.647981207444,68.490501207444,9.84252,0,1.355643088,2.92783145852,23,5,16.116,68.490501207444,9.84252,0.223694,1.355643088,0,0,-6.487126,297.9, -2.2, -0.4,0,0,1024,1024,1024,1024,0,0,0,0,295.4,0,0,77,3.995,3.998,3.997,3.992,0,0,8.501,95.18,68.490501207444,9.84252,6,P-GPS,
17700,2022-07-09 12:49:05,52.1653655110152,0.0999794875068362,11.48294,11.48294,58.647981207444,70.130921207444,11.811024,0,1.3366798328,2.95915691884,23,5,16.116,70.130921207444,11.48294,0.223694,1.355643088,0,0,-4.47388,298.8, -1.6, -0.2,0,0,1024,1024,1024,1024,0,0,0,0,295.4,0,0,77,3.995,3.998,3.997,3.992,0,0,8.501,95.18,70.130921207444,11.48294,6,P-GPS,
17900,2022-07-09 12:49:05,52.1653654838602,0.0999793921117062,12.467192,12.467192,58.647981207444,71.115173207444,12.795276,0,1.32779859892,2.98269038416,23,5,16.116,71.115173207444,12.467192,0.223694,1.355643088,0,0,-2.23694,299, -0.4, 0.3,0,0,1024,1024,1024,1024,0,0,0,0,295.4,0,0,77,3.995,3.998,3.997,3.992,0,0,8.501,95.18,71.115173207444,12.467192,6,P-GPS,
18100,2022-07-09 12:49:05,52.1653653962367,0.0999792362284161,12.795276,12.795276,58.647981207444,71.443257207444,13.12336,0,1.2983432174,3.03000993948,23,5,16.116,71.443257207444,12.795276,0.223694,1.355643088,0,0,-0.447388,299, 0, 1.2,0,0,1024,1024,1024,1024,0,0,0,0,295.4,0,0,77,3.995,3.998,3.997,3.992,0,0,8.501,95.18,71.443257207444,12.795276,6,P-GPS,
18300,2022-07-09 12:49:06,52.165365335146,0.0999790856424065,12.795276,12.795276,58.647981207444,71.443257207444,13.12336,0,1.27945214068,3.07041348408,23,5,16.189,71.443257207444,12.795276,0.223694,1.355643088,0,0,0,301.4, 0.5, 1.2,0,0,1024,1024,1024,1024,0,0,0,0,295.4,0,0,77,4.049,4.048,4.049,4.045,0,0,10.132,95.54,71.443257207444,12.795276,6,P-GPS,
18500,2022-07-09 12:49:06,52.1653652087305,0.0999789907815,13.12336,13.12336,58.647981207444,71.771341207444,13.451444,0,1.23625988208,3.12118776392,23,5,16.189,71.771341207444,13.12336,0.223694,1.355643088,0,0,-2.013246,302.4, 0.3, 1.2,0,0,1024,1024,1024,1024,0,0,0,0,295.4,0,0,77,4.049,4.048,4.049,4.045,0,0,10.132,95.54,71.771341207444,13.12336,6,P-GPS,
18700,2022-07-09 12:49:06,52.1653649865443,0.0999788702835369,14.107612,14.107612,58.647981207444,72.755593207444,14.435696,0,1.16009190064,3.20662083752,23,5,16.189,72.755593207444,14.107612,0.223694,1.355643088,0,0,-4.250186,302.1, -0.4, 2.9,0,0,1024,1024,1024,1024,0,0,0,0,295.4,0,0,77,4.049,4.048,4.049,4.045,0,0,10.132,95.54,72.755593207444,14.107612,6,P-GPS,
18900,2022-07-09 12:49:06,52.1653648884606,0.0999787793780234,15.748032,15.748032,58.647981207444,74.396013207444,15.748032,0,1.12843835632,3.247785537,23,5,16.189,74.396013207444,15.748032,0.223694,1.355643088,0,0,-4.921268,301.8, -1, 4.3,0,0,1024,1024,1024,1024,0,0,0,0,295.4,0,0,77,4.049,4.048,4.049,4.045,0,0,10.132,95.54,74.396013207444,15.748032,6,P-GPS,
19100,2022-07-09 12:49:06,52.1653648480804,0.0999787114170622,16.732284,16.732284,58.647981207444,75.380265207444,17.060368,0,1.11695213548,3.26896007836,23,5,16.189,75.380265207444,16.732284,0.223694,1.355643088,0,0,-2.908022,301.6, -0.1, 4.6,0,0,1024,1024,1024,1024,0,0,0,0,295.4,0,0,77,4.049,4.048,4.049,4.045,0,0,10.132,95.54,75.380265207444,16.732284,6,P-GPS,
19300,2022-07-09 12:49:07,52.1653648184571,0.0999786596357859,17.388452,17.388452,58.647981207444,76.036433207444,17.388452,0,1.10879924808,3.2848098164,23,5,16.012,76.036433207444,17.388452,0.223694,1.355643088,0,0,-0.894776,301.7, 0, 3.9,0,0,1024,1024,1024,1024,0,0,0,0,295.4,0,0,77,4.043,4.056,4.058,4.056,0,0,9.398,95.36,76.036433207444,17.388452,6,P-GPS,
19500,2022-07-09 12:49:07,52.1653647820895,0.0999785940277652,17.388452,17.388452,58.647981207444,76.036433207444,17.716536,0,1.10081696436,3.3006562736,23,5,16.012,76.036433207444,17.388452,0.223694,1.355643088,0,0,0,301.8, 0, 3.3,0,0,1024,1024,1024,1024,0,0,0,0,295.4,0,0,77,4.043,4.056,4.058,4.056,0,0,9.398,95.36,76.036433207444,17.388452,6,P-GPS,
19700,2022-07-09 12:49:07,52.1653647457218,0.0999785284197446,17.388452,17.388452,58.647981207444,76.036433207444,17.716536,0,1.08972772516,3.3243767468,23,5,16.012,76.036433207444,17.388452,0.223694,1.355643088,0,0,0,302.1, 0.3, 4.1,0,0,1024,1024,1024,1024,0,0,0,0,295.4,0,0,77,4.043,4.056,4.058,4.056,0,0,9.398,95.36,76.036433207444,17.388452,6,P-GPS,
19900,2022-07-09 12:49:07,52.1653647192115,0.0999784549880113,17.716536,17.716536,58.647981207444,76.364517207444,17.716536,0,1.08453743628,3.3434712356,23,5,16.012,76.364517207444,17.716536,0.223694,1.355643088,0,0,0,302.3, 0.7, 4.5,0,0,1024,1024,1024,1024,0,0,0,0,295.4,0,0,77,4.043,4.056,4.058,4.056,0,0,9.398,95.36,76.364517207444,17.716536,6,P-GPS,
20100,2022-07-09 12:49:07,52.1653647400666,0.0999783789464824,17.716536,17.716536,58.647981207444,76.364517207444,17.716536,0,1.09642720044,3.3621064068,23,5,16.012,76.364517207444,17.716536,0.223694,1.355643088,0,0,0,302.5, 0.9, 4.8,0,0,1024,1024,1024,1024,0,0,0,0,295.4,0,0,77,4.043,4.056,4.058,4.056,0,0,9.398,95.36,76.364517207444,17.716536,6,P-GPS,
20300,2022-07-09 12:49:08,52.1653647752873,0.0999783373030145,17.716536,17.716536,58.647981207444,76.364517207444,17.716536,0,1.11135502244,3.3779856724,23,5,16.157,76.364517207444,17.716536,0.223694,1.355643088,0,0,0,302.5, 1.2, 5,0,0,1024,1024,1024,1024,0,0,0,0,295.4,0,0,77,4.035,4.037,4.037,4.033,0,0,5.896,95.54,76.364517207444,17.716536,6,P-GPS,
20500,2022-07-09 12:49:08,52.1653648249476,0.099978411099626,17.716536,17.716536,58.647981207444,76.364517207444,17.716536,0,1.12434058716,3.4024935472,23,5,16.157,76.364517207444,17.716536,0.223694,1.355643088,0,0,0,302.3, 0.5, 5.2,0,0,1024,1024,1024,1024,0,0,0,0,295.4,0,0,77,4.035,4.037,4.037,4.033,0,0,5.896,95.54,76.364517207444,17.716536,6,P-GPS,
20700,2022-07-09 12:49:08,52.1653649241803,0.0999785905679694,17.716536,17.716536,58.647981207444,76.364517207444,17.716536,0,1.14981302892,3.4565617904,23,5,16.157,76.364517207444,17.716536,0.223694,1.355643088,0,0,0,302.5, 0, 4.5,0,0,1024,1024,1024,1024,0,0,0,0,295.4,0,0,77,4.035,4.037,4.037,4.033,0,0,5.896,95.54,76.364517207444,17.716536,6,P-GPS,
20900,2022-07-09 12:49:08,52.1653650269662,0.0999787815450331,18.04462,18.04462,58.647981207444,76.692601207444,17.716536,0,1.17803153376,3.5134187476,23,5,16.157,76.692601207444,18.04462,0.223694,1.355643088,0,0,0,302.6, 0, 4.2,0,0,1024,1024,1024,1024,0,0,0,0,295.4,0,0,77,4.035,4.037,4.037,4.033,0,0,5.896,95.54,76.692601207444,18.04462,6,P-GPS,
21100,2022-07-09 12:49:08,52.1653651220761,0.0999789190482397,18.04462,18.04462,58.647981207444,76.692601207444,17.716536,0,1.2072178864,3.5598098252,23,5,16.157,76.692601207444,18.04462,0.223694,1.355643088,0,0,0,302.5, 0.3, 4.6,0,0,1024,1024,1024,1024,0,0,0,0,295.4,0,0,77,4.035,4.037,4.037,4.033,0,0,5.896,95.54,76.692601207444,18.04462,6,P-GPS,
21300,2022-07-09 12:49:09,52.1653651942888,0.0999790209760421,18.04462,18.04462,58.647981207444,76.692601207444,17.716536,0,1.23015751968,3.594652346,23,5,16.144,76.692601207444,18.04462,0.223694,1.355643088,0,0,0,302.5, -0.2, 5,0,0,1024,1024,1024,1024,0,0,0,0,295.4,0,0,77,4.034,4.038,4.036,4.033,0,0,7.611,95.72,76.692601207444,18.04462,6,P-GPS,
21500,2022-07-09 12:49:09,52.1653652745983,0.0999791305774159,18.04462,18.04462,58.647981207444,76.692601207444,17.716536,0,1.256397678,3.632874132,23,5,16.144,76.692601207444,18.04462,0.223694,1.355643088,0,0,0,302.6, -0.1, 4.9,0,0,1024,1024,1024,1024,0,0,0,0,295.4,0,0,77,4.034,4.038,4.036,4.033,0,0,7.611,95.72,76.692601207444,18.04462,6,P-GPS,
21700,2022-07-09 12:49:09,52.1653653866225,0.0999792369813047,18.372704,18.372704,58.647981207444,77.020685207444,17.716536,0,1.2948327186,3.6801510364,23,5,16.144,77.020685207444,18.372704,0.223694,1.355643088,0,0,0,302.5, -0.2, 4.7,0,0,1024,1024,1024,1024,0,0,0,0,295.4,0,0,77,4.034,4.038,4.036,4.033,0,0,7.611,95.72,77.020685207444,18.372704,6,P-GPS,
21900,2022-07-09 12:49:09,52.1653655162828,0.0999793192303454,18.372704,18.372704,58.647981207444,77.020685207444,17.716536,0,1.34061027912,3.7309384396,23,5,16.144,77.020685207444,18.372704,0.223694,1.355643088,0,0,0,302.5, 0.1, 4.7,0,0,1024,1024,1024,1024,0,0,0,0,295.4,0,0,77,4.034,4.038,4.036,4.033,0,0,7.611,95.72,77.020685207444,18.372704,6,P-GPS,
22100,2022-07-09 12:49:09,52.1653656443603,0.0999793990522478,18.372704,18.372704,58.647981207444,77.020685207444,17.716536,0,1.3861877084,3.7809384412,23,5,16.144,77.020685207444,18.372704,0.223694,1.3861877084,0,0,0,302.5, 0, 4.9,0,0,1024,1024,1024,1024,0,0,0,0,295.4,0,0,77,4.034,4.038,4.036,4.033,0,0,7.611,95.72,77.020685207444,18.372704,6,P-GPS,
22300,2022-07-09 12:49:10,52.1653657631878,0.0999794454053066,18.372704,18.372704,58.647981207444,77.020685207444,17.716536,0,1.42899610872,3.8255250568,23,5,16.136,77.020685207444,18.372704,0.223694,1.42899610872,0,0,0,302.4, 0.2, 4.9,0,0,1024,1024,1024,1024,0,0,0,0,295.4,0,0,77,4.032,4.036,4.035,4.033,0,0,7.611,95.9,77.020685207444,18.372704,6,P-GPS,
22500,2022-07-09 12:49:10,52.1653658830947,0.0999795699992018,18.372704,18.372704,58.647981207444,77.020685207444,17.716536,0,1.47190949592,3.8701116724,23,5,16.136,77.020685207444,18.372704,0.223694,1.47190949592,0,0,0,302.6, 0.1, 4.5,0,0,1024,1024,1024,1024,0,0,0,0,295.4,0,0,77,4.032,4.036,4.035,4.033,0,0,7.611,95.9,77.020685207444,18.372704,6,P-GPS,
22700,2022-07-09 12:49:10,52.1653660030015,0.099979694593097,18.700788,18.700788,58.647981207444,77.348769207444,17.716536,0,1.51515424796,3.9334318844,23,5,16.136,77.348769207444,18.700788,0.223694,1.51515424796,0,0,0,302.6, -0.3, 4.2,0,0,1024,1024,1024,1024,0,0,0,0,295.4,0,0,77,4.032,4.036,4.035,4.033,0,0,7.611,95.9,77.348769207444,18.700788,6,P-GPS,
22900,2022-07-09 12:49:10,52.1653661363455,0.0999798551386223,18.700788,18.700788,58.647981207444,77.348769207444,18.04462,0,1.56407157236,3.9938977656,23,5,16.136,77.348769207444,18.700788,0.223694,1.56407157236,0,0,0,302.6, -0.4, 3.6,0,0,1024,1024,1024,1024,0,0,0,0,295.4,0,0,77,4.032,4.036,4.035,4.033,0,0,7.611,95.9,77.348769207444,18.700788,6,P-GPS,
23100,2022-07-09 12:49:10,52.1653662444193,0.0999799754022079,18.700788,18.700788,58.647981207444,77.348769207444,18.04462,0,1.6042159306,4.0416339876,23,5,16.136,77.348769207444,18.700788,0.223694,1.6042159306,0,0,0,302.5, -1, 3.8,0,0,1024,1024,1024,1024,0,0,0,0,295.4,0,0,77,4.032,4.036,4.035,4.033,0,0,7.611,95.9,77.348769207444,18.700788,6,P-GPS,
23300,2022-07-09 12:49:11,52.1653663628805,0.0999800255546262,18.700788,18.700788,58.647981207444,77.348769207444,18.04462,0,1.6478346984,4.08628622,23,5,16.134,77.348769207444,18.700788,0.223694,1.6478346984,0,0,0,302.5, -1, 3.6,0,0,1024,1024,1024,1024,0,0,0,0,295.4,0,0,77,4.032,4.036,4.035,4.032,0,0,7.518,95.9,77.348769207444,18.700788,6,P-GPS,
23500,2022-07-09 12:49:11,52.1653665165967,0.0999799629623062,18.700788,18.700788,58.647981207444,77.348769207444,18.04462,0,1.69150595964,4.1309384524,23,5,16.134,77.348769207444,18.700788,0.223694,1.69150595964,0,0,0,302.5, -0.5, 3.5,0,0,1024,1024,1024,1024,0,0,0,0,295.4,0,0,77,4.032,4.036,4.035,4.032,0,0,7.518,95.9,77.348769207444,18.700788,6,P-GPS,
23700,2022-07-09 12:49:11,52.1653666703129,0.0999799003699862,18.700788,18.700788,58.647981207444,77.348769207444,18.04462,0,1.7590551744,4.2102691636,23,5,16.134,77.348769207444,18.700788,0.223694,1.7590551744,0,0,0,302.4, 0, 3.7,0,0,1024,1024,1024,1024,0,0,0,0,295.4,0,0,77,4.032,4.036,4.035,4.032,0,0,7.518,95.9,77.348769207444,18.700788,6,P-GPS,
23900,2022-07-09 12:49:11,52.1653667991186,0.099979742730829,18.700788,18.700788,58.647981207444,77.348769207444,18.04462,0,1.80560701316,4.2690618164,23,5,16.134,77.348769207444,18.700788,0.223694,1.80560701316,0,0,0,302.5, 0.6, 4.1,0,0,1024,1024,1024,1024,0,0,0,0,295.4,0.5,0,77,4.032,4.036,4.035,4.032,0,0,7.518,95.9,77.348769207444,18.700788,6,P-GPS,
24100,2022-07-09 12:49:11,52.1653669156919,0.099979536956122,18.700788,18.700788,58.647981207444,77.348769207444,18.04462,0,1.8486057022,4.3317258604,23,5,16.134,77.348769207444,18.700788,0.223694,1.8486057022,0,0,0,302.7, 1.4, 4.3,0,0,1024,1024,1024,1024,0,0,0,0,295.4,2.8,0,77,4.032,4.036,4.035,4.032,0,0,7.518,95.9,77.348769207444,18.700788,6,P-GPS,
24300,2022-07-09 12:49:12,52.1653670029491,0.0999793655188085,18.700788,18.700788,58.647981207444,77.348769207444,18.04462,0,1.88167328856,4.3815946284,23,5,16.132,77.348769207444,18.700788,0.223694,1.88167328856,0,0,0,302.5, 1.4, 4.4,0,0,1024,1024,1024,1024,0,0,0,0,295.4,5.5,0,77,4.031,4.033,4.032,4.03,0,0,7.478,95.9,77.348769207444,18.700788,6,P-GPS,
24500,2022-07-09 12:49:12,52.1653670592188,0.0999792170631462,18.700788,18.700788,58.647981207444,77.348769207444,18.04462,0,1.903871452,4.4206366244,23,5,16.132,77.348769207444,18.700788,0.223694,1.903871452,0,0,0,302.7, 1.8, 4.7,0,0,1024,1024,1024,1024,0,0,0,0,295.4,6.8,0,77,4.031,4.033,4.032,4.03,0,0,7.478,95.9,77.348769207444,18.700788,6,P-GPS,
24700,2022-07-09 12:49:12,52.1653670623553,0.0999791525133159,18.700788,18.700788,58.647981207444,77.348769207444,18.04462,0,1.90592525784,4.4351379372,23,5,16.132,77.348769207444,18.700788,0.223694,1.90592525784,0,0,0,302.7, 1.4, 4.7,0,0,1024,1024,1024,1024,0,0,0,0,295.4,7,0,77,4.031,4.033,4.032,4.03,0,0,7.478,95.9,77.348769207444,18.700788,6,P-GPS,
24900,2022-07-09 12:49:12,52.16536706776,0.0999791377268023,18.700788,18.700788,58.647981207444,77.348769207444,18.04462,0,1.90811685896,4.43897652,23,5,16.132,77.348769207444,18.700788,0.223694,1.90811685896,0,0,0,302.5, 1.3, 5.2,0,0,1024,1024,1024,1024,0,0,0,0,295.4,5.9,0,77,4.031,4.033,4.032,4.03,0,0,7.478,95.9,77.348769207444,18.700788,6,P-GPS,
25100,2022-07-09 12:49:12,52.1653670945723,0.0999791959325097,18.700788,18.700788,58.647981207444,77.348769207444,18.04462,0,1.91703090124,4.4552822948,23,5,16.132,77.348769207444,18.700788,0.223694,1.91703090124,0,0,0,302.8, 0.7, 4.9,0,0,1024,1024,1024,1024,0,0,0,0,295.4,3.4,0,77,4.031,4.033,4.032,4.03,0,0,7.478,95.9,77.348769207444,18.700788,6,P-GPS,
25300,2022-07-09 12:49:13,52.1653671480331,0.0999792423933734,19.028872,19.028872,58.647981207444,77.676853207444,18.04462,0,1.93589573124,4.4773951564,23,5,16.125,77.676853207444,19.028872,0.223694,1.93589573124,0,0,0,302.8, 0.7, 4.2,0,0,1024,1024,1024,1024,0,0,0,0,295.4,0.6,0,76,4.031,4.034,4.033,4.031,0,0,7.678,95.9,77.676853207444,19.028872,6,P-GPS,
25500,2022-07-09 12:49:13,52.1653672319509,0.0999792788593683,19.028872,19.028872,58.647981207444,77.676853207444,18.04462,0,1.95482617804,4.4994752096,23,5,16.125,77.676853207444,19.028872,0.223694,1.95482617804,0,0,0,302.6, 1.6, 4,0,0,1024,1024,1024,1024,0,0,0,0,295.4,-2.3,0,76,4.031,4.034,4.033,4.031,0,0,7.678,95.9,77.676853207444,19.028872,6,P-GPS,
25700,2022-07-09 12:49:13,52.1653673158686,0.0999793153253632,19.028872,19.028872,58.647981207444,77.676853207444,18.04462,0,1.996227098,4.5416340036,23,5,16.125,77.676853207444,19.028872,0.223694,1.996227098,0,0,0,302.9, 1.9, 3.9,0,0,1024,1024,1024,1024,0,0,0,0,295.4,-5.2,0,76,4.031,4.034,4.033,4.031,0,0,7.678,95.9,77.676853207444,19.028872,6,P-GPS,
25900,2022-07-09 12:49:13,52.165367372678,0.0999793322572819,19.028872,19.028872,58.647981207444,77.676853207444,18.04462,0,2.01676187556,4.5626969964,23,5,16.125,77.676853207444,19.028872,0.223694,2.01676187556,0,0,0,302.8, 2.2, 3.3,0,0,1024,1024,1024,1024,0,0,0,0,295.4,-7.7,0,76,4.031,4.034,4.033,4.031,0,0,7.678,95.9,77.676853207444,19.028872,6,P-GPS,
26100,2022-07-09 12:49:13,52.1653673817022,0.0999793727042025,19.028872,19.028872,58.647981207444,77.676853207444,18.04462,0,2.01968182316,4.572342666,23,5,16.125,77.676853207444,19.028872,0.223694,2.01968182316,0,0,0,302.3, 2, 4,0,0,1024,1024,1024,1024,0,0,0,0,295.4,-8.7,0,76,4.031,4.034,4.033,4.031,0,0,7.678,95.9,77.676853207444,19.028872,6,P-GPS,
26300,2022-07-09 12:49:14,52.1653673762718,0.099979431272824,19.028872,19.028872,58.647981207444,77.676853207444,17.716536,0,2.01723431652,4.5855972596,23,5,16.126,77.676853207444,19.028872,0.223694,2.01968182316,0,0,0,302.2, 2, 4.2,0,0,1024,1024,1024,1024,0,0,0,0,295.4,-8.4,0,76,4.028,4.031,4.03,4.029,0,0,7.546,95.9,77.676853207444,19.028872,6,P-GPS,
26500,2022-07-09 12:49:14,52.1653673451134,0.0999794944842584,19.028872,19.028872,58.647981207444,77.676853207444,17.716536,0,2.01487211172,4.5988518532,23,5,16.126,77.676853207444,19.028872,0.223694,2.01968182316,0,0,0,302.4, 2, 3.9,0,0,1024,1024,1024,1024,0,0,0,0,295.4,-6.2,0,76,4.028,4.031,4.03,4.029,0,0,7.546,95.9,77.676853207444,19.028872,6,P-GPS,
26700,2022-07-09 12:49:14,52.165367313955,0.0999795576956929,19.028872,19.028872,58.647981207444,77.676853207444,17.716536,0,1.9937828722,4.6245736388,23,5,16.126,77.676853207444,19.028872,0.223694,2.01968182316,0,0,0,302.5, 1.6, 3.9,0,0,1024,1024,1024,1024,0,0,0,0,295.4,-3.4,0,76,4.028,4.031,4.03,4.029,0,0,7.546,95.9,77.676853207444,19.028872,6,P-GPS,
26900,2022-07-09 12:49:14,52.1653672491923,0.0999796763387131,19.028872,19.028872,58.647981207444,77.676853207444,17.716536,0,1.96983930188,4.660105136,23,5,16.126,77.676853207444,19.028872,0.223694,2.01968182316,0,0,0,302.8, 0.6, 4.3,0,0,1024,1024,1024,1024,0,0,0,0,295.4,-1.9,0,76,4.028,4.031,4.03,4.029,0,0,7.546,95.9,77.676853207444,19.028872,6,P-GPS,
27100,2022-07-09 12:49:14,52.1653671986753,0.0999797024030612,19.028872,19.028872,58.647981207444,77.676853207444,17.716536,0,1.95138785772,4.6794292836,23,5,16.126,77.676853207444,19.028872,0.223694,2.01968182316,0,0,0,303, 1.7, 4.5,0,0,1024,1024,1024,1024,0,0,0,0,295.4,-1.6,0,76,4.028,4.031,4.03,4.029,0,0,7.546,95.9,77.676853207444,19.028872,6,P-GPS,
27300,2022-07-09 12:49:15,52.1653671502765,0.0999797505490859,19.028872,19.028872,58.647981207444,77.676853207444,17.716536,0,1.93373365768,4.700131384,23,5,16.115,77.676853207444,19.028872,0.223694,2.01968182316,0,0,0,303, 1.5, 5.1,0,0,1024,1024,1024,1024,0,0,0,0,295.4,-1.6,0,76,4.027,4.03,4.029,4.028,0,0,7.811,96.08,77.676853207444,19.028872,6,P-GPS,
27500,2022-07-09 12:49:15,52.1653671615576,0.0999799619689297,19.028872,19.028872,58.647981207444,77.676853207444,17.716536,0,1.91613851276,4.720800676,23,5,16.115,77.676853207444,19.028872,0.223694,2.01968182316,0,0,0,303, 0.6, 4.8,0,0,1024,1024,1024,1024,0,0,0,0,295.4,-1.6,0,76,4.027,4.03,4.029,4.028,0,0,7.811,96.08,77.676853207444,19.028872,6,P-GPS,
27700,2022-07-09 12:49:15,52.1653671728386,0.0999801733887735,19.028872,19.028872,58.647981207444,77.676853207444,18.04462,0,1.94456699136,4.808563146,23,5,16.115,77.676853207444,19.028872,0.223694,2.01968182316,0,0,0,302.9, 0.1, 3.2,0,0,1024,1024,1024,1024,0,0,0,0,295.4,-1.6,0,76,4.027,4.03,4.029,4.028,0,0,7.811,96.08,77.676853207444,19.028872,6,P-GPS,
27900,2022-07-09 12:49:15,52.1653672273981,0.099980421082571,18.700788,18.700788,58.647981207444,77.348769207444,18.04462,0,1.96807092912,4.867454224,23,5,16.115,77.676853207444,19.028872,0.223694,2.01968182316,0,0,0,302.2, -0.2, 3.2,0,0,1024,1024,1024,1024,0,0,0,0,292.3,-1.6,0,76,4.027,4.03,4.029,4.028,0,0,7.811,96.08,77.348769207444,18.700788,6,P-GPS,
28100,2022-07-09 12:49:15,52.1653672739635,0.0999805892320529,18.700788,18.700788,58.647981207444,77.348769207444,18.04462,0,1.98832355444,4.9087599996,23,5,16.115,77.676853207444,19.028872,0.223694,2.01968182316,0,0,0,296.8, -0.6, 2.8,0,0,1024,1024,1024,1024,0,0,0,0,289.2,-1.6,0,76,4.027,4.03,4.029,4.028,0,0,7.811,96.08,77.348769207444,18.700788,6,P-GPS,
28300,2022-07-09 12:49:16,52.1653673517769,0.0999805687578479,18.700788,18.700788,58.647981207444,77.348769207444,18.04462,0,2.0161417968,4.937500158,23,5,16.114,77.676853207444,19.028872,0.223694,2.01968182316,0,0,0,296.2, 0.7, 3.2,0,0,1024,1024,1024,1024,0,0,0,0,289.1,-1.6,0,76,4.027,4.029,4.028,4.026,0,0,7.721,96.08,77.348769207444,18.700788,6,P-GPS,
28500,2022-07-09 12:49:16,52.1653674208578,0.0999805601389104,18.700788,18.700788,58.647981207444,77.348769207444,18.04462,0,2.04398956672,4.9662731248,23,5,16.114,77.676853207444,19.028872,0.223694,2.04398956672,0,0,0,296.5, 1.8, 3.4,0,0,1024,1024,1024,1024,0,0,0,0,286.8,-1.6,0,76,4.027,4.029,4.028,4.026,0,0,7.721,96.08,77.348769207444,18.700788,6,P-GPS,
28700,2022-07-09 12:49:16,52.1653674899387,0.0999805515199728,18.700788,18.700788,58.647981207444,77.348769207444,17.716536,0,2.06598431808,4.9882875612,23,5,16.114,77.676853207444,19.028872,0.223694,2.06598431808,0,0,0,293, 1, 3.1,0,0,1024,1024,1024,1024,0,0,0,0,285.8,-1.6,0,76,4.027,4.029,4.028,4.026,0,0,7.721,96.08,77.348769207444,18.700788,6,P-GPS,
28900,2022-07-09 12:49:16,52.1653675270014,0.0999807052611311,18.700788,18.700788,58.647981207444,77.348769207444,17.716536,0,2.08280190392,5.025262628,23,5,16.114,77.676853207444,19.028872,0.223694,2.08280190392,0,0,0,293, 0, 3,0,0,1024,1024,1024,1024,0,0,0,0,285.8,-1.6,0,76,4.027,4.029,4.028,4.026,0,0,7.721,96.08,77.348769207444,18.700788,6,P-GPS,
29100,2022-07-09 12:49:16,52.1653675290756,0.0999807932827541,18.700788,18.700788,58.647981207444,77.348769207444,17.716536,0,2.08572513236,5.0449804764,23,5,16.114,77.676853207444,19.028872,0.223694,2.08572513236,0,0,0,293, 0, 3.6,0,0,1024,1024,1024,1024,0,0,0,0,285.8,-1.6,0,76,4.027,4.029,4.028,4.026,0,0,7.721,96.08,77.348769207444,18.700788,6,P-GPS,
29300,2022-07-09 12:49:17,52.1653675239365,0.0999808552212612,18.700788,18.700788,58.647981207444,77.348769207444,17.716536,0,2.08550203524,5.0589568548,23,5,16.115,77.676853207444,19.028872,0.223694,2.08572513236,0,0,0,293.1, 0.2, 4,0,0,1024,1024,1024,1024,0,0,0,0,285.8,-1.6,0,76,4.027,4.029,4.03,4.027,0,0,7.657,96.08,77.348769207444,18.700788,6,P-GPS,
29500,2022-07-09 12:49:17,52.165367562893,0.0999809827941947,18.700788,18.700788,58.647981207444,77.348769207444,17.716536,0,2.08537080164,5.0729660416,23,5,16.115,77.676853207444,19.028872,0.223694,2.08572513236,0,0,0,293.1, 0.4, 3.6,0,0,1024,1024,1024,1024,0,0,0,0,285.8,-1.6,0,76,4.027,4.029,4.03,4.027,0,0,7.657,96.08,77.348769207444,18.700788,6,P-GPS,
29700,2022-07-09 12:49:17,52.1653676018494,0.0999811103671282,18.700788,18.700788,58.647981207444,77.348769207444,17.716536,0,2.12132224636,5.1257547572,23,5,16.115,77.676853207444,19.028872,0.223694,2.12132224636,0,0,0,293, -0.7, 3.3,0,0,1024,1024,1024,1024,0,0,0,0,285.8,-1.6,0,76,4.027,4.029,4.03,4.027,0,0,7.657,96.08,77.348769207444,18.700788,6,P-GPS,
29900,2022-07-09 12:49:17,52.165367635194,0.0999812510887697,18.700788,18.700788,58.647981207444,77.348769207444,17.716536,0,2.13816935976,5.1595146008,23,5,16.115,77.676853207444,19.028872,0.223694,2.13816935976,0,0,0,292.7, -1.4, 4,0,0,1024,1024,1024,1024,0,0,0,0,285.8,-1.6,0,76,4.027,4.029,4.03,4.027,0,0,7.657,96.08,77.348769207444,18.700788,6,P-GPS,
30100,2022-07-09 12:49:17,52.1653677009847,0.099981279260333,18.700788,18.700788,58.647981207444,77.348769207444,17.716536,0,2.16287080412,5.1843505596,23,5,16.115,77.676853207444,19.028872,0.223694,2.16287080412,0,0,0,293.2, -0.7, 3.5,0,0,1024,1024,1024,1024,0,0,0,0,285.8,-1.6,0,76,4.027,4.029,4.03,4.027,0,0,7.657,96.08,77.348769207444,18.700788,6,P-GPS,
30300,2022-07-09 12:49:18,52.1653677606008,0.0999812314207012,18.700788,18.700788,58.647981207444,77.348769207444,18.04462,0,2.182660831,5.2085631588,23,5,16.102,77.676853207444,19.028872,0.223694,2.182660831,0,0,0,293, 0.9, 4.2,0,0,1024,1024,1024,1024,0,0,0,0,285.8,-1.6,0,76,4.024,4.028,4.029,4.025,0,0,7.687,96.08,77.348769207444,18.700788,6,P-GPS,
30500,2022-07-09 12:49:18,52.1653678377872,0.0999812194072181,18.700788,18.700788,58.647981207444,77.348769207444,18.04462,0,2.20253944056,5.2328085664,23,5,16.102,77.676853207444,19.028872,0.223694,2.20253944056,0,0,0,293, 0.2, 4.1,0,0,1024,1024,1024,1024,0,0,0,0,285.8,-1.6,0,76,4.024,4.028,4.029,4.025,0,0,7.687,96.08,77.348769207444,18.700788,6,P-GPS,
30700,2022-07-09 12:49:18,52.1653679149735,0.099981207393735,18.700788,18.700788,58.647981207444,77.348769207444,18.04462,0,2.23751975664,5.2678151292,23,5,16.102,77.676853207444,19.028872,0.223694,2.23751975664,0,0,0,293.1, 0.6, 3.9,0,0,1024,1024,1024,1024,0,0,0,0,285.8,-1.6,0,76,4.024,4.028,4.029,4.025,0,0,7.687,96.08,77.348769207444,18.700788,6,P-GPS,
30900,2022-07-09 12:49:18,52.1653680109497,0.0999811603776979,18.700788,18.700788,58.647981207444,77.348769207444,18.04462,0,2.27063983644,5.3043636868,23,5,16.102,77.676853207444,19.028872,0.223694,2.27063983644,0,0,0,293.1, 1, 4.4,0,0,1024,1024,1024,1024,0,0,0,0,285.8,-1.6,0,76,4.024,4.028,4.029,4.025,0,0,7.687,96.08,77.348769207444,18.700788,6,P-GPS,
31100,2022-07-09 12:49:18,52.1653681771361,0.0999810342607854,18.700788,18.700788,58.647981207444,77.348769207444,17.716536,0,2.32694889336,5.3712600144,23,5,16.102,77.676853207444,19.028872,0.223694,2.32694889336,0,0,0,293.2, 2.8, 3.5,0,0,1024,1024,1024,1024,0,0,0,0,285.8,-1.6,0,76,4.024,4.028,4.029,4.025,0,0,7.687,96.08,77.348769207444,18.700788,6,P-GPS,
31300,2022-07-09 12:49:19,52.1653683010951,0.0999809701696716,18.700788,18.700788,58.647981207444,77.348769207444,17.716536,0,2.37008865852,5.4187009608,23,5,16.103,77.676853207444,19.028872,0.223694,2.37008865852,0,0,0,293.3, 3.3, 3.4,0,0,1024,1024,1024,1024,0,0,0,0,285.8,-1.6,0,76,4.024,4.029,4.029,4.025,0,0,7.651,96.08,77.348769207444,18.700788,6,P-GPS,
31500,2022-07-09 12:49:19,52.1653683298001,0.0999810778831501,18.700788,18.700788,58.647981207444,77.348769207444,17.716536,0,2.41339246568,5.4661419072,23,5,16.103,77.676853207444,19.028872,0.223694,2.41339246568,0,0,0,293.3, 2.8, 3.4,0,0,1024,1024,1024,1024,0,0,0,0,285.8,-1.6,0,76,4.024,4.029,4.029,4.025,0,0,7.651,96.08,77.348769207444,18.700788,6,P-GPS,
31700,2022-07-09 12:49:19,52.1653683585052,0.0999811855966285,18.700788,18.700788,58.647981207444,77.348769207444,17.716536,0,2.3969981082,5.5332350852,23,5,16.103,77.676853207444,19.028872,0.223694,2.41339246568,0,0,0,293.3, 1.8, 3.8,0,0,1024,1024,1024,1024,0,0,0,0,285.8,-1.6,0,76,4.024,4.029,4.029,4.025,0,0,7.651,96.08,77.348769207444,18.700788,6,P-GPS,
31900,2022-07-09 12:49:19,52.16536834543,0.0999813219449694,18.700788,18.700788,58.647981207444,77.348769207444,17.716536,0,2.3966372158,5.5641077896,23,5,16.103,77.676853207444,19.028872,0.223694,2.41339246568,0,0,0,293.4, 1.8, 3.9,0,0,1024,1024,1024,1024,0,0,0,0,285.8,-1.6,0,76,4.024,4.029,4.029,4.025,0,0,7.651,96.08,77.348769207444,18.700788,6,P-GPS,
32100,2022-07-09 12:49:19,52.1653683163731,0.0999814500927169,18.700788,18.700788,58.647981207444,77.348769207444,17.716536,0,2.39062343608,5.5946852184,23,5,16.103,77.676853207444,19.028872,0.223694,2.41339246568,0,0,0,293.4, 2, 4.1,1,0,1024,1024,1024,1024,0,0,0,0,285.8,-1.6,0,76,4.024,4.029,4.029,4.025,0,0,7.651,96.08,77.348769207444,18.700788,6,P-GPS,
32300,2022-07-09 12:49:20,52.1653682584169,0.0999815776189495,18.700788,18.700788,58.647981207444,77.348769207444,18.04462,0,2.37458012848,5.6302167156,23,5,16.102,77.676853207444,19.028872,0.223694,2.41339246568,0,0,0,293.4, 2, 4.2,0,0,1024,1024,1024,1024,0,0,0,0,285.8,-1.6,0,76,4.028,4.029,4.028,4.026,0,0,7.594,96.26,77.348769207444,18.700788,6,P-GPS,
32500,2022-07-09 12:49:20,52.1653681766569,0.0999817317601208,18.700788,18.700788,58.647981207444,77.348769207444,17.716536,0,2.35896333008,5.6657482128,23,5,16.102,77.676853207444,19.028872,0.223694,2.41339246568,0,0,0,293.4, 1.7, 4.5,0,0,1024,1024,1024,1024,0,0,0,0,285.8,-1.6,0,76,4.028,4.029,4.028,4.026,0,0,7.594,96.26,77.348769207444,18.700788,6,P-GPS,
32700,2022-07-09 12:49:20,52.1653680948969,0.0999818859012922,18.700788,18.700788,58.647981207444,77.348769207444,18.04462,0,2.3292159538,5.7215881096,23,5,16.102,77.676853207444,19.028872,0.223694,2.41339246568,0,0,0,293.4, 1.4, 4.6,0,0,1024,1024,1024,1024,0,0,0,0,285.8,-1.6,0,76,4.028,4.029,4.028,4.026,0,0,7.594,96.26,77.348769207444,18.700788,6,P-GPS,
32900,2022-07-09 12:49:20,52.165368046965,0.0999820396642735,18.700788,18.700788,58.647981207444,77.348769207444,18.04462,0,2.31956044168,5.7602035964,23,5,16.102,77.676853207444,19.028872,0.223694,2.41339246568,0,0,0,293.3, 1.3, 4.7,0,0,1024,1024,1024,1024,0,0,0,0,285.8,-1.6,0,76,4.028,4.029,4.028,4.026,0,0,7.594,96.26,77.348769207444,18.700788,6,P-GPS,
33100,2022-07-09 12:49:20,52.1653680073056,0.0999821865735681,18.700788,18.700788,58.647981207444,77.348769207444,17.716536,0,2.313074221,5.796095986,23,5,16.102,77.676853207444,19.028872,0.223694,2.41339246568,0,0,0,293.4, 1.3, 4.4,0,0,1024,1024,1024,1024,0,0,0,0,285.8,-1.6,0,76,4.028,4.029,4.028,4.026,0,0,7.594,96.26,77.348769207444,18.700788,6,P-GPS,
33300,2022-07-09 12:49:21,52.1653679865683,0.0999823088644971,19.028872,19.028872,58.647981207444,77.676853207444,17.716536,0,2.31242133384,5.8245080604,23,5,16.104,77.676853207444,19.028872,0.223694,2.41339246568,0,0,0,293.3, 1.4, 4.2,0,0,1024,1024,1024,1024,0,0,0,0,285.8,-1.6,0,76,4.027,4.028,4.026,4.024,0,0,7.443,96.26,77.676853207444,19.028872,6,P-GPS,
