time(millisecond),datetime(utc),latitude,longitude,height_above_takeoff(feet),height_above_ground_at_drone_location(feet),ground_elevation_at_drone_location(feet),altitude_above_seaLevel(feet),height_sonar(feet),speed(mph),distance(feet),mileage(feet),satellites,gpslevel,voltage(v),max_altitude(feet),max_ascent(feet),max_speed(mph),max_distance(feet), xSpeed(mph), ySpeed(mph), zSpeed(mph), compass_heading(degrees), pitch(degrees), roll(degrees),isPhoto,isVideo,rc_elevator,rc_aileron,rc_throttle,rc_rudder,rc_elevator(percent),rc_aileron(percent),rc_throttle(percent),rc_rudder(percent),gimbal_heading(degrees),gimbal_pitch(degrees),gimbal_roll(degrees),battery_percent,voltageCell1,voltageCell2,voltageCell3,voltageCell4,voltageCell5,voltageCell6,current(A),battery_temperature(f),altitude(feet),ascent(feet),flycStateRaw,flycState,message
0,2023-07-26 16:36:49,52.2063845025091,0.0867109985900429,0,0,53.746289121456,53.746289121456,0,0,0,0,23,5,0,53.746289121456,0,0,0,0,0,0,280.5, 4.2, 0.5,0,0,1024,1024,1024,1024,0,0,0,0,280.5,0,0,96,4.226,4.232,4.232,4.227,0,0,0,71.06,53.746289121456,0,6,P-GPS,
200,2023-07-26 16:36:49,52.2063846928455,0.086711110674234,0,0,53.746289121456,53.746289121456,0,0,0.073827758268,0.073827758268,23,5,0,53.746289121456,0,0,0.073827758268,0,0,0,280.5, 4.2, 0.5,0,0,1024,1024,1024,1024,0,0,0,0,280.5,0,0,96,4.226,4.232,4.232,4.227,0,0,0,71.06,53.746289121456,0,41,Motors_Started,"Setting new Return-To-Home altitude to 26m (85 ft). Data Recorder File Index is 74. Setting new Maximum Flight Altitude to 120m (394 ft)"
400,2023-07-26 16:36:49,52.2063848856085,0.086711218135577,0,0,53.746289121456,53.746289121456,0,0,0.148142721276,0.14814797062,23,5,0,53.746289121456,0,0,0.148142721276,0,0,0,280.5, 4.2, 0.5,0,0,1024,1024,1024,1024,0,0,0,0,280.5,0,0,96,4.226,4.232,4.232,4.227,0,0,0,71.06,53.746289121456,0,41,Motors_Started,
600,2023-07-26 16:36:49,52.2063850798011,0.0867113245807846,0,0,53.746289121456,53.746289121456,0,0,0.222879600308,0.222889442828,23,5,0,53.746289121456,0,0,0.222879600308,0,0,0,280.5, 4.2, 0.5,0,0,1024,1024,1024,1024,0,0,0,0,280.5,0,0,96,4.226,4.232,4.232,4.227,0,0,0,71.06,53.746289121456,0,41,Motors_Started,
800,2023-07-26 16:36:50,52.2063852483079,0.0867114040027317,0,0,53.746289121456,53.746289121456,0,0,0.286805127288,0.286882227028,23,5,0,53.746289121456,0,0,0.286805127288,0,0,0,280.5, 4.2, 0.5,0,0,1024,1024,1024,1024,0,0,0,0,280.5,0,0,96,4.226,4.232,4.232,4.227,0,0,0,71.06,53.746289121456,0,41,Motors_Started,
1000,2023-07-26 16:36:50,52.2063854179767,0.0867114824199017,0,0,53.746289121456,53.746289121456,0,0,0.35108925008,0.35122048368,23,5,0,53.746289121456,0,0,0.35108925008,0,0,0,280.4, 4.2, 0.5,0,0,1024,1024,1024,1024,0,0,0,0,280.5,0,0,96,4.226,4.232,4.232,4.227,0,0,0,71.06,53.746289121456,0,41,Motors_Started,
1200,2023-07-26 16:36:50,52.2063855645918,0.0867115391426245,0,0,53.746289121456,53.746289121456,0,0,0.40591208648,0.40619751956,23,5,16.96,53.746289121456,0,0,0.40591208648,0,0,0,280.4, 4.2, 0.5,0,0,1024,1024,1024,1024,0,0,0,0,280.5,0,0,96,4.226,4.232,4.232,4.227,0,0,2.934,71.06,53.746289121456,0,41,Motors_Started,
1400,2023-07-26 16:36:50,52.206385692438,0.0867115995000192,0,0,53.746289121456,53.746289121456,0,0,0.45445867596,0.45475395156,23,5,16.96,53.746289121456,0,0,0.45445867596,0,0,0,280.3, 4.2, 0.5,0,0,1024,1024,1024,1024,0,0,0,0,280.5,0,0,96,4.226,4.232,4.232,4.227,0,0,2.934,71.06,53.746289121456,0,41,Motors_Started,
1600,2023-07-26 16:36:51,52.2063858311566,0.0867116676343882,0,0,53.746289121456,53.746289121456,0,0,0.50731300836,0.50760828396,23,5,16.96,53.746289121456,0,0,0.50731300836,0,0,0,280.2, 4.2, 0.5,0,0,1024,1024,1024,1024,0,0,0,0,280.5,0,0,96,4.226,4.232,4.232,4.227,0,0,2.934,71.06,53.746289121456,0,11,AutoTakeoff,
1800,2023-07-26 16:36:51,52.2063859291556,0.0867116949966517,0,0,53.746289121456,53.746289121456,0,0,0.54330054232,0.543881251,23,5,16.96,53.746289121456,0,0,0.54330054232,0,0,0,280.3, 4.2, 0.5,0,0,1024,1024,1024,1024,0,0,0,0,280.5,0,0,96,4.226,4.232,4.232,4.227,0,0,2.934,71.06,53.746289121456,0,11,AutoTakeoff,
2000,2023-07-26 16:36:51,52.2063860510081,0.0867117466142334,0,0,53.746289121456,53.746289121456,0,0,0.5892060556,0.589813011,23,5,16.96,53.746289121456,0,0,0.5892060556,0,0,0,280.1, 2.1, 0.6,0,0,1024,1024,1024,1024,0,0,0,0,280.5,0,0,96,4.226,4.232,4.232,4.227,0,0,2.934,71.06,53.746289121456,0,11,AutoTakeoff,
2200,2023-07-26 16:36:51,52.2063862339813,0.0867118234980263,0,0,53.746289121456,53.746289121456,0,0,0.65810041476,0.65875002108,23,5,17.069,53.746289121456,0,0,0.65810041476,0,0,-0.447388,280.9, -1.9, -0.5,0,0,1024,1024,1024,1024,0,0,0,0,280.5,0,0,96,4.227,4.229,4.223,4.216,0,0,3.589,71.24,53.746289121456,0,11,AutoTakeoff,
2400,2023-07-26 16:36:51,52.2063864543854,0.0867117306653635,0.328084,0.328084,53.746289121456,54.074373121456,0.328084,0,0.7307086848,0.741797924,23,5,17.069,54.074373121456,0.328084,0,0.7307086848,0,0,-0.894776,280.6, 0.8, -0.9,0,0,1024,1024,1024,1024,0,0,0,0,280.5,0,0,96,4.227,4.229,4.223,4.216,0,0,3.589,71.24,54.074373121456,0.328084,11,AutoTakeoff,
2600,2023-07-26 16:36:52,52.2063866252631,0.0867115845996123,0.656168,0.656168,53.746289121456,54.402457121456,0.328084,0,0.78548887028,0.81217850368,23,5,17.069,54.402457121456,0.656168,0,0.78548887028,0,0,-0.894776,280.6, 1.5, -0.4,0,0,1024,1024,1607,1024,0,0,88,0,280.5,0,0,96,4.227,4.229,4.223,4.216,0,0,3.589,71.24,54.402457121456,0.656168,11,AutoTakeoff,
2800,2023-07-26 16:36:52,52.2063868112325,0.0867115753844961,0.656168,0.656168,53.746289121456,54.402457121456,0.984252,0,0.85215225824,0.88006236412,24,5,17.069,54.402457121456,0.656168,0,0.85215225824,0,0,-0.894776,280.6, 0.9, -1.7,0,0,1024,1024,1684,1061,0,0,100,6,280.5,0,0,96,4.227,4.229,4.223,4.216,0,0,3.589,71.24,54.402457121456,0.656168,11,AutoTakeoff,
3000,2023-07-26 16:36:52,52.2063869950731,0.08671160674053,1.312336,1.312336,53.746289121456,55.058625121456,1.312336,0,0.9195210268,0.94750003032,23,5,17.069,55.058625121456,1.312336,0,0.9195210268,0,0,-1.11847,280.4, 0.7, -2.6,0,0,1024,1024,1684,1052,0,0,100,4,280.5,0,0,96,4.227,4.229,4.223,4.216,0,0,3.589,71.24,55.058625121456,1.312336,11,AutoTakeoff,
3200,2023-07-26 16:36:52,52.2063871259273,0.0867116840297286,1.64042,1.64042,53.746289121456,55.386709121456,1.968504,0,0.96934386304,0.99827431016,24,5,16.751,55.386709121456,1.64042,0,0.96934386304,0,0,-2.684328,281.1, 0.7, -1.8,0,0,1024,1024,1684,1045,0,0,100,3,280.5,0,0,96,4.175,4.163,4.149,4.141,0,0,6.34,71.06,55.386709121456,1.64042,11,AutoTakeoff,"Home Point updated (Code: 3000001)"
3400,2023-07-26 16:36:52,52.2063871532332,0.08671186548897,2.952756,2.952756,53.746289121456,56.699045121456,2.952756,0,0.98634845676,1.04005252672,24,5,16.751,56.699045121456,2.952756,0,0.98634845676,0,0,-4.697574,281.2, -0.7, -1.2,0,0,1024,1024,1684,1045,0,0,100,3,280.6,0,0,96,4.175,4.163,4.149,4.141,0,0,6.34,71.06,56.699045121456,2.952756,11,AutoTakeoff,
3600,2023-07-26 16:36:53,52.2063871728525,0.0867120094726484,4.92126,4.92126,53.746289121456,58.667549121456,4.92126,0,1.0001476698,1.0730315304,24,5,16.751,58.667549121456,4.92126,0,1.0001476698,0,0,-7.158208,281.1, -0.6, 0.1,0,0,1024,1024,1622,1024,0,0,91,0,280.6,0,0,96,4.175,4.163,4.149,4.141,0,0,6.34,71.06,58.667549121456,4.92126,6,P-GPS,
3800,2023-07-26 16:36:53,52.206387381505,0.0867122466611939,7.545932,7.545932,53.746289121456,61.292221121456,7.545932,0.223694,1.08683402428,1.16580712392,24,5,16.751,61.292221121456,7.545932,0.223694,1.08683402428,0.223694,0,-9.171454,281.8, -0.7, -2.5,0,0,1024,1024,1631,1027,0,0,92,0,280.5,0,0,96,4.175,4.163,4.149,4.141,0,0,6.34,71.06,61.292221121456,7.545932,6,P-GPS,
4000,2023-07-26 16:36:53,52.2063876244904,0.0867125406537182,11.154856,11.154856,53.746289121456,64.901145121456,10.498688,0,1.1900919016,1.27617130068,24,5,16.751,64.901145121456,11.154856,0.223694,1.1900919016,0,0,-10.961006,281.9, -2.4, -5.5,0,0,1024,1024,1024,1024,0,0,0,0,280.5,-0.3,0,96,4.175,4.163,4.149,4.141,0,0,6.34,71.06,64.901145121456,11.154856,6,P-GPS,
4200,2023-07-26 16:36:53,52.2063877847891,0.0867127568887304,15.091864,15.091864,53.746289121456,68.838153121456,13.779528,0,1.260416707,1.35205384904,24,5,16.369,68.838153121456,15.091864,0.223694,1.260416707,0,0,-10.513618,281.4, -3.5, -5.4,0,0,1024,1024,1024,1024,0,0,0,0,280.5,-2.4,0,96,4.073,4.074,4.073,4.066,0,0,11.28,70.88,68.838153121456,15.091864,6,P-GPS,
4400,2023-07-26 16:36:53,52.2063878601704,0.0867128256766413,18.372704,18.372704,53.746289121456,72.118993121456,16.732284,0,1.29135830904,1.38356631724,24,5,16.369,72.118993121456,18.372704,0.223694,1.29135830904,0,0,-8.500372,281.3, -2.9, -4.8,0,0,1024,1024,1024,1024,0,0,0,0,280.5,-5.1,0,96,4.073,4.074,4.073,4.066,0,0,11.28,70.88,72.118993121456,18.372704,6,P-GPS,
4600,2023-07-26 16:36:54,52.2063878619063,0.0867128591138743,20.013124,20.013124,53.746289121456,73.759413121456,18.700788,0,1.29434387344,1.39106631748,24,5,16.369,73.759413121456,20.013124,0.223694,1.29434387344,0,0,-6.487126,281.1, -2.7, -4.9,0,0,1024,1024,1024,1024,0,0,0,0,280.5,-8,0,96,4.073,4.074,4.073,4.066,0,0,11.28,70.88,73.759413121456,20.013124,6,P-GPS,
4800,2023-07-26 16:36:54,52.2063879480926,0.0867128917219478,20.997376,20.997376,53.746289121456,74.743665121456,20.341208,0,1.32646657788,1.42334650224,24,5,16.369,74.743665121456,20.997376,0.223694,1.32646657788,0,0,-4.026492,284.2, -3, -5.3,0,0,1024,1024,1024,1024,0,0,0,0,280.5,-10.9,0,96,4.073,4.074,4.073,4.066,0,0,11.28,70.88,74.743665121456,20.997376,6,P-GPS,
5000,2023-07-26 16:36:54,52.2063882652011,0.0867128796978244,21.653544,21.653544,53.746289121456,75.399833121456,21.32546,0,1.43580057088,1.5390748524,24,5,16.369,75.399833121456,21.653544,0.223694,1.43580057088,0,0,-1.565858,286.6, -2.6, -5.8,0,0,1024,1024,1024,1024,0,0,0,0,280.5,-13.8,0,96,4.073,4.074,4.073,4.066,0,0,11.28,70.88,75.399833121456,21.653544,6,P-GPS,
5200,2023-07-26 16:36:54,52.206388584931,0.086712808472237,21.981628,21.981628,53.746289121456,75.727917121456,21.653544,0,1.54346133548,1.65681107664,24,5,16.828,75.727917121456,21.981628,0.223694,1.54346133548,0,0,-0.223694,287.9, -1.7, -4.9,0,0,1024,1024,1024,1024,0,0,0,0,280.5,-16.7,0,95,4.219,4.226,4.228,4.225,0,0,8.993,71.06,75.727917121456,21.981628,6,P-GPS,
5400,2023-07-26 16:36:54,52.2063888674463,0.0867127061308884,21.981628,21.981628,53.746289121456,75.727917121456,21.653544,0,1.63766737524,1.76239506952,24,5,16.828,75.727917121456,21.981628,0.223694,1.63766737524,0,0,0,288.9, -1.7, -3.7,0,0,1024,1024,1024,1024,0,0,0,0,280.6,-19.7,0,95,4.219,4.226,4.228,4.225,0,0,8.993,71.06,75.727917121456,21.981628,6,P-GPS,
5600,2023-07-26 16:36:55,52.2063891801942,0.0867125790860037,21.981628,21.981628,53.746289121456,75.727917121456,21.653544,0,1.74285110564,1.87998365596,23,5,16.828,75.727917121456,21.981628,0.223694,1.74285110564,0,0,0,289.6, -1.8, -3.7,0,0,1024,1024,1024,1024,0,0,0,0,280.6,-22.6,0,95,4.219,4.226,4.228,4.225,0,0,8.993,71.06,75.727917121456,21.981628,6,P-GPS,
5800,2023-07-26 16:36:55,52.2063894550228,0.0867124403909475,21.981628,21.981628,53.746289121456,75.727917121456,21.653544,0,1.83545281464,1.9849410084,23,5,16.828,75.727917121456,21.981628,0.223694,1.83545281464,0,0,0,288.6, -1.1, -3.7,0,0,1024,1024,1024,1024,0,0,0,0,280.6,-25.5,0,95,4.219,4.226,4.228,4.225,0,0,8.993,71.06,75.727917121456,21.981628,6,P-GPS,
6000,2023-07-26 16:36:55,52.2063896727358,0.0867123454159253,21.981628,21.981628,53.746289121456,75.727917121456,21.653544,0,1.91023956244,2.06716213964,24,5,16.828,75.727917121456,21.981628,0.223694,1.91023956244,0,0,0,287.1, -0.8, -4.6,0,0,1024,1024,1024,1024,0,0,0,0,280.5,-28.4,0,95,4.219,4.226,4.228,4.225,0,0,8.993,71.06,75.727917121456,21.981628,6,P-GPS,
6200,2023-07-26 16:36:55,52.2063897701609,0.0867123010545814,21.981628,21.981628,53.746289121456,75.727917121456,21.653544,0,1.94383864488,2.10406502796,24,5,16.719,75.727917121456,21.981628,0.223694,1.94383864488,0,0,0,286.4, -1.2, -4.2,0,0,1024,1024,1024,1024,0,0,0,0,280.5,-31.3,0,95,4.168,4.175,4.173,4.17,0,0,5.664,71.24,75.727917121456,21.981628,6,P-GPS,
6400,2023-07-26 16:36:55,52.2063897537296,0.0867122473409474,21.981628,21.981628,53.746289121456,75.727917121456,21.981628,0.223694,1.93614179424,2.1174869444,24,5,16.719,75.727917121456,21.981628,0.223694,1.94383864488,-0.223694,0,0,286.5, -1, -3.2,0,0,1024,1024,1024,1024,0,0,0,0,280.5,-34.2,0,95,4.168,4.175,4.173,4.17,0,0,5.664,71.24,75.727917121456,21.981628,6,P-GPS,
6600,2023-07-26 16:36:55,52.2063896777967,0.0867122160967496,21.981628,21.981628,53.746289121456,75.727917121456,21.653544,0.223694,1.90772315816,2.14605977996,24,5,16.719,75.727917121456,21.981628,0.223694,1.94383864488,-0.223694,0,0,286.5, -1.7, -2,0,0,1024,1024,1024,1024,0,0,0,0,280.5,-37.1,0,95,4.168,4.175,4.173,4.17,0,0,5.664,71.24,75.727917121456,21.981628,6,P-GPS,
6800,2023-07-26 16:36:56,52.2063896568678,0.0867121605954862,22.309712,22.309712,53.746289121456,76.056001121456,21.981628,0,1.8984252576,2.1606299904,24,5,16.719,76.056001121456,22.309712,0.223694,1.94383864488,0,0,0,286.8, -1.9, -1.3,0,0,1024,1024,1024,1024,0,0,0,0,280.6,-40,0,95,4.168,4.175,4.173,4.17,0,0,5.664,71.24,76.056001121456,22.309712,6,P-GPS,
7000,2023-07-26 16:36:56,52.2063897099591,0.0867120679655263,21.981628,21.981628,53.746289121456,75.727917121456,21.653544,0,1.91492132112,2.18898629052,23,5,16.719,76.056001121456,22.309712,0.223694,1.94383864488,0,0,0,286.2, 0.3, -2.8,0,0,1024,1024,1024,1024,0,0,0,0,280.5,-42.9,0,95,4.168,4.175,4.173,4.17,0,0,5.664,71.24,75.727917121456,21.981628,6,P-GPS,
7200,2023-07-26 16:36:56,52.2063897434878,0.086712176171278,21.981628,21.981628,53.746289121456,75.727917121456,21.653544,0,1.93021003552,2.21609915228,23,5,16.715,76.056001121456,22.309712,0.223694,1.94383864488,0,0,0,286.6, -2.5, -2.4,0,0,1024,1024,1024,1024,0,0,0,0,280.6,-44.5,0,95,4.177,4.184,4.179,4.177,0,0,7.207,71.42,75.727917121456,21.981628,6,P-GPS,
7400,2023-07-26 16:36:56,52.2063898201874,0.08671227937324,21.981628,21.981628,53.746289121456,75.727917121456,21.653544,0,1.9611713226,2.25236883848,23,5,16.715,76.056001121456,22.309712,0.223694,1.9611713226,0,0,0,286.7, -1.8, -2.2,0,0,1024,1024,1024,1024,0,0,0,0,280.6,-44.7,0,95,4.177,4.184,4.179,4.177,0,0,7.207,71.42,75.727917121456,21.981628,6,P-GPS,
7600,2023-07-26 16:36:56,52.2063899511369,0.086712352588286,22.309712,22.309712,53.746289121456,76.056001121456,21.653544,0,2.01084652104,2.3028708086,23,5,16.715,76.056001121456,22.309712,0.223694,2.01084652104,0,0,0,286.7, 0, -3.7,0,0,1024,1024,1024,1024,0,0,0,0,280.6,-44.7,0,95,4.177,4.184,4.179,4.177,0,0,7.207,71.42,76.056001121456,22.309712,6,P-GPS,
7800,2023-07-26 16:36:57,52.2063900782141,0.0867124508747039,22.309712,22.309712,53.746289121456,76.056001121456,21.653544,0,2.06004599768,2.35417986536,23,5,16.715,76.056001121456,22.309712,0.223694,2.06004599768,0,0,0,286.5, -1.3, -5.4,0,0,1024,1024,1024,1024,0,0,0,0,280.6,-44.7,0,95,4.177,4.184,4.179,4.177,0,0,7.207,71.42,76.056001121456,22.309712,6,P-GPS,
8000,2023-07-26 16:36:57,52.2063900867018,0.0867125747366296,21.981628,21.981628,53.746289121456,75.727917121456,21.653544,0,2.06764114228,2.38204732032,23,5,16.715,76.056001121456,22.309712,0.223694,2.06764114228,0,0,0,286.3, -0.8, -4.7,0,0,1024,1024,1024,1024,0,0,0,0,280.6,-44.7,0,95,4.177,4.184,4.179,4.177,0,0,7.207,71.42,75.727917121456,21.981628,6,P-GPS,
8200,2023-07-26 16:36:57,52.2063899670071,0.0867127931777827,21.981628,21.981628,53.746289121456,75.727917121456,21.653544,0,2.0336942908,2.44756241428,23,5,16.673,76.056001121456,22.309712,0.223694,2.06764114228,0,0,0,286.6, -3.2, -3.5,0,0,1024,1024,1024,1024,0,0,0,0,280.5,-44.7,0,95,4.167,4.177,4.178,4.176,0,0,7.146,71.42,75.727917121456,21.981628,6,P-GPS,
8400,2023-07-26 16:36:57,52.2063898791084,0.0867129438157064,21.981628,21.981628,53.746289121456,75.727917121456,21.653544,0,2.0092848412,2.49407160212,23,5,16.673,76.056001121456,22.309712,0.223694,2.06764114228,0,0,0,287, -4.8, -0.8,0,0,1024,1024,1024,1024,0,0,0,0,280.6,-44.7,0,95,4.167,4.177,4.178,4.176,0,0,7.146,71.42,75.727917121456,21.981628,6,P-GPS,
8600,2023-07-26 16:36:58,52.2063900471655,0.0867129643813084,22.309712,22.309712,53.746289121456,76.056001121456,21.981628,0.223694,2.0701608274,2.55555782456,23,5,16.673,76.056001121456,22.309712,0.223694,2.0701608274,0.223694,0,0,286.8, -0.6, -4.8,0,0,1024,1024,1024,1024,0,0,0,0,280.5,-44.7,0,95,4.167,4.177,4.178,4.176,0,0,7.146,71.42,76.056001121456,22.309712,6,P-GPS,
8800,2023-07-26 16:36:58,52.20639022682,0.0867129829775475,22.309712,22.309712,53.746289121456,76.056001121456,21.981628,0,2.13511817856,2.62123696052,23,5,16.673,76.056001121456,22.309712,0.223694,2.13511817856,0,0,0,286.4, -0.3, -6,0,0,1024,1024,1024,1024,0,0,0,0,280.6,-44.7,0,95,4.167,4.177,4.178,4.176,0,0,7.146,71.42,76.056001121456,22.309712,6,P-GPS,
9000,2023-07-26 16:36:58,52.2063902611198,0.0867130608661174,22.309712,22.309712,53.746289121456,76.056001121456,21.981628,0,2.15102697172,2.64268053076,23,5,16.673,76.056001121456,22.309712,0.223694,2.15102697172,0,0,0,286.3, -1.5, -4.9,0,0,1024,1024,1024,1024,0,0,0,0,280.5,-44.7,0,95,4.167,4.177,4.178,4.176,0,0,7.146,71.42,76.056001121456,22.309712,6,P-GPS,
9200,2023-07-26 16:36:58,52.2063901844138,0.0867130703354859,22.309712,22.309712,53.746289121456,76.056001121456,21.981628,0,2.12416017296,2.67074811696,23,5,16.664,76.056001121456,22.309712,0.223694,2.15102697172,0,0,0,286.4, -2, -2.3,0,0,1024,1024,1024,1024,0,0,0,0,280.6,-44.7,0,95,4.162,4.17,4.171,4.174,0,0,7.141,71.6,76.056001121456,22.309712,6,P-GPS,
9400,2023-07-26 16:36:58,52.2063901825591,0.0867129906007473,22.309712,22.309712,53.746289121456,76.056001121456,21.981628,0,2.11968182636,2.68858932488,24,5,16.664,76.056001121456,22.309712,0.223694,2.15102697172,0,0,0,286.4, -1, -2.1,0,0,1024,1024,1024,1024,0,0,0,0,280.6,-45.6,0,95,4.162,4.17,4.171,4.174,0,0,7.141,71.6,76.056001121456,22.309712,6,P-GPS,
9600,2023-07-26 16:36:59,52.2063902729657,0.0867129113185953,22.309712,22.309712,53.746289121456,76.056001121456,21.981628,0,2.1483432446,2.7260335518,24,5,16.664,76.056001121456,22.309712,0.223694,2.15102697172,0,0,0,286.5, 0, -2.2,0,0,1024,1024,1024,1024,0,0,0,0,280.6,-48,0,95,4.162,4.17,4.171,4.174,0,0,7.141,71.6,76.056001121456,22.309712,6,P-GPS,
9800,2023-07-26 16:36:59,52.2063904583536,0.0867129409988358,22.637796,22.637796,53.746289121456,76.384085121456,21.981628,0,2.215961357,2.7939961524,24,5,16.664,76.384085121456,22.637796,0.223694,2.215961357,0,0,0,286.7, 0.4, -4.1,0,0,1024,1024,1024,1024,0,0,0,0,280.6,-50.8,0,95,4.162,4.17,4.171,4.174,0,0,7.141,71.6,76.384085121456,22.637796,6,P-GPS,
10000,2023-07-26 16:36:59,52.2063906309255,0.0867131042558855,22.637796,22.6049876,53.779097521456,76.384085121456,21.981628,0,2.28497710724,2.86677502612,24,5,16.664,76.384085121456,22.637796,0.223694,2.28497710724,0,0,0,286.4, 0, -5.7,0,0,1024,1024,1024,1024,0,0,0,0,280.5,-53.7,0,95,4.162,4.17,4.171,4.174,0,0,7.141,71.6,76.384085121456,22.637796,6,P-GPS,
10200,2023-07-26 16:36:59,52.206390624783,0.0867133050793651,22.637796,22.6049876,53.779097521456,76.384085121456,21.981628,0,2.29246398412,2.91173237664,24,5,16.678,76.384085121456,22.637796,0.223694,2.29246398412,0,0,0,286.5, -1.5, -4.2,0,0,1024,1024,1024,1024,0,0,0,0,280.5,-56.6,0,95,4.165,4.17,4.167,4.164,0,0,6.968,71.6,76.384085121456,22.637796,6,P-GPS,
10400,2023-07-26 16:36:59,52.2063905515188,0.0867134530122542,22.637796,22.6049876,53.779097521456,76.384085121456,21.981628,0,2.27418314364,2.95425862472,25,5,16.678,76.384085121456,22.637796,0.223694,2.29246398412,0,0,0,286.6, -1.3, -3.3,0,0,1024,1024,1024,1024,0,0,0,0,280.6,-59.5,0,95,4.165,4.17,4.167,4.164,0,0,6.968,71.6,76.384085121456,22.637796,6,P-GPS,
10600,2023-07-26 16:37:00,52.2063904602919,0.086713608438159,22.637796,22.637796,53.746289121456,76.384085121456,21.981628,0,2.25065624,3.002378705,25,5,16.678,76.384085121456,22.637796,0.223694,2.29246398412,0,0,0,286.6, -1.7, -3.1,0,0,1024,1024,1024,1024,0,0,0,0,280.5,-62.4,0,95,4.165,4.17,4.167,4.164,0,0,6.968,71.6,76.384085121456,22.637796,6,P-GPS,
10800,2023-07-26 16:37:00,52.2063903627769,0.0867137433272944,22.637796,22.637796,53.746289121456,76.384085121456,21.981628,0,2.2244423284,3.04901912644,25,5,16.678,76.384085121456,22.637796,0.223694,2.29246398412,0,0,0,286.5, -2.4, -2.5,0,0,1024,1024,1024,1024,0,0,0,0,280.5,-65.3,0,95,4.165,4.17,4.167,4.164,0,0,6.968,71.6,76.384085121456,22.637796,6,P-GPS,
11000,2023-07-26 16:37:00,52.2063903223197,0.0867138211835367,22.637796,22.637796,53.746289121456,76.384085121456,21.981628,0,2.21515427036,3.07184393032,25,5,16.678,76.384085121456,22.637796,0.223694,2.29246398412,0,0,0,287.2, -3.1, -2.2,0,0,1024,1024,1024,1024,0,0,0,0,280.6,-68.2,0,95,4.165,4.17,4.167,4.164,0,0,6.968,71.6,76.384085121456,22.637796,6,P-GPS,
11200,2023-07-26 16:37:00,52.2063904283116,0.0867137625491164,22.637796,22.637796,53.746289121456,76.384085121456,22.309712,0,2.24861227668,3.11267726496,25,5,16.669,76.384085121456,22.637796,0.223694,2.29246398412,0,0,0,286.7, -1.6, -3.3,0,0,1024,1024,1024,1024,0,0,0,0,280.6,-71.2,0,95,4.161,4.168,4.166,4.166,0,0,7.313,71.6,76.384085121456,22.637796,6,P-GPS,
11400,2023-07-26 16:37:00,52.2063906015453,0.0867136066732462,22.637796,22.6049876,53.779097521456,76.384085121456,21.981628,0,2.30036752768,3.18485246412,25,5,16.669,76.384085121456,22.637796,0.223694,2.30036752768,0,0,0,286.4, 0.8, -4.7,0,0,1024,1024,1024,1024,0,0,0,0,280.5,-74.1,0,95,4.161,4.168,4.166,4.166,0,0,7.313,71.6,76.384085121456,22.637796,6,P-GPS,
11600,2023-07-26 16:37:01,52.2063907178068,0.0867135908991202,22.637796,22.6049876,53.779097521456,76.384085121456,21.981628,0,2.34054797516,3.22741808228,25,5,16.669,76.384085121456,22.637796,0.223694,2.34054797516,0,0,0,286.5, 0, -4.9,0,0,1024,1024,1024,1024,0,0,0,0,280.5,-77,0,95,4.161,4.168,4.166,4.166,0,0,7.313,71.6,76.384085121456,22.637796,6,P-GPS,
11800,2023-07-26 16:37:01,52.2063907799726,0.0867136769901657,22.637796,22.6049876,53.779097521456,76.384085121456,21.981628,0,2.36732619124,3.25716545856,25,5,16.669,76.384085121456,22.637796,0.223694,2.36732619124,0,0,0,286.5, -1.5, -4.3,0,0,1024,1024,1024,1024,0,0,0,0,280.5,-79.9,0,95,4.161,4.168,4.166,4.166,0,0,7.313,71.6,76.384085121456,22.637796,6,P-GPS,
12000,2023-07-26 16:37:01,52.2063907610804,0.0867137286863821,22.637796,22.6049876,53.779097521456,76.384085121456,21.981628,0,2.3636155612,3.27062346424,25,5,16.669,76.384085121456,22.637796,0.223694,2.36732619124,0,0,0,286.4, -1, -3.2,0,0,1024,1024,1024,1024,0,0,0,0,280.6,-82.8,0,95,4.161,4.168,4.166,4.166,0,0,7.313,71.6,76.384085121456,22.637796,6,P-GPS,
12200,2023-07-26 16:37:01,52.2063907224672,0.0867138006301668,22.637796,22.6049876,53.779097521456,76.384085121456,21.981628,0,2.35423892048,3.291994856,25,5,16.623,76.384085121456,22.637796,0.223694,2.36732619124,0,0,0,286.4, -1.6, -2.9,0,0,1024,1024,1024,1024,0,0,0,0,280.6,-85.7,0,95,4.154,4.16,4.159,4.16,0,0,7.511,71.78,76.384085121456,22.637796,6,P-GPS,
12400,2023-07-26 16:37:01,52.206390739721,0.0867138587892839,22.637796,22.6049876,53.779097521456,76.384085121456,21.981628,0,2.36379272656,3.3064633604,25,5,16.623,76.384085121456,22.637796,0.223694,2.36732619124,0,0,0,286.4, -1.9, -3.2,0,0,1024,1024,1024,1024,0,0,0,0,280.5,-88.7,0,95,4.154,4.16,4.159,4.16,0,0,7.511,71.78,76.384085121456,22.637796,6,P-GPS,
12600,2023-07-26 16:37:02,52.206390770504,0.0867138745223452,22.637796,22.6049876,53.779097521456,76.384085121456,21.981628,0,2.3755578188,3.3182087676,25,5,16.623,76.384085121456,22.637796,0.223694,2.3755578188,0,0,0,286.6, -1.4, -3.4,0,0,1024,1024,1024,1024,0,0,0,0,280.6,-89.9,0,95,4.154,4.16,4.159,4.16,0,0,7.511,71.78,76.384085121456,22.637796,6,P-GPS,
12800,2023-07-26 16:37:02,52.2063907749609,0.086713901927421,22.637796,22.6049876,53.779097521456,76.384085121456,21.981628,0,2.37878616536,3.3245735972,25,5,16.623,76.384085121456,22.637796,0.223694,2.37878616536,0,0,0,286.5, -1.3, -3,0,0,1024,1024,1024,1024,0,0,0,0,280.5,-89.9,0,95,4.154,4.16,4.159,4.16,0,0,7.511,71.78,76.384085121456,22.637796,6,P-GPS,
13000,2023-07-26 16:37:02,52.2063907720717,0.0867139229858006,22.637796,22.6049876,53.779097521456,76.384085121456,21.981628,0,2.37906175592,3.329396432,25,5,16.623,76.384085121456,22.637796,0.223694,2.37906175592,0,0,0,286.4, -1.9, -3,0,0,1024,1024,1024,1024,0,0,0,0,280.6,-89.9,0,95,4.154,4.16,4.159,4.16,0,0,7.511,71.78,76.384085121456,22.637796,6,P-GPS,
13200,2023-07-26 16:37:02,52.2063907840569,0.0867139563933271,22.637796,22.6049876,53.779097521456,76.384085121456,21.981628,0,2.38532816032,3.3380578496,25,5,16.635,76.384085121456,22.637796,0.223694,2.38532816032,0,0,0,286.8, -2.7, -3,0,0,1024,1024,1024,1024,0,0,0,0,280.6,-90,0,95,4.153,4.162,4.16,4.157,0,0,7.36,71.78,76.384085121456,22.637796,6,P-GPS,
13400,2023-07-26 16:37:02,52.2063908408405,0.0867139068482074,22.637796,22.6049876,53.779097521456,76.384085121456,21.981628,0,2.40221792464,3.361548664,25,5,16.635,76.384085121456,22.637796,0.223694,2.40221792464,0,0,0,286.6, -1.5, -4.1,0,0,1024,1024,1024,1024,0,0,0,0,280.6,-89.9,0,95,4.153,4.162,4.16,4.157,0,0,7.36,71.78,76.384085121456,22.637796,6,P-GPS,
13600,2023-07-26 16:37:02,52.2063908978554,0.0867137813533005,22.637796,22.6049876,53.779097521456,76.384085121456,21.981628,0,2.41486884368,3.3964568016,25,5,16.635,76.384085121456,22.637796,0.223694,2.41486884368,0,0,0,286.7, -0.6, -4.3,0,0,1024,1024,1684,1024,0,0,100,0,280.6,-90,0,95,4.153,4.162,4.16,4.157,0,0,7.36,71.78,76.384085121456,22.637796,6,P-GPS,
13800,2023-07-26 16:37:03,52.2063909432151,0.0867136589697077,22.637796,22.6049876,53.779097521456,76.384085121456,21.981628,0,2.42400270224,3.4284449916,25,5,16.635,76.384085121456,22.637796,0.223694,2.42400270224,0,0,-0.894776,286.4, 0.1, -3.4,0,0,1024,1024,1684,1024,0,0,100,0,280.6,-89.9,0,95,4.153,4.162,4.16,4.157,0,0,7.36,71.78,76.384085121456,22.637796,6,P-GPS,
14000,2023-07-26 16:37:03,52.2063909315255,0.0867136949258731,23.293964,23.2611556,53.779097521456,77.040253121456,22.637796,0,2.42185703288,3.4375329184,25,5,16.635,77.040253121456,23.293964,0.223694,2.42400270224,0,0,-3.131716,286.7, -0.4, -3.4,0,0,1024,1024,1684,1024,0,0,100,0,280.6,-89.9,0,95,4.153,4.162,4.16,4.157,0,0,7.36,71.78,77.040253121456,23.293964,6,P-GPS,
14200,2023-07-26 16:37:03,52.2063908553186,0.0867138638009372,24.6063,24.5734916,53.779097521456,78.352589121456,23.950132,0,2.40472120556,3.4844489304,25,5,16.612,78.352589121456,24.6063,0.223694,2.42400270224,0,0,-5.59235,287.2, -2.3, -3.8,0,0,1024,1024,1622,1024,0,0,91,0,280.6,-90,0,95,4.086,4.087,4.09,4.09,0,0,7.557,71.96,78.352589121456,24.6063,6,P-GPS,
14400,2023-07-26 16:37:03,52.2063906921275,0.0867138573555108,26.574804,26.5419956,53.779097521456,80.321093121456,25.918636,0,2.34699154492,3.5439961764,25,5,16.612,80.321093121456,26.574804,0.223694,2.42400270224,0,0,-8.052984,286.7, -1.8, -3.1,0,0,1132,1024,1024,1024,16,0,0,0,280.6,-89.9,0,95,4.086,4.087,4.09,4.09,0,0,7.557,71.96,80.321093121456,26.574804,6,P-GPS,
14600,2023-07-26 16:37:03,52.2063905384136,0.0867136479573512,28.543308,28.5104996,53.779097521456,82.289597121456,28.543308,0,2.28047579476,3.6170604832,25,5,16.612,82.289597121456,28.543308,0.223694,2.42400270224,0,0,-8.052984,286.7, -1.4, -1.5,0,0,1425,1024,1024,1024,61,0,0,0,280.6,-89.9,0,95,4.086,4.087,4.09,4.09,0,0,7.557,71.96,82.289597121456,28.543308,6,P-GPS,
14800,2023-07-26 16:37:04,52.2063904310295,0.0867134084770402,30.839896,30.839896,53.746289121456,84.586185121456,30.839896,0,2.2291175254,3.683399068,26,5,16.612,84.586185121456,30.839896,0.223694,2.42400270224,0,0,-5.816044,285.2, -2.8, -0.1,0,0,1684,1024,1024,1024,100,0,0,0,280.5,-89.9,0,95,4.086,4.087,4.09,4.09,0,0,7.557,71.96,84.586185121456,30.839896,6,P-GPS,
15000,2023-07-26 16:37:04,52.2063904293932,0.0867130211215057,32.152232,32.152232,53.746289121456,85.898521121456,32.480316,0.4921268,2.20919954576,3.770013244,26,5,16.612,85.898521121456,32.152232,0.4921268,2.42400270224,0.223694,-0.447388,-3.579104,284.3, -22.6, -0.3,0,0,1684,1024,1024,1024,100,0,0,0,280.6,-90,0,95,4.086,4.087,4.09,4.09,0,0,7.557,71.96,85.898521121456,32.152232,6,P-GPS,
15200,2023-07-26 16:37:04,52.2063907004738,0.0867118013029379,32.8084,32.7755916,53.779097521456,86.554689121456,33.136484,1.4987498,2.26843511196,4.0601051168,26,5,16.64,86.554689121456,32.8084,1.4987498,2.42400270224,0.671082,-1.342164,-1.11847,284.9, -29.4, -2,0,0,1684,1024,1024,1024,100,0,0,0,280.5,-90,0,95,4.191,4.202,4.204,4.2,0,0,11.734,71.96,86.554689121456,32.8084,6,P-GPS,
15400,2023-07-26 16:37:04,52.206391343384,0.086708784735486,32.8084,32.7755916,53.779097521456,86.554689121456,33.464568,3.1093466,2.54449811292,4.7742127512,26,5,16.64,86.554689121456,32.8084,3.1093466,2.54449811292,1.11847,-2.908022,0,284.6, -28.8, -2.7,0,0,1684,1024,1024,1024,100,0,0,0,280.5,-90,0,95,4.191,4.202,4.204,4.2,0,0,11.734,71.96,86.554689121456,32.8084,6,P-GPS,
15600,2023-07-26 16:37:04,52.2063930039639,0.0867036205013227,32.8084,32.7755916,53.779097521456,86.554689121456,33.464568,5.4133948,3.5131562804,6.0781498008,26,5,16.64,86.554689121456,32.8084,5.4133948,3.5131562804,2.23694,-4.921268,0,291, -28.6, -3.9,0,0,1684,1024,1024,1024,100,0,0,0,280.6,-90,0,95,4.191,4.202,4.204,4.2,0,0,11.734,71.96,86.554689121456,32.8084,6,P-GPS,
15800,2023-07-26 16:37:05,52.2063948144005,0.0866954856186468,32.8084,32.7427832,53.811905921456,86.554689121456,27.230972,7.5161184,5.1171589564,8.0132548496,26,5,16.64,86.554689121456,32.8084,7.5161184,5.1171589564,2.908022,-6.934514,0,291, -28.6, -6,0,0,1684,1024,1024,1024,100,0,0,0,280.5,-90,0,95,4.191,4.202,4.204,4.2,0,0,11.734,71.96,86.554689121456,32.8084,6,P-GPS,
16000,2023-07-26 16:37:05,52.2063969652432,0.0866846392460413,32.8084,32.7099748,53.844714321456,86.554689121456,27.88714,9.618842,7.4437666424,10.5621394456,26,5,16.64,86.554689121456,32.8084,9.618842,7.4437666424,2.908022,-9.171454,0,288.1, -29, -6.3,0,0,1560,1024,1024,1024,81,0,0,0,280.5,-89.9,0,95,4.191,4.202,4.204,4.2,0,0,11.734,71.96,86.554689121456,32.8084,6,P-GPS,
16200,2023-07-26 16:37:05,52.2063993977896,0.0866710865090569,32.8084,32.6771664,53.877522721456,86.554689121456,28.215224,11.6097186,10.4483599144,13.71965267,26,5,16.574,86.554689121456,32.8084,11.6097186,10.4483599144,3.131716,-11.1847,0,287.2, -22.8, -6.9,0,0,1024,1024,1684,1024,0,0,100,0,280.6,-89.9,0,95,4.135,4.145,4.142,4.139,0,0,6.102,71.96,86.554689121456,32.8084,6,P-GPS,
16400,2023-07-26 16:37:05,52.2064018689684,0.0866557966366109,32.8084,32.644358,53.910331121456,86.554689121456,31.496064,11.7663044,13.8737865332,17.2551514708,26,5,16.574,86.554689121456,32.8084,11.7663044,13.8737865332,2.908022,-11.408394,-0.894776,285.1, 17.8, -3.1,0,0,1024,1024,1684,1024,0,0,100,0,280.5,-90,0,95,4.135,4.145,4.142,4.139,0,0,6.102,71.96,86.554689121456,32.8084,6,P-GPS,
16600,2023-07-26 16:37:06,52.2064039133351,0.0866428195128114,33.464568,33.300526,53.910331121456,87.210857121456,32.480316,8.5227414,16.8086947636,20.2510177084,26,5,16.574,87.210857121456,33.464568,11.7663044,16.8086947636,2.013246,-8.276678,-3.131716,284.1, 29.9, -1.8,0,0,1024,1024,1684,1024,0,0,100,0,280.6,-90,0,95,4.135,4.145,4.142,4.139,0,0,6.102,71.96,87.210857121456,33.464568,6,P-GPS,
16800,2023-07-26 16:37:06,52.2064053247828,0.0866348448751613,34.44882,34.2519696,53.943139521456,88.195109121456,33.464568,4.4515106,18.6448824864,22.1068904712,26,5,16.574,88.195109121456,34.44882,11.7663044,18.6448824864,1.342164,-4.250186,-5.144962,284.1, 29.2, -2.7,0,0,1024,1024,1684,1024,0,0,100,0,280.5,-89.9,0,95,4.135,4.145,4.142,4.139,0,0,6.102,71.96,88.195109121456,34.44882,6,P-GPS,
17000,2023-07-26 16:37:06,52.2064057752267,0.0866317234959198,36.745408,36.5485576,53.943139521456,90.491697121456,31.496064,1.006623,19.3496397268,22.8238852448,26,5,16.574,90.491697121456,36.745408,11.7663044,19.3496397268,0.447388,-0.894776,-7.605596,286.3, 10.3, -5.2,0,0,1024,1024,1684,1024,0,0,100,0,280.6,-89.9,0,95,4.135,4.145,4.142,4.139,0,0,6.102,71.96,90.491697121456,36.745408,6,P-GPS,
17200,2023-07-26 16:37:06,52.2064057122214,0.0866308746392937,40.354332,40.1574816,53.943139521456,94.100621121456,34.120736,0.447388,19.5145347452,23.0150597916,26,5,16.289,94.100621121456,40.354332,11.7663044,19.5145347452,0,-0.447388,-9.618842,287.6, -1.3, -6.2,0,0,1024,1024,1684,1024,0,0,100,0,280.5,-90,0,95,4.029,4.029,4.024,4.02,0,0,10.73,71.96,94.100621121456,40.354332,6,P-GPS,
17400,2023-07-26 16:37:06,52.2064053602392,0.0866300160319615,43.963256,43.7664056,53.943139521456,97.709545121456,40.026248,0.671082,19.6407814684,23.2460309276,26,5,16.289,97.709545121456,43.963256,11.7663044,19.6407814684,0,-0.671082,-11.855782,287.8, -1.8, -2.7,0,0,1024,1024,1684,1024,0,0,100,0,280.6,-90,0,95,4.029,4.029,4.024,4.02,0,0,10.73,71.96,97.709545121456,43.963256,6,P-GPS,
17600,2023-07-26 16:37:07,52.2064048772603,0.0866290720657605,48.556432,48.3595816,53.943139521456,102.30272112146,43.635172,0.671082,19.7686029948,23.520998128,26,5,16.289,102.30272112146,48.556432,11.7663044,19.7686029948,0,-0.671082,-12.974252,287.8, -0.6, -2.9,0,0,1024,1024,1684,1024,0,0,100,0,280.6,-90,0,95,4.029,4.029,4.024,4.02,0,0,10.73,71.96,102.30272112146,48.556432,6,P-GPS,
17800,2023-07-26 16:37:07,52.2064043812726,0.0866281833535603,52.49344,52.329398,53.910331121456,106.23972912146,47.900264,0.447388,19.886155492,23.7897317324,26,5,16.289,106.23972912146,52.49344,11.7663044,19.886155492,0,-0.447388,-13.42164,287.8, -0.5, -2.3,0,0,1024,1024,1684,1024,0,0,100,0,280.5,-90,0,95,4.029,4.029,4.024,4.02,0,0,10.73,71.96,106.23972912146,52.49344,6,P-GPS,
18000,2023-07-26 16:37:07,52.2064039052008,0.0866275568200216,56.430448,56.266406,53.910331121456,110.17673712146,51.837272,0.447388,19.9543641556,24.0128944692,26,5,16.289,110.17673712146,56.430448,11.7663044,19.9543641556,0,-0.447388,-13.42164,287.9, 0, -2.9,0,0,1024,1024,1684,1024,0,0,100,0,280.6,-90,0,95,4.029,4.029,4.024,4.02,0,0,10.73,71.96,110.17673712146,56.430448,6,P-GPS,
18200,2023-07-26 16:37:07,52.2064035293555,0.0866271819245963,60.039372,59.87533,53.910331121456,113.78566112146,56.102364,0.223694,19.9847119256,24.1736228208,26,5,15.994,113.78566112146,60.039372,11.7663044,19.9847119256,0,-0.223694,-13.42164,287.7, -1.2, -1.8,0,0,1024,1024,1684,1024,0,0,100,0,280.6,-89.9,0,95,4.06,4.069,4.07,4.071,0,0,16.379,72.14,113.78566112146,60.039372,6,P-GPS,
18400,2023-07-26 16:37:07,52.2064033438519,0.0866269716798028,63.97638,63.812338,53.910331121456,117.72266912146,60.367456,0,20.0054468344,24.2560047132,26,5,15.994,117.72266912146,63.97638,11.7663044,20.0054468344,0,0,-13.42164,287.6, -1.1, -2.5,0,0,1024,1024,1684,1024,0,0,100,0,280.6,-90,0,95,4.06,4.069,4.07,4.071,0,0,16.379,72.14,117.72266912146,63.97638,6,P-GPS,
18600,2023-07-26 16:37:08,52.2064032896319,0.0866269617823119,67.25722,67.093178,53.910331121456,121.00350912146,64.304464,0,20.0007224248,24.275919412,26,5,15.994,121.00350912146,67.25722,11.7663044,20.0054468344,0,0,-13.197946,287.9, -1.2, -4,0,0,1024,1024,1684,1024,0,0,100,0,280.5,-90,0,95,4.06,4.069,4.07,4.071,0,0,16.379,72.14,121.00350912146,67.25722,6,P-GPS,
18800,2023-07-26 16:37:08,52.2064033123557,0.0866270812931161,71.194228,71.030186,53.910331121456,124.94051712146,68.241472,0,19.9784783296,24.3039049772,26,5,15.994,124.94051712146,71.194228,11.7663044,20.0054468344,0,0,-13.197946,287.8, -0.8, -4.4,0,0,1024,1024,1684,1024,0,0,100,0,280.6,-89.9,0,95,4.06,4.069,4.07,4.071,0,0,16.379,72.14,124.94051712146,71.194228,6,P-GPS,
19000,2023-07-26 16:37:08,52.2064034576226,0.0866272693943707,75.45932,75.295278,53.910331121456,129.20560912146,72.17848,0.223694,19.9572841032,24.371555898,26,5,15.994,129.20560912146,75.45932,11.7663044,20.0054468344,0.223694,0,-13.197946,287.7, -0.3, -5.5,0,0,1024,1024,1684,1024,0,0,100,0,280.6,-89.9,0,95,4.06,4.069,4.07,4.071,0,0,16.379,72.14,129.20560912146,75.45932,6,P-GPS,
19200,2023-07-26 16:37:08,52.2064036319657,0.0866275499910325,79.724412,79.56037,53.910331121456,133.47070112146,76.115488,0.223694,19.9206371204,24.4608931712,26,5,16.312,133.47070112146,79.724412,11.7663044,20.0054468344,0.223694,0,-13.42164,288.1, -1.6, -7.6,0,0,1024,1024,1684,1024,0,0,100,0,280.6,-90,0,95,4.063,4.067,4.067,4.059,0,0,12.016,72.32,133.47070112146,79.724412,6,P-GPS,
19400,2023-07-26 16:37:08,52.2064037684066,0.086627696027951,83.66142,83.497378,53.910331121456,137.40770912146,80.052496,0,19.9075793772,24.5204404172,26,5,16.312,137.40770912146,83.66142,11.7663044,20.0054468344,0,0,-13.42164,287.7, -0.3, -8.3,0,0,1024,1024,1684,1024,0,0,100,0,280.6,-90,0,95,4.063,4.067,4.067,4.059,0,0,12.016,72.32,137.40770912146,83.66142,6,P-GPS,
19600,2023-07-26 16:37:09,52.2064038494174,0.0866278087027763,87.270344,87.106302,53.910331121456,141.01663312146,83.66142,0,19.8944888256,24.5592527544,26,5,16.312,141.01663312146,87.270344,11.7663044,20.0054468344,0,0,-13.42164,287.8, 0.4, -7.6,0,0,1024,1024,1681,1024,0,0,100,0,280.6,-90,0,95,4.063,4.067,4.067,4.059,0,0,12.016,72.32,141.01663312146,87.270344,6,P-GPS,
19800,2023-07-26 16:37:09,52.2064038922241,0.08662805948115,90.879268,90.715226,53.910331121456,144.62555712146,83.66142,0,19.8476384304,24.6174876644,26,5,16.312,144.62555712146,90.879268,11.7663044,20.0054468344,0,0,-13.42164,287.8, -1.2, -6.8,0,0,1024,1024,1678,1024,0,0,99,0,280.6,-90,0,95,4.063,4.067,4.067,4.059,0,0,12.016,72.32,144.62555712146,90.879268,6,P-GPS,
20000,2023-07-26 16:37:09,52.2064039236583,0.0866283594813673,94.488192,94.32415,53.910331121456,148.23448112146,83.66142,0,19.7890754364,24.685532286,26,5,16.312,148.23448112146,94.488192,11.7663044,20.0054468344,0,0,-13.42164,287.9, -2.6, -7.3,0,0,1024,1024,1678,1024,0,0,99,0,280.6,-90,0,95,4.063,4.067,4.067,4.059,0,0,12.016,72.32,148.23448112146,94.488192,6,P-GPS,
20200,2023-07-26 16:37:09,52.206403955328,0.0866286336824047,98.097116,97.933074,53.910331121456,151.84340512146,83.66142,0,19.7359914452,24.7479010544,26,5,16.288,151.84340512146,98.097116,11.7663044,20.0054468344,0,0,-13.197946,287.9, -3, -7.4,0,0,1024,1024,1675,1024,0,0,99,0,280.6,-90,0,95,4.08,4.086,4.085,4.082,0,0,12.291,72.5,151.84340512146,98.097116,6,P-GPS,
20400,2023-07-26 16:37:09,52.2064039026136,0.0866288268232716,101.70604,101.541998,53.910331121456,155.45232912146,83.66142,0,19.6887801576,24.7951779588,26,5,16.288,155.45232912146,101.70604,11.7663044,20.0054468344,0,0,-13.197946,288, -3.5, -6.2,0,0,1024,1024,1675,1024,0,0,99,0,280.6,-90,0,95,4.08,4.086,4.085,4.082,0,0,12.291,72.5,155.45232912146,101.70604,6,P-GPS,
20600,2023-07-26 16:37:10,52.2064038848266,0.0866289044654527,104.98688,104.822838,53.910331121456,158.73316912146,83.66142,0,19.67027622,24.8137147048,26,5,16.288,158.73316912146,104.98688,11.7663044,20.0054468344,0,0,-13.197946,287.8, -2.6, -6,0,0,1024,1024,1674,1024,0,0,98,0,280.6,-89.9,0,95,4.08,4.086,4.085,4.082,0,0,12.291,72.5,158.73316912146,104.98688,6,P-GPS,
20800,2023-07-26 16:37:10,52.206403866986,0.0866289697217907,108.595804,108.431762,53.910331121456,162.34209312146,83.66142,0,19.6542985292,24.8296923956,26,5,16.288,162.34209312146,108.595804,11.7663044,20.0054468344,0,0,-12.974252,288.1, -3.3, -6,0,0,1024,1024,1669,1024,0,0,98,0,280.6,-90,0,95,4.08,4.086,4.085,4.082,0,0,12.291,72.5,162.34209312146,108.595804,6,P-GPS,
21000,2023-07-26 16:37:10,52.2064037922269,0.0866288815949794,111.876644,111.712602,53.910331121456,165.62293312146,83.66142,0,19.6629271384,24.863353814,26,5,16.288,165.62293312146,111.876644,11.7663044,20.0054468344,0,0,-12.974252,287.8, -2.7, -5.1,0,0,1024,1024,1669,1024,0,0,98,0,280.6,-90,0,95,4.08,4.086,4.085,4.082,0,0,12.291,72.5,165.62293312146,111.876644,6,P-GPS,
21200,2023-07-26 16:37:10,52.206403683305,0.0866287970609014,115.157484,114.993442,53.910331121456,168.90377312146,83.66142,0.223694,19.6664048288,24.9073498784,26,5,16.338,168.90377312146,115.157484,11.7663044,20.0054468344,-0.223694,0,-12.750558,287.9, -3, -3.8,0,0,1024,1024,1666,1024,0,0,97,0,280.6,-90,0,95,4.091,4.099,4.102,4.097,0,0,10.985,72.68,168.90377312146,115.157484,6,P-GPS,
21400,2023-07-26 16:37:10,52.2064035757068,0.0866286584680704,118.438324,118.274282,53.910331121456,172.18461312146,83.66142,0,19.681431076,24.95734988,26,5,16.338,172.18461312146,118.438324,11.7663044,20.0054468344,0,0,-12.526864,287.8, -1.6, -4.7,0,0,1024,1024,1668,1024,0,0,98,0,280.6,-90,0,95,4.091,4.099,4.102,4.097,0,0,10.985,72.68,172.18461312146,118.438324,6,P-GPS,
21600,2023-07-26 16:37:10,52.2064034523411,0.0866285667694951,122.047248,121.883206,53.910331121456,175.79353712146,83.66142,0,19.6847775328,25.0068249472,26,5,16.338,175.79353712146,122.047248,11.7663044,20.0054468344,0,0,-12.526864,287.6, -1.8, -2.5,0,0,1024,1024,1663,1024,0,0,97,0,280.6,-89.9,0,95,4.091,4.099,4.102,4.097,0,0,10.985,72.68,175.79353712146,122.047248,6,P-GPS,
21800,2023-07-26 16:37:11,52.2064034305255,0.0866286850151539,125.984256,125.820214,53.910331121456,179.73054512146,83.66142,0,19.6572184768,25.0344168116,26,5,16.338,179.73054512146,125.984256,11.7663044,20.0054468344,0,0,-12.30317,288.1, -2.8, -4.7,0,0,1024,1024,1383,1024,0,0,54,0,280.6,-89.9,0,95,4.091,4.099,4.102,4.097,0,0,10.985,72.68,179.73054512146,125.984256,6,P-GPS,
22000,2023-07-26 16:37:11,52.2064034915347,0.0866289426295064,129.59318,129.429138,53.910331121456,183.33946912146,83.66142,0,19.6111554832,25.0961950288,26,5,16.338,183.33946912146,129.59318,11.7663044,20.0054468344,0,0,-11.855782,288.2, -5, -5.9,0,0,1024,1024,1024,1024,0,0,0,0,280.6,-89.9,0,95,4.091,4.099,4.102,4.097,0,0,10.985,72.68,183.33946912146,129.59318,6,P-GPS,
22200,2023-07-26 16:37:11,52.2064036050227,0.086629220877611,133.202104,133.038062,53.910331121456,186.94839312146,83.66142,0,19.5676843532,25.1708997556,26,5,16.417,186.94839312146,133.202104,11.7663044,20.0054468344,0,0,-10.06623,288.1, -5.3, -7.1,0,0,1024,1024,1024,1024,0,0,0,0,280.6,-89.9,0,95,4.052,4.066,4.064,4.067,0,0,9.948,72.68,186.94839312146,133.202104,6,P-GPS,
22400,2023-07-26 16:37:11,52.206403760283,0.0866294866629853,135.498692,135.33465,53.910331121456,189.24498112146,83.66142,0.223694,19.5324481316,25.2530191808,26,5,16.417,189.24498112146,135.498692,11.7663044,20.0054468344,0.223694,0,-8.276678,288.4, -6.2, -8.5,0,0,1024,1024,1024,1024,0,0,0,0,280.6,-90,0,95,4.052,4.066,4.064,4.067,0,0,9.948,72.68,189.24498112146,135.498692,6,P-GPS,
22600,2023-07-26 16:37:11,52.206403939642,0.0866296767633094,137.139112,136.97507,53.910331121456,190.88540112146,83.66142,0.223694,19.5165032492,25.331037556,26,5,16.417,190.88540112146,137.139112,11.7663044,20.0054468344,0.223694,0,-5.816044,288.2, -5.5, -9.9,0,0,1024,1024,831,1024,0,0,-29,0,280.6,-90,0,95,4.052,4.066,4.064,4.067,0,0,9.948,72.68,190.88540112146,137.139112,6,P-GPS,
22800,2023-07-26 16:37:12,52.2064041802329,0.0866298907406313,138.451448,138.287406,53.910331121456,192.19773712146,83.66142,0.447388,19.5040688656,25.4310047508,26,5,16.417,192.19773712146,138.451448,11.7663044,20.0054468344,0.447388,0,-3.131716,288.4, -4.7, -13.7,0,0,1024,1024,364,1024,0,0,-100,0,280.6,-89.9,0,95,4.052,4.066,4.064,4.067,0,0,9.948,72.68,192.19773712146,138.451448,6,P-GPS,
23000,2023-07-26 16:37:12,52.206404403855,0.0866301221643776,139.107616,138.943574,53.910331121456,192.85390512146,83.66142,0.447388,19.486221096,25.5276254888,26,5,16.417,192.85390512146,139.107616,11.7663044,20.0054468344,0.447388,0,-0.671082,288.4, -4.4, -16.1,0,0,1024,1024,364,1024,0,0,-100,0,280.6,-89.9,0,95,4.052,4.066,4.064,4.067,0,0,9.948,72.68,192.85390512146,139.107616,6,P-GPS,
23200,2023-07-26 16:37:12,52.2064044423483,0.0866303345899742,138.779532,138.61549,53.910331121456,192.52582112146,83.66142,0.223694,19.4474087588,25.5771661728,26,5,16.7,192.85390512146,139.107616,11.7663044,20.0054468344,0.223694,0,1.789552,288.5, -3.5, -18.3,0,0,1024,1024,364,1024,0,0,-100,0,280.6,-90,0,95,4.192,4.198,4.195,4.194,0,0,7.786,73.04,192.52582112146,138.779532,6,P-GPS,
23400,2023-07-26 16:37:12,52.2064043111953,0.0866304554218418,137.79528,137.631238,53.910331121456,191.54156912146,83.66142,0.223694,19.4044625632,25.6320874344,26,5,16.7,192.85390512146,139.107616,11.7663044,20.0054468344,0.223694,0,4.250186,288.2, -2.1, -19.7,0,0,1024,1024,364,1024,0,0,-100,0,280.6,-90,0,95,4.192,4.198,4.195,4.194,0,0,7.786,73.04,191.54156912146,137.79528,6,P-GPS,
23600,2023-07-26 16:37:13,52.2064040069672,0.0866304876096563,136.15486,135.990818,53.910331121456,189.90114912146,83.66142,0,19.3567263412,25.7433407188,26,5,16.7,192.85390512146,139.107616,11.7663044,20.0054468344,0,0,6.487126,287.9, -0.2, -21.2,0,0,1024,1024,855,1024,0,0,-26,0,280.6,-90,0,95,4.192,4.198,4.195,4.194,0,0,7.786,73.04,189.90114912146,136.15486,6,P-GPS,
23800,2023-07-26 16:37:13,52.2064033356748,0.0866305192382906,134.51444,134.350398,53.910331121456,188.26072912146,83.66142,0.223694,19.2614179392,25.98835385,26,5,16.7,192.85390512146,139.107616,11.7663044,20.0054468344,-0.223694,0,8.276678,287.5, 0.7, -19.1,0,0,1024,1024,1024,1024,0,0,0,0,280.6,-89.9,0,95,4.192,4.198,4.195,4.194,0,0,7.786,73.04,188.26072912146,134.51444,6,P-GPS,
24000,2023-07-26 16:37:13,52.2064017713334,0.0866304598114069,134.51444,134.350398,53.910331121456,188.26072912146,83.66142,1.3645334,19.0778221328,26.5592528184,26,5,16.7,192.85390512146,139.107616,11.7663044,20.0054468344,-1.342164,-0.223694,6.71082,287.7, -0.1, -7.1,0,0,1024,1024,1024,1024,0,0,0,0,280.6,-90,0,95,4.192,4.198,4.195,4.194,0,0,7.786,73.04,188.26072912146,134.51444,6,P-GPS,
24200,2023-07-26 16:37:13,52.2063998261244,0.0866303021225695,131.2336,131.1023664,53.877522721456,184.97988912146,83.66142,1.3645334,18.8890097908,27.269849954,26,5,16.817,192.85390512146,139.107616,11.7663044,20.0054468344,-1.342164,-0.223694,4.250186,288.1, 0.5, -0.4,0,0,1024,1024,1024,1024,0,0,0,0,280.6,-89.9,0,95,4.168,4.11,4.092,4.097,0,0,3.172,73.22,184.97988912146,131.2336,6,P-GPS,
24400,2023-07-26 16:37:13,52.2063981100737,0.0866304093034486,130.577432,130.4790068,53.844714321456,184.32372112146,83.66142,0.894776,18.69012527,27.8963919688,26,5,16.817,192.85390512146,139.107616,11.7663044,20.0054468344,-0.894776,0,2.013246,288.2, 0, 0,0,0,1024,1024,1024,1024,0,0,0,0,280.5,-89.9,0,95,4.168,4.11,4.092,4.097,0,0,3.172,73.22,184.32372112146,130.577432,6,P-GPS,
24600,2023-07-26 16:37:14,52.2063967144576,0.0866307342920345,130.577432,130.4790068,53.844714321456,184.32372112146,83.66142,0.671082,18.4908470484,28.410762064,26,5,16.817,192.85390512146,139.107616,11.7663044,20.0054468344,-0.671082,0,0.447388,287.8, -0.7, -0.8,0,0,1684,1024,1024,1024,100,0,0,0,280.6,-89.9,0,95,4.168,4.11,4.092,4.097,0,0,3.172,73.22,184.32372112146,130.577432,6,P-GPS,
24800,2023-07-26 16:37:14,52.2063956579284,0.0866311716548862,130.577432,130.4790068,53.844714321456,184.32372112146,83.66142,0.223694,18.3063982236,28.8084326804,26,5,16.817,192.85390512146,139.107616,11.7663044,20.0054468344,-0.223694,0,0,287.2, -11.5, 2,0,0,1684,1024,1024,1024,100,0,0,0,280.5,-89.9,0,95,4.168,4.11,4.092,4.097,0,0,3.172,73.22,184.32372112146,130.577432,6,P-GPS,
25000,2023-07-26 16:37:14,52.2063952499079,0.0866309869366723,130.577432,130.5118152,53.811905921456,184.32372112146,83.66142,0.7158208,18.3142394312,28.962927436,26,5,16.817,192.85390512146,139.107616,11.7663044,20.0054468344,0.223694,-0.671082,0,287.6, -27.4, 1,0,0,1684,1024,1024,1024,100,0,0,0,280.5,-89.9,0,95,4.168,4.11,4.092,4.097,0,0,3.172,73.22,184.32372112146,130.577432,6,P-GPS,
25200,2023-07-26 16:37:14,52.2063956464831,0.0866288268023023,130.577432,130.4790068,53.844714321456,184.32372112146,83.66142,2.7066974,18.8170281612,29.4671269272,26,5,16.328,192.85390512146,139.107616,11.7663044,20.0054468344,1.11847,-2.460634,0,288.1, -28.9, 0,0,0,1684,1024,1024,1024,100,0,0,0,280.6,-89.9,0,94,4.131,4.134,4.128,4.124,0,0,8.932,73.22,184.32372112146,130.577432,6,P-GPS,
25400,2023-07-26 16:37:14,52.2063969202777,0.0866242445995421,130.577432,130.4790068,53.844714321456,184.32372112146,83.66142,4.697574,19.919127934,30.5920941548,26,5,16.328,192.85390512146,139.107616,11.7663044,20.0054468344,2.013246,-4.250186,0,288.3, -28.6, -1.9,0,0,1684,1024,1024,1024,100,0,0,0,280.5,-89.9,0,94,4.131,4.134,4.128,4.124,0,0,8.932,73.22,184.32372112146,130.577432,6,P-GPS,
25600,2023-07-26 16:37:15,52.2063989071305,0.0866172995945111,130.577432,130.4461984,53.877522721456,184.32372112146,83.66142,6.3976484,21.5989836308,32.305775312,26,5,16.328,192.85390512146,139.107616,11.7663044,21.5989836308,2.684328,-5.816044,0,288.9, -29.1, -4.2,0,0,1684,1024,1024,1024,100,0,0,0,280.6,-89.9,0,94,4.131,4.134,4.128,4.124,0,0,8.932,73.22,184.32372112146,130.577432,6,P-GPS,
25800,2023-07-26 16:37:15,52.2064015004284,0.0866080610906147,130.577432,130.41339,53.910331121456,184.32372112146,83.66142,8.3214168,23.8363524688,34.577757012,27,5,16.328,192.85390512146,139.107616,11.7663044,23.8363524688,3.35541,-7.605596,0,289.1, -29.3, -5.1,0,0,1450,1024,1024,1024,65,0,0,0,280.6,-89.9,0,94,4.131,4.134,4.128,4.124,0,0,8.932,73.22,184.32372112146,130.577432,6,P-GPS,
26000,2023-07-26 16:37:15,52.2064045817533,0.0865965523357726,130.577432,130.3805816,53.943139521456,184.32372112146,83.66142,10.1333382,26.6166675184,37.385827968,27,5,16.328,192.85390512146,139.107616,11.7663044,26.6166675184,3.802798,-9.395148,0,289.3, -27.9, -6.7,0,0,1207,1386,1024,1024,28,55,0,0,280.5,-90,0,94,4.131,4.134,4.128,4.124,0,0,8.932,73.22,184.32372112146,130.577432,6,P-GPS,
26200,2023-07-26 16:37:15,52.2064079948489,0.0865829436353273,130.577432,130.3477732,53.975947921456,184.32372112146,83.66142,11.4755022,29.8867791716,40.673557732,27,5,16.448,192.85390512146,139.107616,11.7663044,29.8867791716,4.026492,-10.737312,0,288.7, -17.4, -6.5,0,0,1069,1551,1024,1024,7,80,0,0,280.6,-90,0,94,4.113,4.116,4.11,4.107,0,0,8.459,73.22,184.32372112146,130.577432,6,P-GPS,
26400,2023-07-26 16:37:15,52.2064115355144,0.0865681673944277,130.577432,130.3149648,54.008756321456,184.32372112146,83.66142,11.967629,33.4235575,44.22080194,27,5,16.448,192.85390512146,139.107616,11.967629,33.4235575,4.250186,-11.1847,-0.223694,287.4, -7, 1.2,0,0,1024,1681,1024,1024,0,100,0,0,280.6,-90,0,94,4.113,4.116,4.11,4.107,0,0,8.459,73.22,184.32372112146,130.577432,6,P-GPS,
26600,2023-07-26 16:37:16,52.2064154304901,0.0865534529289689,130.577432,130.2821564,54.041564721456,184.32372112146,83.66142,11.8110432,36.98819016,47.804791556,27,5,16.448,192.85390512146,139.107616,11.967629,36.98819016,4.921268,-10.737312,-0.223694,287.1, 0.4, 17.1,0,0,1013,1684,1024,1024,-2,100,0,0,280.6,-89.9,0,94,4.113,4.116,4.11,4.107,0,0,8.459,73.22,184.32372112146,130.577432,6,P-GPS,
26800,2023-07-26 16:37:16,52.2064203378818,0.086539751404598,130.249348,129.8884556,54.107181521456,183.99563712146,83.66142,11.6097186,40.45931888,51.353020016,27,5,16.448,192.85390512146,139.107616,11.967629,40.45931888,6.487126,-9.618842,0,288.4, 4.5, 24.7,0,0,1001,1684,1024,1024,-3,100,0,0,280.6,-89.9,0,94,4.113,4.116,4.11,4.107,0,0,8.459,73.22,183.99563712146,130.249348,6,P-GPS,
27000,2023-07-26 16:37:16,52.2064266473341,0.0865276713212899,130.249348,129.7900304,54.205606721456,183.99563712146,83.66142,11.855782,43.778872792,54.901904644,27,5,16.448,192.85390512146,139.107616,11.967629,43.778872792,8.500372,-8.276678,0,289.5, 7, 26,0,0,938,1675,1024,1024,-13,99,0,0,280.5,-89.9,0,94,4.113,4.116,4.11,4.107,0,0,8.459,73.22,183.99563712146,130.249348,6,P-GPS,
27200,2023-07-26 16:37:16,52.2064344004522,0.0865175533456473,129.921264,129.3963296,54.271223521456,183.66755312146,83.66142,12.415017,46.927166856,58.523952004,26,5,16.559,192.85390512146,139.107616,12.415017,46.927166856,10.289924,-6.934514,0,289.6, 7.3, 24.5,0,0,925,1659,1024,1024,-15,96,0,0,280.5,-89.9,0,94,4.145,4.151,4.155,4.148,0,0,7.89,73.4,183.66755312146,129.921264,6,P-GPS,
27400,2023-07-26 16:37:16,52.206443518536,0.0865093499753059,129.921264,129.265096,54.402457121456,183.66755312146,83.66142,13.0189908,49.963584276,62.32283664,26,5,16.559,192.85390512146,139.107616,13.0189908,49.963584276,11.855782,-5.368656,0,288.9, 6.7, 22,0,0,778,1309,1024,1024,-37,43,0,0,280.5,-89.9,0,94,4.145,4.151,4.155,4.148,0,0,7.89,73.4,183.66755312146,129.921264,6,P-GPS,
27600,2023-07-26 16:37:17,52.2064538073181,0.0865028717040706,129.59318,128.8385868,54.500882321456,183.33946912146,83.66142,13.645334,52.960631616,66.346458816,25,5,16.559,192.85390512146,139.107616,13.645334,52.960631616,12.974252,-4.250186,0,288.5, 6.1, 10.4,0,0,583,1115,1024,1024,-67,14,0,0,280.6,-90,0,94,4.145,4.151,4.155,4.148,0,0,7.89,73.4,183.33946912146,129.59318,6,P-GPS,
27800,2023-07-26 16:37:17,52.2064646212175,0.0864977791654328,129.59318,128.7073532,54.632115921456,183.33946912146,83.66142,13.6229646,55.921261632,70.45275816,25,5,16.559,192.85390512146,139.107616,13.645334,55.921261632,13.197946,-3.35541,0,287.2, 11.5, -3.8,0,0,460,1024,1024,1024,-85,0,0,0,280.6,-90,0,94,4.145,4.151,4.155,4.148,0,0,7.89,73.4,183.33946912146,129.59318,6,P-GPS,
28000,2023-07-26 16:37:17,52.2064750511309,0.0864940440369116,129.59318,128.5761196,54.763349521456,183.33946912146,83.66142,12.5044946,58.68930634,74.34875566,26,5,16.559,192.85390512146,139.107616,13.645334,58.68930634,12.30317,-2.23694,0,286.1, 20.5, -8.2,0,0,364,1024,1024,1024,-100,0,0,0,280.6,-89.9,0,94,4.145,4.151,4.155,4.148,0,0,7.89,73.4,183.33946912146,129.59318,6,P-GPS,
28200,2023-07-26 16:37:17,52.2064846038869,0.0864923459322332,129.59318,128.444886,54.894583121456,183.33946912146,83.66142,10.961006,61.023624,77.854661284,26,5,16.591,192.85390512146,139.107616,13.645334,61.023624,10.961006,-0.447388,0,285.8, 24.1, -8.1,0,0,364,1024,1024,1024,-100,0,0,0,280.6,-89.9,0,94,4.141,4.149,4.146,4.143,0,0,6.737,73.4,183.33946912146,129.59318,6,P-GPS,
28400,2023-07-26 16:37:17,52.2064932205538,0.0864931073819927,129.59318,128.3792692,54.960199921456,183.33946912146,83.66142,9.9320136,62.82316474,81.002955348,27,5,16.591,192.85390512146,139.107616,13.645334,62.82316474,9.842536,1.342164,0,285.2, 24.4, -10.1,0,0,364,1024,1024,1024,-100,0,0,0,280.6,-90,0,94,4.141,4.149,4.146,4.143,0,0,6.737,73.4,183.33946912146,129.59318,6,P-GPS,
28600,2023-07-26 16:37:17,52.2065008699565,0.0864963039500119,129.59318,128.280844,55.058625121456,183.33946912146,83.66142,9.2609316,64.08464772,83.883860952,27,5,16.591,192.85390512146,139.107616,13.645334,64.08464772,8.724066,3.131716,0,285.3, 23.6, -10.4,0,0,434,1024,1024,1024,-89,0,0,0,280.6,-89.9,0,94,4.141,4.149,4.146,4.143,0,0,6.737,73.4,183.33946912146,129.59318,6,P-GPS,
28800,2023-07-26 16:37:18,52.2065075826362,0.0865019299745906,129.59318,128.1824188,55.157050321456,183.33946912146,83.66142,9.059607,64.819883964,86.63714188,27,5,16.591,192.85390512146,139.107616,13.645334,64.819883964,7.605596,4.921268,0,285.4, 22.1, -11.3,0,0,1024,1024,1024,1024,0,0,0,0,280.6,-89.9,0,94,4.141,4.149,4.146,4.143,0,0,6.737,73.4,183.33946912146,129.59318,6,P-GPS,
29000,2023-07-26 16:37:18,52.2065133052808,0.0865097541228493,129.59318,128.116802,55.222667121456,183.33946912146,83.66142,9.0148682,65.061353788,89.361223332,27,5,16.591,192.85390512146,139.107616,13.645334,65.061353788,6.263432,6.487126,0,286.8, 14.7, -10.9,0,0,1024,1024,1024,1024,0,0,0,0,280.6,-89.9,0,94,4.141,4.149,4.146,4.143,0,0,6.737,73.4,183.33946912146,129.59318,6,P-GPS,
29200,2023-07-26 16:37:18,52.2065181760833,0.0865186726568029,129.59318,128.0839936,55.255475521456,183.33946912146,83.66142,8.2543086,65.020671372,92.032155176,27,5,16.472,192.85390512146,139.107616,13.645334,65.061353788,5.368656,6.263432,0,290.6, -16.4, -21.1,0,0,1024,1024,1024,1024,0,0,0,0,280.6,-89.9,0,94,4.108,4.119,4.114,4.114,0,0,7.71,73.58,183.33946912146,129.59318,6,P-GPS,
29400,2023-07-26 16:37:18,52.2065222646755,0.0865259426294505,129.921264,128.3464608,55.321092321456,183.66755312146,83.66142,6.1739544,65.102036204,94.238520076,27,5,16.472,192.85390512146,139.107616,13.645334,65.102036204,4.250186,4.47388,0,291.8, -16.2, -24.7,0,0,1024,1024,1024,1024,0,0,0,0,280.6,-90,0,94,4.108,4.119,4.114,4.114,0,0,7.71,73.58,183.66755312146,129.921264,6,P-GPS,
29600,2023-07-26 16:37:18,52.2065253397336,0.0865308680850222,129.921264,128.3136524,55.353900721456,183.66755312146,83.66142,4.1159696,65.28707558,95.81037052,27,5,16.472,192.85390512146,139.107616,13.645334,65.28707558,2.908022,2.908022,0,291.3, -14.1, -26.4,0,0,1024,1024,1024,1024,0,0,0,0,280.5,-90,0,94,4.108,4.119,4.114,4.114,0,0,7.71,73.58,183.66755312146,129.921264,6,P-GPS,
29800,2023-07-26 16:37:19,52.2065273256634,0.0865337509668869,129.921264,128.280844,55.386709121456,183.66755312146,83.66142,2.0579848,65.466865612,96.780186824,27,5,16.472,192.85390512146,139.107616,13.645334,65.466865612,1.565858,1.342164,0,290.3, -12.1, -23.1,0,0,1024,1024,1024,1024,0,0,0,0,280.6,-90,0,94,4.108,4.119,4.114,4.114,0,0,7.71,73.58,183.66755312146,129.921264,6,P-GPS,
30000,2023-07-26 16:37:19,52.2065283930319,0.0865349393368065,130.249348,128.608928,55.386709121456,183.99563712146,83.66142,0.8052984,65.617456168,97.251643532,27,5,16.472,192.85390512146,139.107616,13.645334,65.617456168,0.671082,0.447388,0,288.7, -7.2, -14.7,0,0,1023,1024,1024,1024,-0,0,0,0,280.5,-90,0,94,4.108,4.119,4.114,4.114,0,0,7.71,73.58,183.99563712146,130.249348,6,P-GPS,
30200,2023-07-26 16:37:19,52.2065289806705,0.0865353677387943,130.249348,128.608928,55.386709121456,183.99563712146,83.66142,0.447388,65.7316294,97.486551676,27,5,16.426,192.85390512146,139.107616,13.645334,65.7316294,0.447388,0,0,288.2, -4.4, -10.3,0,0,889,1024,1024,1024,-20,0,0,0,280.5,-90,0,94,4.107,4.12,4.122,4.125,0,0,9.181,73.58,183.99563712146,130.249348,6,P-GPS,
30400,2023-07-26 16:37:19,52.2065293502813,0.0865354754508947,130.249348,128.608928,55.386709121456,183.99563712146,83.66142,0.223694,65.825461424,97.623362704,27,5,16.426,192.85390512146,139.107616,13.645334,65.825461424,0.223694,0,0,288, -1.4, -3.9,0,0,451,1024,1024,1024,-87,0,0,0,280.6,-90,0,94,4.107,4.12,4.122,4.125,0,0,9.181,73.58,183.99563712146,130.249348,6,P-GPS,
30600,2023-07-26 16:37:20,52.206529732691,0.0865357240484653,130.249348,128.5761196,55.419517521456,183.99563712146,83.66142,0.3131716,65.904529668,97.773625176,27,5,16.426,192.85390512146,139.107616,13.645334,65.904529668,0.223694,0.223694,0,287.8, 5.2, -4.7,0,0,657,1024,1024,1024,-56,0,0,0,280.6,-90,0,94,4.107,4.12,4.122,4.125,0,0,9.181,73.58,183.99563712146,130.249348,6,P-GPS,
30800,2023-07-26 16:37:20,52.2065301001429,0.0865367862533354,130.577432,128.9042036,55.419517521456,184.32372112146,83.66142,1.3645334,65.871721268,98.04626298,27,5,16.426,192.85390512146,139.107616,13.645334,65.904529668,0.223694,1.342164,0,287.2, 18.1, -5.5,0,0,1024,1024,1024,1024,0,0,0,0,280.5,-89.9,0,94,4.107,4.12,4.122,4.125,0,0,9.181,73.58,184.32372112146,130.577432,6,P-GPS,
31000,2023-07-26 16:37:20,52.2065302214504,0.0865394780353413,130.577432,128.9042036,55.419517521456,184.32372112146,83.66142,2.460634,65.553479788,98.64993754,27,5,16.426,192.85390512146,139.107616,13.645334,65.904529668,0,2.460634,0,287.1, -5.8, -5.7,0,0,1024,1024,1024,1024,0,0,0,0,280.6,-89.9,0,94,4.107,4.12,4.122,4.125,0,0,9.181,73.58,184.32372112146,130.577432,6,P-GPS,
31200,2023-07-26 16:37:20,52.2065303581783,0.0865421953159676,130.577432,128.9042036,55.419517521456,184.32372112146,83.66142,1.342164,65.240487652,99.259517612,27,5,16.526,192.85390512146,139.107616,13.645334,65.904529668,0,1.342164,0,290.2, -18.5, -12.8,0,0,1024,1024,1024,1024,0,0,0,0,280.6,-90,0,94,4.115,4.123,4.13,4.125,0,0,7.323,73.58,184.32372112146,130.577432,6,P-GPS,
31400,2023-07-26 16:37:20,52.206530488224,0.0865432708013693,130.577432,128.9042036,55.419517521456,184.32372112146,83.66142,0.223694,65.140750116,99.50459636,27,5,16.526,192.85390512146,139.107616,13.645334,65.904529668,0,0.223694,0,288.5, -9.6, -10.4,0,0,1024,1024,1024,1024,0,0,0,0,280.6,-89.9,0,94,4.115,4.123,4.13,4.125,0,0,7.323,73.58,184.32372112146,130.577432,6,P-GPS,
31600,2023-07-26 16:37:21,52.2065304870417,0.0865433581872667,130.577432,128.9042036,55.419517521456,184.32372112146,83.66142,0,65.128939092,99.523953316,27,5,16.526,192.85390512146,139.107616,13.645334,65.904529668,0,0,0,288, -4.4, -8.3,0,0,1024,1024,1024,1024,0,0,0,0,280.5,-90,0,94,4.115,4.123,4.13,4.125,0,0,7.323,73.58,184.32372112146,130.577432,6,P-GPS,
