time(millisecond),datetime(utc),latitude,longitude,height_above_takeoff(feet),height_above_ground_at_drone_location(feet),ground_elevation_at_drone_location(feet),altitude_above_seaLevel(feet),height_sonar(feet),speed(mph),distance(feet),mileage(feet),satellites,gpslevel,voltage(v),max_altitude(feet),max_ascent(feet),max_speed(mph),max_distance(feet), xSpeed(mph), ySpeed(mph), zSpeed(mph), compass_heading(degrees), pitch(degrees), roll(degrees),isPhoto,isVideo,rc_elevator,rc_aileron,rc_throttle,rc_rudder,rc_elevator(percent),rc_aileron(percent),rc_throttle(percent),rc_rudder(percent),gimbal_heading(degrees),gimbal_pitch(degrees),gimbal_roll(degrees),battery_percent,voltageCell1,voltageCell2,voltageCell3,voltageCell4,voltageCell5,voltageCell6,current(A),battery_temperature(f),altitude(feet),ascent(feet),flycStateRaw,flycState,message
100,2022-07-09 11:19:26,52.1729190444574,0.105505542138663,0,0,57.877300736588,57.877300736588,0,0,0,0,21,5,0,57.877300736588,0,0,0,0,0,0,139.1, 5.1, 2,0,0,1024,1024,1024,1024,0,0,0,0,133.4,0,0,88,4.198,4.198,4.197,4.199,0,0,0,99.86,57.877300736588,0,41,Motors_Started,"Setting new Return-To-Home altitude to 41m (135 ft). Data Recorder File Index is 5. Setting new Maximum Flight Altitude to 30m (98 ft)"
300,2022-07-09 11:19:27,52.172919035188,0.105505521869669,0,0,57.877300736588,57.877300736588,0,0,0,0,21,5,0,57.877300736588,0,0,0,0,0,0,139.1, 5.1, 2,0,0,1024,1024,1024,1024,0,0,0,0,133.4,0,0,88,4.198,4.198,4.197,4.199,0,0,0,99.86,57.877300736588,0,41,Motors_Started,
500,2022-07-09 11:19:27,52.1729190259185,0.105505501600675,0,0,57.877300736588,57.877300736588,0,0,0.0113148297584,0.0113148297584,21,5,0,57.877300736588,0,0,0.0113148297584,0,0,0,139.1, 5.1, 2,0,0,1024,1024,1024,1024,0,0,0,0,133.4,0,0,88,4.198,4.198,4.197,4.199,0,0,0,99.86,57.877300736588,0,41,Motors_Started,
700,2022-07-09 11:19:27,52.1729190202729,0.105505491836357,0,0,57.877300736588,57.877300736588,0,0,0.0143017721112,0.0143175201432,21,5,0,57.877300736588,0,0,0.0143017721112,0,0,0,139.4, 5.1, 2,0,0,1024,1024,1024,1024,0,0,0,0,133.4,0,0,88,4.198,4.198,4.197,4.199,0,0,0,99.86,57.877300736588,0,41,Motors_Started,
900,2022-07-09 11:19:27,52.1729189862537,0.105505483797207,0,0,57.877300736588,57.877300736588,0,0,0.0249271005352,0.026859088786,21,5,0,57.877300736588,0,0,0.0249271005352,0,0,0,139.5, 5.1, 1.9,0,0,1024,1024,1024,1024,0,0,0,0,133.4,0,0,88,4.198,4.198,4.197,4.199,0,0,0,99.86,57.877300736588,0,41,Motors_Started,
1100,2022-07-09 11:19:27,52.1729189655089,0.105505447449915,0,0,57.877300736588,57.877300736588,0,0,0.035757218992,0.037968833236,21,5,0,57.877300736588,0,0,0.035757218992,0,0,0,139.4, 5.1, 2,0,0,1024,1024,1024,1024,0,0,0,0,133.4,0,0,88,4.198,4.198,4.197,4.199,0,0,0,99.86,57.877300736588,0,41,Motors_Started,
1300,2022-07-09 11:19:28,52.1729189508124,0.105505422012398,0,0,57.877300736588,57.877300736588,0,0,0.043471786168,0.045788715376,21,5,16.801,57.877300736588,0,0,0.043471786168,0,0,0,139.4, 5.1, 2,0,0,1024,1024,1024,1024,0,0,0,0,133.4,0,0,88,4.198,4.198,4.197,4.199,0,0,3.681,99.86,57.877300736588,0,41,Motors_Started,
1500,2022-07-09 11:19:28,52.1729189392642,0.105505405927114,0,0,57.877300736588,57.877300736588,0,0,0.04900918792,0.051330054136,21,5,16.801,57.877300736588,0,0,0.04900918792,0,0,0,139.4, 5.1, 2,0,0,1024,1024,1024,1024,0,0,0,0,133.4,0,0,88,4.198,4.198,4.197,4.199,0,0,3.681,99.86,57.877300736588,0,41,Motors_Started,
1700,2022-07-09 11:19:28,52.1729189044011,0.105505387460119,0,0,57.877300736588,57.877300736588,0,0,0.061717193576,0.064704070312,21,5,16.801,57.877300736588,0,0,0.061717193576,0,0,0,139.4, 5.1, 2,0,0,1024,1024,1024,1024,0,0,0,0,133.4,0,0,88,4.198,4.198,4.197,4.199,0,0,3.681,99.86,57.877300736588,0,11,AutoTakeoff,
1900,2022-07-09 11:19:28,52.1729188839562,0.105505360143774,0,0,57.877300736588,57.877300736588,0,0,0.071326117768,0.074347771408,21,5,16.801,57.877300736588,0,0,0.071326117768,0,0,0,139.3, 4.8, 2.1,0,0,1024,1024,1024,1024,0,0,0,0,133.4,0,0,88,4.198,4.198,4.197,4.199,0,0,3.681,99.86,57.877300736588,0,11,AutoTakeoff,
2100,2022-07-09 11:19:28,52.1729188804095,0.105505215655604,0,0,57.877300736588,57.877300736588,0,0.223694,0.094440291736,0.106703743572,21,5,16.801,57.877300736588,0,0.223694,0.094440291736,0,-0.223694,-0.223694,139.5, -0.5, 0.4,0,0,1024,1024,1024,1024,0,0,0,0,133.4,0,0,88,4.198,4.198,4.197,4.199,0,0,3.681,99.86,57.877300736588,0,11,AutoTakeoff,
2300,2022-07-09 11:19:29,52.1729187641564,0.105505007056788,0,0,57.877300736588,57.877300736588,0.328084,0,0.12183727424,0.139059387652,21,5,16.842,57.877300736588,0,0.223694,0.12183727424,0,0,-0.894776,139.7, -0.3, -0.6,0,0,1024,1024,1024,1024,0,0,0,0,133.4,0,0,88,4.192,4.189,4.187,4.183,0,0,3.593,99.86,57.877300736588,0,11,AutoTakeoff,
2500,2022-07-09 11:19:29,52.1729186479034,0.105504798457972,0.328084,0.328084,57.877300736588,58.205384736588,0.328084,0,0.220505584484,0.24250820986,21,5,16.842,58.205384736588,0.328084,0.223694,0.220505584484,0,0,-0.894776,139.6, 0.2, -1.4,0,0,1024,1024,1024,1024,0,0,0,0,133.5,0,0,88,4.192,4.189,4.187,4.183,0,0,3.593,99.86,58.205384736588,0.328084,11,AutoTakeoff,
2700,2022-07-09 11:19:29,52.1729184701399,0.105504716990866,0.656168,0.656168,57.877300736588,58.533468736588,0.656168,0.223694,0.27927658374,0.309878290756,21,5,16.842,58.533468736588,0.656168,0.223694,0.27927658374,-0.223694,0,-0.894776,139.5, 0.7, -2.2,0,0,1024,1024,1024,1024,0,0,0,0,133.5,0,0,88,4.192,4.189,4.187,4.183,0,0,3.593,99.86,58.533468736588,0.656168,11,AutoTakeoff,
2900,2022-07-09 11:19:29,52.1729182183582,0.10550459323965,0.984252,0.984252,57.877300736588,58.861552736588,1.312336,0.223694,0.36867783332,0.4058235038,21,5,16.842,58.861552736588,0.984252,0.223694,0.36867783332,-0.223694,0,-0.894776,139.2, 2, -3.3,0,0,1024,1024,1024,1024,0,0,0,0,133.5,0,0,88,4.192,4.189,4.187,4.183,0,0,3.593,99.86,58.861552736588,0.984252,11,AutoTakeoff,
3100,2022-07-09 11:19:29,52.1729179920674,0.105504510731855,1.312336,1.312336,57.877300736588,59.189636736588,1.64042,0,0.4479822978,0.49042324404,21,5,16.842,59.189636736588,1.312336,0.223694,0.4479822978,0,0,-0.894776,139.5, 2.3, -4.1,0,0,1024,1024,1024,1024,0,0,0,0,133.5,0,0,88,4.192,4.189,4.187,4.183,0,0,3.593,99.86,59.189636736588,1.312336,11,AutoTakeoff,"Home Point updated (Code: 3000001)"
3300,2022-07-09 11:19:30,52.1729178786157,0.105504512055416,1.64042,1.64042,57.877300736588,59.517720736588,1.968504,0,0.52893046312,0.57502626512,21,5,16.725,59.517720736588,1.64042,0.223694,0.52893046312,0,0,-1.11847,139.4, 2.8, -4.2,0,0,1024,1024,1024,1024,0,0,0,0,133.5,0,0,88,4.18,4.18,4.18,4.176,0,0,6.891,99.68,59.517720736588,1.64042,11,AutoTakeoff,
3500,2022-07-09 11:19:30,52.1729177651641,0.105504513378977,1.968504,1.968504,57.877300736588,59.845804736588,2.296588,0,0.52042652584,0.59408138384,21,5,16.725,59.845804736588,1.968504,0.223694,0.52893046312,0,0,-1.11847,139.4, 2.4, -4.2,0,0,1024,1024,1024,1024,0,0,0,0,133.5,0,0,88,4.18,4.18,4.18,4.176,0,0,6.891,99.68,59.845804736588,1.968504,11,AutoTakeoff,
3700,2022-07-09 11:19:30,52.1729177973457,0.10550453193677,2.296588,2.296588,57.877300736588,60.173888736588,2.624672,0,0.50806103988,0.60653545248,22,5,16.725,60.173888736588,2.296588,0.223694,0.52893046312,0,0,-1.11847,139.3, 2.6, -4,0,0,1024,1024,1024,1024,0,0,0,0,133.5,0,0,88,4.18,4.18,4.18,4.176,0,0,6.891,99.68,60.173888736588,2.296588,11,AutoTakeoff,
3900,2022-07-09 11:19:30,52.1729178638849,0.10550452102001,2.624672,2.624672,57.877300736588,60.501972736588,2.952756,0,0.48757875576,0.63093505956,22,5,16.725,60.501972736588,2.624672,0.223694,0.52893046312,0,0,-0.894776,139.7, 2.1, -3.6,0,0,1024,1024,1024,1024,0,0,0,0,133.5,0,0,88,4.18,4.18,4.18,4.176,0,0,6.891,99.68,60.501972736588,2.624672,11,AutoTakeoff,
4100,2022-07-09 11:19:30,52.1729179801337,0.10550451052232,2.952756,2.952756,57.877300736588,60.830056736588,3.28084,0,0.45174542128,0.67341209504,22,5,16.725,60.830056736588,2.952756,0.223694,0.52893046312,0,0,-0.894776,139.5, 1.1, -3.4,0,0,1024,1024,1024,1024,0,0,0,0,133.6,0,0,88,4.18,4.18,4.18,4.176,0,0,6.891,99.68,60.830056736588,2.952756,11,AutoTakeoff,
4300,2022-07-09 11:19:31,52.1729180873572,0.105504522835978,3.28084,3.28084,57.877300736588,61.158140736588,3.608924,0,0.41708006584,0.71262797556,22,5,16.717,61.158140736588,3.28084,0.223694,0.52893046312,0,0,-0.894776,139.4, 0.7, -3,0,0,1024,1024,1024,1024,0,0,0,0,133.6,0,0,88,4.18,4.179,4.179,4.176,0,0,7.313,99.86,61.158140736588,3.28084,32,GPSNovice,
4500,2022-07-09 11:19:31,52.1729181654918,0.105504457747504,3.608924,3.6417324,57.844492336588,61.486224736588,3.937008,0,0.40213912048,0.74464241228,22,5,16.717,61.486224736588,3.608924,0.223694,0.52893046312,0,0,-0.223694,139.5, 0.6, -3.4,0,0,1024,1024,1024,1024,0,0,0,0,133.6,0,0,88,4.18,4.179,4.179,4.176,0,0,7.313,99.86,61.486224736588,3.608924,32,GPSNovice,
4700,2022-07-09 11:19:31,52.1729182295337,0.105504385793275,3.608924,3.6417324,57.844492336588,61.486224736588,3.937008,0,0.39414043256,0.77301839744,22,5,16.717,61.486224736588,3.608924,0.223694,0.52893046312,0,0,0,139.7, 0.3, -3.5,0,0,1024,1024,1024,1024,0,0,0,0,133.6,0,0,88,4.18,4.179,4.179,4.176,0,0,7.313,99.86,61.486224736588,3.608924,32,GPSNovice,
4900,2022-07-09 11:19:31,52.1729182596979,0.105504233405645,3.608924,3.6417324,57.844492336588,61.486224736588,3.937008,0,0.40955053804,0.80884517024,22,5,16.717,61.486224736588,3.608924,0.223694,0.52893046312,0,0,0,139.6, 0.2, -4.5,0,0,1024,1024,1024,1024,0,0,0,0,133.6,0,0,88,4.18,4.179,4.179,4.176,0,0,7.313,99.86,61.486224736588,3.608924,32,GPSNovice,
5100,2022-07-09 11:19:31,52.1729182604689,0.105504203770449,3.608924,3.6417324,57.844492336588,61.486224736588,3.937008,0,0.414124029,0.81548230956,22,5,16.717,61.486224736588,3.608924,0.223694,0.52893046312,0,0,0,139.5, 0.7, -4.7,0,0,1024,1024,1024,1024,0,0,0,0,133.6,0,0,88,4.18,4.179,4.179,4.176,0,0,7.313,99.86,61.486224736588,3.608924,32,GPSNovice,
5300,2022-07-09 11:19:32,52.1729182862339,0.105504257690721,3.608924,3.6417324,57.844492336588,61.486224736588,3.937008,0,0.39890749308,0.83077758564,22,5,16.72,61.486224736588,3.608924,0.223694,0.52893046312,0,0,0,139.4, 1, -4.1,0,0,1024,1024,1024,1024,0,0,0,0,133.6,0,0,88,4.176,4.175,4.175,4.172,0,0,6.745,99.86,61.486224736588,3.608924,32,GPSNovice,
5500,2022-07-09 11:19:32,52.1729183245194,0.105504357673713,3.608924,3.6417324,57.844492336588,61.486224736588,3.937008,0,0.37314305656,0.8571522584,22,5,16.72,61.486224736588,3.608924,0.223694,0.52893046312,0,0,0,139.4, 0.8, -3.8,0,0,1024,1024,1024,1024,0,0,0,0,133.6,0,0,88,4.176,4.175,4.175,4.172,0,0,6.745,99.86,61.486224736588,3.608924,32,GPSNovice,
5700,2022-07-09 11:19:32,52.1729183801059,0.105504458431984,3.608924,3.6417324,57.844492336588,61.486224736588,3.937008,0,0.34285762252,0.88747706252,22,5,16.72,61.486224736588,3.608924,0.223694,0.52893046312,0,0,0,139.4, 1, -3.5,0,0,1024,1024,1024,1024,0,0,0,0,133.6,0,0,88,4.176,4.175,4.175,4.172,0,0,6.745,99.86,61.486224736588,3.608924,32,GPSNovice,
5900,2022-07-09 11:19:32,52.1729184343987,0.105504555195126,3.608924,3.608924,57.877300736588,61.486224736588,3.937008,0,0.313542989036,0.91682417632,22,5,16.72,61.486224736588,3.608924,0.223694,0.52893046312,0,0,0,139.3, 0.6, -3.2,0,0,1024,1024,1024,1024,0,0,0,0,133.6,0,0,88,4.176,4.175,4.175,4.172,0,0,6.745,99.86,61.486224736588,3.608924,32,GPSNovice,
6100,2022-07-09 11:19:32,52.1729184711465,0.105504672059634,3.608924,3.608924,57.877300736588,61.486224736588,3.937008,0,0.285753618068,0.94620737936,22,5,16.72,61.486224736588,3.608924,0.223694,0.52893046312,0,0,0,139.4, 0.6, -3.1,0,0,1024,1024,1024,1024,0,0,0,0,133.6,0,0,88,4.176,4.175,4.175,4.172,0,0,6.745,99.86,61.486224736588,3.608924,32,GPSNovice,
6300,2022-07-09 11:19:33,52.1729184924524,0.105504807810206,3.608924,3.608924,57.877300736588,61.486224736588,3.937008,0,0.25992126816,0.97756236724,22,5,16.693,61.486224736588,3.608924,0.223694,0.52893046312,0,0,0,139.4, 0.5, -2.7,0,0,1024,1024,1024,1024,0,0,0,0,133.6,0,0,88,4.174,4.174,4.174,4.17,0,0,7.438,99.86,61.486224736588,3.608924,32,GPSNovice,
6500,2022-07-09 11:19:33,52.1729184818209,0.105504960009255,3.937008,3.937008,57.877300736588,61.814308736588,3.937008,0,0.243115493344,1.01183730272,22,5,16.693,61.814308736588,3.937008,0.223694,0.52893046312,0,0,0,139.4, 0.6, -2.5,0,0,1024,1024,1024,1024,0,0,0,0,133.6,0,0,88,4.174,4.174,4.174,4.17,0,0,7.438,99.86,61.814308736588,3.937008,32,GPSNovice,
6700,2022-07-09 11:19:33,52.1729184305522,0.105505075923871,3.937008,3.937008,57.877300736588,61.814308736588,3.937008,0,0.247084325492,1.0438156502,21,5,16.693,61.814308736588,3.937008,0.223694,0.52893046312,0,0,0,139.5, 0.9, -2.3,0,0,1024,1024,1024,1024,0,0,0,0,133.6,0,0,88,4.174,4.174,4.174,4.17,0,0,7.438,99.86,61.814308736588,3.937008,32,GPSNovice,
6900,2022-07-09 11:19:33,52.1729183499118,0.10550515549818,3.937008,3.937008,57.877300736588,61.814308736588,3.937008,0,0.267765428516,1.07820541508,21,5,16.693,61.814308736588,3.937008,0.223694,0.52893046312,0,0,0,139.4, 0.6, -2.7,0,0,1024,1024,1024,1024,0,0,0,0,133.6,0,0,88,4.174,4.174,4.174,4.17,0,0,7.438,99.86,61.814308736588,3.937008,32,GPSNovice,
7100,2022-07-09 11:19:33,52.1729183166936,0.10550524535366,3.937008,3.937008,57.877300736588,61.814308736588,3.937008,0,0.27370243658,1.10168310612,21,5,16.693,61.814308736588,3.937008,0.223694,0.52893046312,0,0,0,139.4, 0.1, -2.4,0,0,1024,1024,1024,1024,0,0,0,0,133.6,0,0,88,4.174,4.174,4.174,4.17,0,0,7.438,99.86,61.814308736588,3.937008,32,GPSNovice,
7300,2022-07-09 11:19:34,52.1729182774357,0.105505331933414,3.937008,3.937008,57.877300736588,61.814308736588,3.937008,0,0.283772318792,1.12577431424,21,5,16.686,61.814308736588,3.937008,0.223694,0.52893046312,0,0,0,139.3, 0.2, -2.1,0,0,1024,1024,1024,1024,0,0,0,0,133.6,0,0,88,4.173,4.172,4.173,4.168,0,0,7.42,99.86,61.814308736588,3.937008,32,GPSNovice,
7500,2022-07-09 11:19:34,52.1729182294567,0.105505418652857,3.937008,3.937008,57.877300736588,61.814308736588,3.937008,0,0.29863353974,1.15190620484,21,5,16.686,61.814308736588,3.937008,0.223694,0.52893046312,0,0,0,139.3, 0.4, -2.1,0,0,1024,1024,1024,1024,0,0,0,0,133.6,0,0,88,4.173,4.172,4.173,4.168,0,0,7.42,99.86,61.814308736588,3.937008,32,GPSNovice,
7700,2022-07-09 11:19:34,52.1729182030877,0.105505455663676,3.937008,3.937008,57.877300736588,61.814308736588,3.937008,0,0.307582358924,1.16460305564,21,5,16.686,61.814308736588,3.937008,0.223694,0.52893046312,0,0,0,139.4, 0.2, -2.3,0,0,1024,1024,1024,1024,0,0,0,0,133.6,0,0,88,4.173,4.172,4.173,4.168,0,0,7.42,99.86,61.814308736588,3.937008,32,GPSNovice,
7900,2022-07-09 11:19:34,52.1729181703235,0.105505474654508,3.937008,3.937008,57.877300736588,61.814308736588,3.937008,0,0.319284459036,1.17728678308,22,5,16.686,61.814308736588,3.937008,0.223694,0.52893046312,0,0,0,139.4, 0, -2.6,0,0,1024,1024,1024,1024,0,0,0,0,133.6,0,0,88,4.173,4.172,4.173,4.168,0,0,7.42,99.86,61.814308736588,3.937008,32,GPSNovice,
8100,2022-07-09 11:19:34,52.1729181302603,0.105505500965087,3.937008,3.937008,57.877300736588,61.814308736588,3.937008,0,0.33367127052,1.19304793844,22,5,16.686,61.814308736588,3.937008,0.223694,0.52893046312,0,0,0,139.4, 0.4, -2.7,0,0,1024,1024,1024,1024,0,0,0,0,133.6,0,0,88,4.173,4.172,4.173,4.168,0,0,7.42,99.86,61.814308736588,3.937008,32,GPSNovice,
8300,2022-07-09 11:19:35,52.1729181029876,0.105505527946176,3.937008,3.937008,57.877300736588,61.814308736588,3.937008,0,0.34351050968,1.20468507792,22,5,16.68,61.814308736588,3.937008,0.223694,0.52893046312,0,0,0,139.5, 0.6, -2.6,0,0,1024,1024,1024,1024,0,0,0,0,133.6,0,0,88,4.171,4.172,4.171,4.168,0,0,7.356,99.86,61.814308736588,3.937008,32,GPSNovice,
8500,2022-07-09 11:19:35,52.1729180960741,0.105505521688072,3.937008,3.937008,57.877300736588,61.814308736588,3.937008,0,0.346046599,1.20756893628,22,5,16.68,61.814308736588,3.937008,0.223694,0.52893046312,0,0,0,139.4, 0.4, -2.8,0,0,1024,1024,1024,1024,0,0,0,0,133.6,0,0,88,4.171,4.172,4.171,4.168,0,0,7.356,99.86,61.814308736588,3.937008,32,GPSNovice,
8700,2022-07-09 11:19:35,52.1729181144886,0.105505545323591,3.937008,3.937008,57.877300736588,61.814308736588,3.937008,0,0.33929791112,1.21611880532,22,5,16.68,61.814308736588,3.937008,0.223694,0.52893046312,0,0,0,139.5, 0.5, -2.7,0,0,1024,1024,1024,1024,0,0,0,0,133.6,0,0,88,4.171,4.172,4.171,4.168,0,0,7.356,99.86,61.814308736588,3.937008,32,GPSNovice,
8900,2022-07-09 11:19:35,52.1729181600561,0.10550561177404,3.937008,3.937008,57.877300736588,61.814308736588,3.937008,0,0.323049222936,1.23842523648,22,5,16.68,61.814308736588,3.937008,0.223694,0.52893046312,0,0,0,139.4, 0.7, -2.3,0,0,1024,1024,1024,1024,0,0,0,0,133.6,0,0,88,4.171,4.172,4.171,4.168,0,0,7.356,99.86,61.814308736588,3.937008,32,GPSNovice,
9100,2022-07-09 11:19:35,52.172918221982,0.105505699352576,3.937008,3.937008,57.877300736588,61.814308736588,3.937008,0,0.302134524104,1.26833337392,22,5,16.68,61.814308736588,3.937008,0.223694,0.52893046312,0,0,0,139.4, 0.6, -1.9,0,0,1024,1024,1024,1024,0,0,0,0,133.6,0,0,88,4.171,4.172,4.171,4.168,0,0,7.356,99.86,61.814308736588,3.937008,32,GPSNovice,
9300,2022-07-09 11:19:36,52.1729182766475,0.105505781664806,3.937008,3.937008,57.877300736588,61.814308736588,3.937008,0,0.285215888392,1.29547904408,22,5,16.673,61.814308736588,3.937008,0.223694,0.52893046312,0,0,0,139.5, 0.8, -1.6,0,0,1024,1024,1024,1024,0,0,0,0,133.6,0,0,88,4.168,4.168,4.168,4.164,0,0,7.334,100.04,61.814308736588,3.937008,32,GPSNovice,
9500,2022-07-09 11:19:36,52.1729183170748,0.105505834558358,3.937008,3.937008,57.877300736588,61.814308736588,3.937008,0,0.273332029744,1.31438980584,22,5,16.673,61.814308736588,3.937008,0.223694,0.52893046312,0,0,0,139.5, 0.9, -1.8,0,0,1024,1024,1024,1024,0,0,0,0,133.6,0,0,88,4.168,4.168,4.168,4.164,0,0,7.334,100.04,61.814308736588,3.937008,32,GPSNovice,
9700,2022-07-09 11:19:36,52.1729183557844,0.105505862845548,3.937008,3.937008,57.877300736588,61.814308736588,3.937008,0,0.261308407312,1.32986880896,22,5,16.673,61.814308736588,3.937008,0.223694,0.52893046312,0,0,0,139.4, 0.5, -1.8,0,0,1024,1024,1024,1024,0,0,0,0,133.6,0,0,88,4.168,4.168,4.168,4.164,0,0,7.334,100.04,61.814308736588,3.937008,32,GPSNovice,
9900,2022-07-09 11:19:36,52.1729183924979,0.105505893514449,3.937008,3.937008,57.877300736588,61.814308736588,3.937008,0,0.250523630064,1.34491802204,22,5,16.673,61.814308736588,3.937008,0.223694,0.52893046312,0,0,0,139.4, 0.6, -1.8,0,0,1024,1024,1024,1024,0,0,0,0,133.6,0,0,88,4.168,4.168,4.168,4.164,0,0,7.334,100.04,61.814308736588,3.937008,32,GPSNovice,
10100,2022-07-09 11:19:36,52.1729184309848,0.105505928276262,3.937008,3.937008,57.877300736588,61.814308736588,3.937008,0,0.239922251772,1.36097117216,22,5,16.673,61.814308736588,3.937008,0.223694,0.52893046312,0,0,0,139.3, 0.5, -1.3,0,0,1024,1024,1024,1024,0,0,0,0,133.6,0,0,88,4.168,4.168,4.168,4.164,0,0,7.334,100.04,61.814308736588,3.937008,32,GPSNovice,
10300,2022-07-09 11:19:37,52.1729184545438,0.105505910787096,3.937008,3.937008,57.877300736588,61.814308736588,3.937008,0,0.230494758032,1.37041342968,22,5,16.666,61.814308736588,3.937008,0.223694,0.52893046312,0,0,0,139.4, 0.4, -1.2,0,0,1024,1024,1024,1024,0,0,0,0,133.6,0,0,87,4.168,4.168,4.169,4.165,0,0,7.405,100.04,61.814308736588,3.937008,32,GPSNovice,
10500,2022-07-09 11:19:37,52.1729184467136,0.105505824696256,3.937008,3.937008,57.877300736588,61.814308736588,3.937008,0,0.227065952148,1.38988849592,22,5,16.666,61.814308736588,3.937008,0.223694,0.52893046312,0,0,0,139.4, 0.1, -2.1,0,0,1024,1024,1024,1024,0,0,0,0,133.6,0,0,87,4.168,4.168,4.169,4.165,0,0,7.405,100.04,61.814308736588,3.937008,32,GPSNovice,
10700,2022-07-09 11:19:37,52.1729184149903,0.105505752644245,3.937008,3.937008,57.877300736588,61.814308736588,3.937008,0,0.234440952384,1.40973429708,22,5,16.666,61.814308736588,3.937008,0.223694,0.52893046312,0,0,0,139.4, -0.1, -2.3,0,0,1024,1024,1024,1024,0,0,0,0,133.6,0,0,87,4.168,4.168,4.169,4.165,0,0,7.405,100.04,61.814308736588,3.937008,32,GPSNovice,
10900,2022-07-09 11:19:37,52.1729183879831,0.105505723218583,3.937008,3.937008,57.877300736588,61.814308736588,3.937008,0,0.242917002524,1.42158469116,21,5,16.666,61.814308736588,3.937008,0.223694,0.52893046312,0,0,0,139.5, 0, -2.1,0,0,1024,1024,1024,1024,0,0,0,0,133.6,0,0,87,4.168,4.168,4.169,4.165,0,0,7.405,100.04,61.814308736588,3.937008,32,GPSNovice,
11100,2022-07-09 11:19:37,52.1729183528331,0.105505772557029,3.937008,3.937008,57.877300736588,61.814308736588,3.937008,0,0.257551845512,1.43850726388,21,5,16.666,61.814308736588,3.937008,0.223694,0.52893046312,0,0,0,139.5, 0.2, -1.5,0,0,1024,1024,1024,1024,0,0,0,0,133.6,0,0,87,4.168,4.168,4.169,4.165,0,0,7.405,100.04,61.814308736588,3.937008,32,GPSNovice,
11300,2022-07-09 11:19:38,52.1729183019456,0.105505819520748,3.937008,3.937008,57.877300736588,61.814308736588,3.937008,0,0.277923893408,1.4598425664,21,5,16.667,61.814308736588,3.937008,0.223694,0.52893046312,0,0,0,139.6, 0.7, -1.5,0,0,1024,1024,1024,1024,0,0,0,0,133.7,0,0,87,4.168,4.168,4.169,4.164,0,0,7.119,100.04,61.814308736588,3.937008,32,GPSNovice,
11500,2022-07-09 11:19:38,52.1729182538338,0.105505845524009,3.937008,3.937008,57.877300736588,61.814308736588,3.937008,0,0.29633859216,1.47833338064,21,5,16.667,61.814308736588,3.937008,0.223694,0.52893046312,0,0,0,139.5, 0.5, -1.8,0,0,1024,1024,1024,1024,0,0,0,0,133.7,0,0,87,4.168,4.168,4.169,4.164,0,0,7.119,100.04,61.814308736588,3.937008,32,GPSNovice,
11700,2022-07-09 11:19:38,52.1729181945379,0.105505876018298,3.608924,3.608924,57.877300736588,61.486224736588,3.937008,0,0.31896490522,1.50102038924,21,5,16.667,61.814308736588,3.937008,0.223694,0.52893046312,0,0,0,139.4, 0.3, -1.5,0,0,1024,1024,1024,1024,0,0,0,0,133.7,0,0,87,4.168,4.168,4.169,4.164,0,0,7.119,100.04,61.486224736588,3.608924,32,GPSNovice,
11900,2022-07-09 11:19:38,52.1729181344667,0.10550594696676,3.608924,3.608924,57.877300736588,61.486224736588,3.937008,0,0.3441437118,1.52808075756,21,5,16.667,61.814308736588,3.937008,0.223694,0.52893046312,0,0,0,139.5, 0.7, -1.3,0,0,1024,1024,1024,1024,0,0,0,0,133.7,0,0,87,4.168,4.168,4.169,4.164,0,0,7.119,100.04,61.486224736588,3.608924,32,GPSNovice,
12100,2022-07-09 11:19:38,52.1729180955172,0.105506001718187,3.608924,3.608924,57.877300736588,61.486224736588,3.937008,0,0.36116799056,1.54684388152,22,5,16.667,61.814308736588,3.937008,0.223694,0.52893046312,0,0,0,139.4, 0.5, -1.4,0,0,1024,1024,1024,1024,0,0,0,0,133.7,0,0,87,4.168,4.168,4.169,4.164,0,0,7.119,100.04,61.486224736588,3.608924,32,GPSNovice,
12300,2022-07-09 11:19:39,52.1729180456835,0.105506055799103,3.937008,3.937008,57.877300736588,61.814308736588,3.937008,0,0.38209646892,1.5686844334,21,5,16.654,61.814308736588,3.937008,0.223694,0.52893046312,0,0,0,139.4, 0.4, -1.3,0,0,1024,1024,1024,1024,0,0,0,0,133.7,0,0,87,4.164,4.164,4.166,4.161,0,0,7.229,100.04,61.814308736588,3.937008,32,GPSNovice,
12500,2022-07-09 11:19:39,52.1729179866703,0.105506085727648,3.937008,3.937008,57.877300736588,61.814308736588,3.937008,0,0.40464568224,1.59123364672,21,5,16.654,61.814308736588,3.937008,0.223694,0.52893046312,0,0,-0.223694,139.4, 0.3, -1.2,0,0,1024,1024,1024,1024,0,0,0,0,133.7,0,0,87,4.164,4.164,4.166,4.161,0,0,7.229,100.04,61.814308736588,3.937008,32,GPSNovice,
12700,2022-07-09 11:19:39,52.1729179448509,0.10550611027115,3.937008,3.937008,57.877300736588,61.814308736588,4.265092,0,0.420849751,1.607447558,21,5,16.654,61.814308736588,3.937008,0.223694,0.52893046312,0,0,-0.447388,139.4, 0.4, -1.3,0,0,1024,1024,1024,1024,0,0,0,0,133.7,0,0,87,4.164,4.164,4.166,4.161,0,0,7.229,100.04,61.814308736588,3.937008,32,GPSNovice,
12900,2022-07-09 11:19:39,52.172917932189,0.105506158114915,3.937008,3.937008,57.877300736588,61.814308736588,4.265092,0,0.4285761292,1.61910766336,21,5,16.654,61.814308736588,3.937008,0.223694,0.52893046312,0,0,0,139.4, 0.5, -1.1,0,0,1024,1024,1024,1024,0,0,0,0,133.7,0,0,87,4.164,4.164,4.166,4.161,0,0,7.229,100.04,61.814308736588,3.937008,32,GPSNovice,
13100,2022-07-09 11:19:40,52.1729179211933,0.105506163730446,4.265092,4.265092,57.877300736588,62.142392736588,4.265092,0,0.43277888524,1.62331370024,21,5,16.654,62.142392736588,4.265092,0.223694,0.52893046312,0,0,0,139.4, 0.4, -1,0,0,1024,1024,1024,1024,0,0,0,0,133.7,0,0,87,4.164,4.164,4.166,4.161,0,0,7.229,100.04,62.142392736588,4.265092,32,GPSNovice,
13300,2022-07-09 11:19:40,52.1729179093367,0.105506144131964,4.265092,4.265092,57.877300736588,62.142392736588,4.265092,0,0.43550198244,1.62947183692,21,5,16.648,62.142392736588,4.265092,0.223694,0.52893046312,0,0,-0.447388,139.4, 0.1, -1.1,0,0,1024,1024,1024,1024,0,0,0,0,133.7,0,0,87,4.164,4.163,4.165,4.162,0,0,7.414,100.22,62.142392736588,4.265092,32,GPSNovice,
13500,2022-07-09 11:19:40,52.1729179113713,0.105506154741406,4.593176,4.593176,57.877300736588,62.470476736588,4.593176,0,0.43553807168,1.63195871364,22,5,16.648,62.470476736588,4.593176,0.223694,0.52893046312,0,0,-1.565858,139.5, 0.4, -1.3,0,0,1024,1024,1024,1024,0,0,0,0,133.7,0,0,87,4.164,4.163,4.165,4.162,0,0,7.414,100.22,62.470476736588,4.593176,32,GPSNovice,
13700,2022-07-09 11:19:40,52.1729179098207,0.105506194210766,5.249344,5.249344,57.877300736588,63.126644736588,5.249344,0,0.43893046024,1.64080713912,22,5,16.648,63.126644736588,5.249344,0.223694,0.52893046312,0,0,-2.013246,139.3, 0.7, -1.7,0,0,1024,1024,1024,1024,0,0,0,0,133.7,0,0,87,4.164,4.163,4.165,4.162,0,0,7.414,100.22,63.126644736588,5.249344,32,GPSNovice,
13900,2022-07-09 11:19:40,52.1729179377532,0.10550620939505,5.577428,5.577428,57.877300736588,63.454728736588,5.905512,0,0.43049870144,1.65155189012,22,5,16.648,63.454728736588,5.577428,0.223694,0.52893046312,0,0,-1.342164,139.3, 0.7, -1.8,0,0,1024,1024,1024,1024,0,0,0,0,133.7,0,0,87,4.164,4.163,4.165,4.162,0,0,7.414,100.22,63.454728736588,5.577428,32,GPSNovice,
14100,2022-07-09 11:19:40,52.1729179351788,0.105506215031535,5.905512,5.905512,57.877300736588,63.782812736588,6.233596,0,0.43181759912,1.65312341248,21,5,16.648,63.782812736588,5.905512,0.223694,0.52893046312,0,0,-0.223694,139.4, 0.6, -1.9,0,0,1024,1024,1024,1024,0,0,0,0,133.7,0,0,87,4.164,4.163,4.165,4.162,0,0,7.414,100.22,63.782812736588,5.905512,32,GPSNovice,
14300,2022-07-09 11:19:41,52.172917949325,0.105506280029211,5.905512,5.905512,57.877300736588,63.782812736588,6.233596,0,0.43313977764,1.65469493484,22,5,16.625,63.782812736588,5.905512,0.223694,0.52893046312,0,0,0,139.4, 0.4, -1.6,0,0,1024,1024,1024,1024,0,0,0,0,133.7,0,0,87,4.167,4.171,4.174,4.17,0,0,8.183,100.22,63.782812736588,5.905512,32,GPSNovice,
14500,2022-07-09 11:19:41,52.1729179634711,0.105506345026886,5.905512,5.905512,57.877300736588,63.782812736588,6.233596,0,0.43338584064,1.68471462084,22,5,16.625,63.782812736588,5.905512,0.223694,0.52893046312,0,0,0,139.5, 0.3, -1.4,0,0,1024,1024,1024,1024,0,0,0,0,133.7,0,0,87,4.167,4.171,4.174,4.17,0,0,8.183,100.22,63.782812736588,5.905512,32,GPSNovice,
14700,2022-07-09 11:19:41,52.172917972175,0.10550640585482,5.905512,5.905512,57.877300736588,63.782812736588,6.233596,0,0.43635172,1.69869099924,22,5,16.625,63.782812736588,5.905512,0.223694,0.52893046312,0,0,0,139.4, 0.2, -1.4,0,0,1024,1024,1024,1024,0,0,0,0,133.7,0,0,87,4.167,4.171,4.174,4.17,0,0,8.183,100.22,63.782812736588,5.905512,32,GPSNovice,
14900,2022-07-09 11:19:41,52.1729179791785,0.105506438472394,5.905512,5.905512,57.877300736588,63.782812736588,6.233596,0,0.43736221872,1.70642393912,22,5,16.625,63.782812736588,5.905512,0.223694,0.52893046312,0,0,0,139.4, 0.4, -1.3,0,0,1024,1024,1024,1024,0,0,0,0,133.7,0,0,87,4.167,4.171,4.174,4.17,0,0,8.183,100.22,63.782812736588,5.905512,32,GPSNovice,
15100,2022-07-09 11:19:41,52.1729179833977,0.105506458273427,5.905512,5.905512,57.877300736588,63.782812736588,6.233596,0,0.43805119512,1.71111554032,22,5,16.625,63.782812736588,5.905512,0.223694,0.52893046312,0,0,0,139.5, 0.5, -1.4,0,0,1024,1024,1024,1024,0,0,0,0,133.7,0,0,87,4.167,4.171,4.174,4.17,0,0,8.183,100.22,63.782812736588,5.905512,32,GPSNovice,
15300,2022-07-09 11:19:42,52.1729179839588,0.105506477767142,5.905512,5.905512,57.877300736588,63.782812736588,6.233596,0,0.4399278356,1.71548233836,22,5,16.644,63.782812736588,5.905512,0.223694,0.52893046312,0,0,-0.671082,139.6, 0.1, -1.2,0,0,1024,1024,1024,1024,0,0,0,0,133.7,0,0,87,4.16,4.162,4.161,4.158,0,0,6.663,100.22,63.782812736588,5.905512,32,GPSNovice,
15500,2022-07-09 11:19:42,52.1729179937508,0.105506528369781,6.56168,6.5288716,57.910109136588,64.438980736588,6.56168,0,0.44232941048,1.72735241748,22,5,16.644,64.438980736588,6.56168,0.223694,0.52893046312,0,0,-1.565858,139.4, 0.2, -0.7,0,0,1024,1024,1024,1024,0,0,0,0,133.7,0,0,87,4.16,4.162,4.161,4.158,0,0,6.663,100.22,64.438980736588,6.56168,32,GPSNovice,
15700,2022-07-09 11:19:42,52.1729179675703,0.105506568837924,6.889764,6.8569556,57.910109136588,64.767064736588,6.889764,0,0.455134529,1.74051514756,21,5,16.644,64.767064736588,6.889764,0.223694,0.52893046312,0,0,-0.671082,139.4, 0.8, -1.1,0,0,1024,1024,1024,1024,0,0,0,0,133.7,0,0,87,4.16,4.162,4.161,4.158,0,0,6.663,100.22,64.767064736588,6.889764,32,GPSNovice,
15900,2022-07-09 11:19:42,52.1729179579454,0.105506583645045,6.889764,6.8569556,57.910109136588,64.767064736588,7.217848,0,0.45983925356,1.74534454404,22,5,16.644,64.767064736588,6.889764,0.223694,0.52893046312,0,0,0,139.4, 0.4, -0.5,0,0,1024,1024,1024,1024,0,0,0,0,133.7,0,0,87,4.16,4.162,4.161,4.158,0,0,6.663,100.22,64.767064736588,6.889764,32,GPSNovice,
16100,2022-07-09 11:19:42,52.1729179607382,0.10550660183266,6.889764,6.8569556,57.910109136588,64.767064736588,7.217848,0,0.461040041,1.74953745756,22,5,16.644,64.767064736588,6.889764,0.223694,0.52893046312,0,0,0,139.4, 0, -0.7,0,0,1024,1024,1024,1024,0,0,0,0,133.7,0,0,87,4.16,4.162,4.161,4.158,0,0,6.663,100.22,64.767064736588,6.889764,32,GPSNovice,
16300,2022-07-09 11:19:43,52.1729179883408,0.105506549972813,6.889764,6.8569556,57.910109136588,64.767064736588,7.217848,0,0.44646326888,1.76490163128,22,5,16.674,64.767064736588,6.889764,0.223694,0.52893046312,0,0,0,139.4, -0.2, -0.8,0,0,1024,1024,1024,1024,0,0,0,0,133.7,0,0,87,4.164,4.164,4.165,4.159,0,0,7.522,100.4,64.767064736588,6.889764,32,GPSNovice,
16500,2022-07-09 11:19:43,52.1729180120926,0.105506556272824,6.889764,6.8569556,57.910109136588,64.767064736588,7.217848,0,0.4397309852,1.77368115912,22,5,16.674,64.767064736588,6.889764,0.223694,0.52893046312,0,0,0,139.3, -0.1, -0.5,0,0,1024,1024,1024,1024,0,0,0,0,133.7,0,0,87,4.164,4.164,4.165,4.159,0,0,7.522,100.4,64.767064736588,6.889764,32,GPSNovice,
16700,2022-07-09 11:19:43,52.1729180443085,0.105506579684838,6.889764,6.8569556,57.910109136588,64.767064736588,7.217848,0,0.43249345216,1.78655189444,22,5,16.674,64.767064736588,6.889764,0.223694,0.52893046312,0,0,0,139.3, 0, -0.1,0,0,1024,1024,1024,1024,0,0,0,0,133.7,0,0,87,4.164,4.164,4.165,4.159,0,0,7.522,100.4,64.767064736588,6.889764,32,GPSNovice,
16900,2022-07-09 11:19:43,52.17291805216,0.10550659298331,6.889764,6.8569556,57.910109136588,64.767064736588,7.217848,0,0.4316929272,1.790682472,23,5,16.674,64.767064736588,6.889764,0.223694,0.52893046312,0,0,0,139.3, 0, 0,0,0,1024,1024,1024,1024,0,0,0,0,133.7,0,0,87,4.164,4.164,4.165,4.159,0,0,7.522,100.4,64.767064736588,6.889764,32,GPSNovice,
17100,2022-07-09 11:19:43,52.1729180521943,0.105506620292671,6.889764,6.8569556,57.910109136588,64.767064736588,7.217848,0,0.43504266484,1.79679139608,23,5,16.674,64.767064736588,6.889764,0.223694,0.52893046312,0,0,0,139.4, 0.1, -0.1,0,0,1024,1024,1024,1024,0,0,0,0,133.7,0,0,87,4.164,4.164,4.165,4.159,0,0,7.522,100.4,64.767064736588,6.889764,32,GPSNovice,
17300,2022-07-09 11:19:44,52.1729180493415,0.105506646261009,6.889764,6.8569556,57.910109136588,64.767064736588,7.217848,0,0.43915027652,1.80269690808,23,5,16.635,64.767064736588,6.889764,0.223694,0.52893046312,0,0,0,139.4, 0.4, 0,0,0,1024,1024,1024,1024,0,0,0,0,133.7,0,0,87,4.158,4.159,4.159,4.155,0,0,7.112,100.4,64.767064736588,6.889764,32,GPSNovice,
17500,2022-07-09 11:19:44,52.1729180358401,0.105506674198974,6.889764,6.8569556,57.910109136588,64.767064736588,7.217848,0,0.44674542112,1.81065294508,23,5,16.635,64.767064736588,6.889764,0.223694,0.52893046312,0,0,0,139.4, 0.6, -0.1,0,0,1024,1024,1024,1024,0,0,0,0,133.7,0,0,87,4.158,4.159,4.159,4.155,0,0,7.112,100.4,64.767064736588,6.889764,32,GPSNovice,
17700,2022-07-09 11:19:44,52.1729180435717,0.105506674345648,6.889764,6.8569556,57.910109136588,64.767064736588,7.217848,0,0.44444555228,1.81347446748,23,5,16.635,64.767064736588,6.889764,0.223694,0.52893046312,0,0,0,139.4, 0.7, 0,0,0,1024,1024,1024,1024,0,0,0,0,133.7,0,0,87,4.158,4.159,4.159,4.155,0,0,7.112,100.4,64.767064736588,6.889764,32,GPSNovice,
17900,2022-07-09 11:19:44,52.1729180778479,0.105506642719872,6.889764,6.8569556,57.910109136588,64.767064736588,7.217848,0,0.43013780904,1.82784454668,23,5,16.635,64.767064736588,6.889764,0.223694,0.52893046312,0,0,0,139.4, 0.5, -0.2,0,0,1024,1024,1024,1024,0,0,0,0,133.7,0,0,87,4.158,4.159,4.159,4.155,0,0,7.112,100.4,64.767064736588,6.889764,32,GPSNovice,
18100,2022-07-09 11:19:44,52.1729181628532,0.105506620362516,6.889764,6.8569556,57.910109136588,64.767064736588,7.217848,0,0.40207678452,1.85925858968,23,5,16.635,64.767064736588,6.889764,0.223694,0.52893046312,0,0,0,139.5, 0.6, -0.2,0,0,1024,1024,1024,1024,0,0,0,0,133.7,0,0,87,4.158,4.159,4.159,4.155,0,0,7.112,100.4,64.767064736588,6.889764,32,GPSNovice,
18300,2022-07-09 11:19:45,52.1729182736791,0.10550659559551,6.889764,6.8569556,57.910109136588,64.767064736588,7.217848,0,0.36694226896,1.90007223928,23,5,16.633,64.767064736588,6.889764,0.223694,0.52893046312,0,0,0,139.4, 0.4, 0.1,0,0,1024,1024,1024,1024,0,0,0,0,133.7,0,0,87,4.157,4.159,4.16,4.155,0,0,7.173,100.4,64.767064736588,6.889764,32,GPSNovice,
18500,2022-07-09 11:19:45,52.1729184180959,0.105506572665425,6.889764,6.8569556,57.910109136588,64.767064736588,7.217848,0,0.324645351596,1.95301187352,23,5,16.633,64.767064736588,6.889764,0.223694,0.52893046312,0,0,0,139.4, -0.3, 0.6,0,0,1024,1024,1024,1024,0,0,0,0,133.7,0,0,87,4.157,4.159,4.16,4.155,0,0,7.173,100.4,64.767064736588,6.889764,32,GPSNovice,
18700,2022-07-09 11:19:45,52.1729185373944,0.105506541612377,6.889764,6.8569556,57.910109136588,64.767064736588,7.217848,0,0.290239838684,1.99708995892,23,5,16.633,64.767064736588,6.889764,0.223694,0.52893046312,0,0,0,139.3, -0.7, 0.5,0,0,1024,1024,1024,1024,0,0,0,0,133.7,0,0,87,4.157,4.159,4.16,4.155,0,0,7.173,100.4,64.767064736588,6.889764,32,GPSNovice,
18900,2022-07-09 11:19:45,52.1729186068764,0.105506527629425,6.889764,6.8569556,57.910109136588,64.767064736588,7.217848,0,0.272236229184,2.02263129832,23,5,16.633,64.767064736588,6.889764,0.223694,0.52893046312,0,0,0,139.3, -0.4, 0.1,0,0,1024,1024,1024,1024,0,0,0,0,133.7,0,0,87,4.157,4.159,4.16,4.155,0,0,7.173,100.4,64.767064736588,6.889764,32,GPSNovice,
19100,2022-07-09 11:19:45,52.1729186490599,0.105506551118269,6.889764,6.8569556,57.910109136588,64.767064736588,7.217848,0,0.267918971828,2.0388944222,23,5,16.633,64.767064736588,6.889764,0.223694,0.52893046312,0,0,0,139.3, -0.1, 0,0,0,1024,1024,1024,1024,0,0,0,0,133.7,0,0,87,4.157,4.159,4.16,4.155,0,0,7.173,100.4,64.767064736588,6.889764,32,GPSNovice,
19300,2022-07-09 11:19:46,52.1729187001873,0.105506612225583,6.889764,6.8569556,57.910109136588,64.767064736588,6.889764,0,0.270383538836,2.0620243442,23,5,16.624,64.767064736588,6.889764,0.223694,0.52893046312,0,0,0.447388,139.3, 0.2, 0.2,0,0,1024,1024,1024,1024,0,0,0,0,133.7,0,0,87,4.155,4.158,4.157,4.153,0,0,7.324,100.4,64.767064736588,6.889764,32,GPSNovice,
19500,2022-07-09 11:19:46,52.172918761355,0.105506685471943,6.56168,6.5288716,57.910109136588,64.438980736588,6.56168,0,0.275891413028,2.08971135296,23,5,16.624,64.767064736588,6.889764,0.223694,0.52893046312,0,0,1.11847,139.4, 0.1, 0.3,0,0,1024,1024,1024,1024,0,0,0,0,133.7,0,0,87,4.155,4.158,4.157,4.153,0,0,7.324,100.4,64.438980736588,6.56168,32,GPSNovice,
19700,2022-07-09 11:19:46,52.1729187874156,0.10550674028623,6.233596,6.2007876,57.910109136588,64.110896736588,6.233596,0,0.284021334548,2.10522972616,23,5,16.624,64.767064736588,6.889764,0.223694,0.52893046312,0,0,1.11847,139.6, 0.1, 0.2,0,0,1024,1024,1024,1024,0,0,0,0,133.7,0,0,87,4.155,4.158,4.157,4.153,0,0,7.324,100.4,64.110896736588,6.233596,32,GPSNovice,
19900,2022-07-09 11:19:46,52.1729188201112,0.105506754506655,5.905512,5.8727036,57.910109136588,63.782812736588,6.233596,0,0.283353355524,2.11757552708,23,5,16.624,64.767064736588,6.889764,0.223694,0.52893046312,0,0,0.223694,139.7, 0.4, -0.1,0,0,1024,1024,1024,1024,0,0,0,0,133.7,0,0,87,4.155,4.158,4.157,4.153,0,0,7.324,100.4,63.782812736588,5.905512,32,GPSNovice,
20100,2022-07-09 11:19:46,52.1729188434989,0.105506743967057,5.905512,5.8727036,57.910109136588,63.782812736588,6.233596,0,0.278731308132,2.12643051424,23,5,16.624,64.767064736588,6.889764,0.223694,0.52893046312,0,0,0,139.4, 0.2, -0.5,0,0,1024,1024,1024,1024,0,0,0,0,133.7,0,0,87,4.155,4.158,4.157,4.153,0,0,7.324,100.4,63.782812736588,5.905512,32,GPSNovice,
20300,2022-07-09 11:19:47,52.1729188629801,0.105506641336943,5.905512,5.8727036,57.910109136588,63.782812736588,5.905512,0,0.254707685316,2.15046922892,23,5,16.598,64.767064736588,6.889764,0.223694,0.52893046312,0,0,0,139.3, 0, -1.1,0,0,1024,1024,1024,1024,0,0,0,0,133.7,0,0,87,4.153,4.156,4.152,4.148,0,0,7.187,100.58,63.782812736588,5.905512,32,GPSNovice,
20500,2022-07-09 11:19:47,52.1729188708616,0.105506524514342,5.905512,5.8727036,57.910109136588,63.782812736588,5.905512,0,0.228754272412,2.17676516152,23,5,16.598,64.767064736588,6.889764,0.223694,0.52893046312,0,0,0,139.2, -0.3, -1.8,0,0,1024,1024,1024,1024,0,0,0,0,133.7,0,0,87,4.153,4.156,4.152,4.148,0,0,7.187,100.58,63.782812736588,5.905512,32,GPSNovice,
20700,2022-07-09 11:19:47,52.1729189002933,0.105506451191153,5.905512,5.905512,57.877300736588,63.782812736588,5.905512,0,0.210095807248,2.1963747422,23,5,16.598,64.767064736588,6.889764,0.223694,0.52893046312,0,0,0,139.2, -0.8, -1.8,0,0,1024,1024,1024,1024,0,0,0,0,133.7,0,0,87,4.153,4.156,4.152,4.148,0,0,7.187,100.58,63.782812736588,5.905512,32,GPSNovice,
20900,2022-07-09 11:19:47,52.1729189215735,0.105506395294269,5.905512,5.905512,57.877300736588,63.782812736588,6.233596,0,0.196091869792,2.21109587128,23,5,16.598,64.767064736588,6.889764,0.223694,0.52893046312,0,0,0,139.3, -1.1, -2.2,0,0,1024,1024,1024,1024,0,0,0,0,133.7,0,0,87,4.153,4.156,4.152,4.148,0,0,7.187,100.58,63.782812736588,5.905512,32,GPSNovice,
21100,2022-07-09 11:19:48,52.1729189532968,0.105506397864562,5.905512,5.905512,57.877300736588,63.782812736588,6.233596,0,0.194340229316,2.22268379816,23,5,16.598,64.767064736588,6.889764,0.223694,0.52893046312,0,0,0,139.5, -1.4, -1.9,0,0,1024,1024,1024,1024,0,0,0,0,133.7,0,0,87,4.153,4.156,4.152,4.148,0,0,7.187,100.58,63.782812736588,5.905512,32,GPSNovice,
21300,2022-07-09 11:19:48,52.1729189649478,0.105506458077861,5.905512,5.905512,57.877300736588,63.782812736588,6.233596,0,0.206988851768,2.2368110952,23,5,16.62,64.767064736588,6.889764,0.223694,0.52893046312,0,0,0,139.6, -1.6, -1.5,0,0,1024,1024,1024,1024,0,0,0,0,133.7,0,0,87,4.156,4.158,4.158,4.153,0,0,7.332,100.58,63.782812736588,5.905512,32,GPSNovice,
21500,2022-07-09 11:19:48,52.1729189303075,0.105506519324865,5.905512,5.8727036,57.910109136588,63.782812736588,6.233596,0,0.222581371952,2.25545282808,23,5,16.62,64.767064736588,6.889764,0.223694,0.52893046312,0,0,0,139.2, -1, -1.9,0,0,1024,1024,1024,1024,0,0,0,0,133.7,0,0,87,4.156,4.158,4.158,4.153,0,0,7.332,100.58,63.782812736588,5.905512,32,GPSNovice,
21700,2022-07-09 11:19:48,52.1729189260883,0.105506635316311,5.905512,5.8727036,57.910109136588,63.782812736588,6.233596,0,0.248387147056,2.28145348508,23,5,16.62,64.767064736588,6.889764,0.223694,0.52893046312,0,0,0,136.3, -0.7, -1.6,0,0,1024,1024,1024,1024,0,0,0,0,133.6,0,0,87,4.156,4.158,4.158,4.153,0,0,7.332,100.58,63.782812736588,5.905512,32,GPSNovice,
21900,2022-07-09 11:19:48,52.1729189456851,0.105506732812825,5.905512,5.8727036,57.910109136588,63.782812736588,6.233596,0,0.268845481044,2.30440952256,23,5,16.62,64.767064736588,6.889764,0.223694,0.52893046312,0,0,0,122.6, -0.8, -1.4,0,0,1024,1024,1024,1024,0,0,0,0,126.2,0,0,87,4.156,4.158,4.158,4.153,0,0,7.332,100.58,63.782812736588,5.905512,32,GPSNovice,
22100,2022-07-09 11:19:48,52.172918973035,0.105506793801402,5.905512,5.8727036,57.910109136588,63.782812736588,6.233596,0,0.281275599552,2.32131569108,23,5,16.62,64.767064736588,6.889764,0.223694,0.52893046312,0,0,0,108.4, -1, -1.1,0,0,1024,1024,1024,1024,0,0,0,0,108.4,0,0,87,4.156,4.158,4.158,4.153,0,0,7.332,100.58,63.782812736588,5.905512,32,GPSNovice,
22300,2022-07-09 11:19:49,52.1729189775284,0.105506806401424,5.905512,5.8727036,57.910109136588,63.782812736588,6.233596,0,0.294152240384,2.3382218596,23,5,16.621,64.767064736588,6.889764,0.223694,0.52893046312,0,0,0,105.9, -1.8, -1.2,0,0,1024,1024,1024,1024,0,0,0,0,101.8,0,0,87,4.154,4.158,4.157,4.154,0,0,7.022,100.58,63.782812736588,5.905512,32,GPSNovice,
22500,2022-07-09 11:19:49,52.1729189820217,0.105506819001447,5.905512,5.8727036,57.910109136588,63.782812736588,6.233596,0,0.286611229644,2.34866149248,23,5,16.621,64.767064736588,6.889764,0.223694,0.52893046312,0,0,0,106.4, -1.4, -1.3,0,0,1024,1024,1024,1024,0,0,0,0,101.4,0,0,87,4.154,4.158,4.157,4.154,0,0,7.022,100.58,63.782812736588,5.905512,32,GPSNovice,
22700,2022-07-09 11:19:49,52.1729189487949,0.105506887142143,5.905512,5.8727036,57.910109136588,63.782812736588,6.233596,0,0.302968513632,2.36813983956,23,5,16.621,64.767064736588,6.889764,0.223694,0.52893046312,0,0,0,106.4, -1.1, -1.2,0,0,1024,1024,1024,1024,0,0,0,0,101.3,0,0,87,4.154,4.158,4.157,4.154,0,0,7.022,100.58,63.782812736588,5.905512,32,GPSNovice,
22900,2022-07-09 11:19:49,52.1729188884452,0.105506957510893,5.905512,5.8727036,57.910109136588,63.782812736588,6.233596,0,0.321771335756,2.3952100504,22,5,16.621,64.767064736588,6.889764,0.223694,0.52893046312,0,0,0,106.3, -1, -1.8,0,0,1024,1024,1024,1024,0,0,0,0,101.3,0,0,87,4.154,4.158,4.157,4.154,0,0,7.022,100.58,63.782812736588,5.905512,32,GPSNovice,
23100,2022-07-09 11:19:49,52.1729188421025,0.105507020951027,5.905512,5.8727036,57.910109136588,63.782812736588,6.233596,0,0.33902888224,2.41728682276,21,5,16.621,64.767064736588,6.889764,0.223694,0.52893046312,0,0,0,106.4, -1.1, -1.6,0,0,1024,1024,1024,1024,0,0,0,0,101.3,0,0,87,4.154,4.158,4.157,4.154,0,0,7.022,100.58,63.782812736588,5.905512,32,GPSNovice,
23300,2022-07-09 11:19:50,52.1729187906903,0.105507060979146,5.905512,5.8727036,57.910109136588,63.782812736588,6.233596,0,0.35681759672,2.43936359512,21,5,16.62,64.767064736588,6.889764,0.223694,0.52893046312,0,0,0,106.4, -1.3, -1.3,0,0,1024,1024,1024,1024,0,0,0,0,101.2,0,0,87,4.155,4.158,4.156,4.152,0,0,6.974,100.58,63.782812736588,5.905512,32,GPSNovice,
23500,2022-07-09 11:19:50,52.1729187392781,0.105507101007266,5.905512,5.8727036,57.910109136588,63.782812736588,6.233596,0,0.36614502484,2.460301916,21,5,16.62,64.767064736588,6.889764,0.223694,0.52893046312,0,0,0,108.1, -1.6, -1.6,0,0,1024,1024,1024,1024,0,0,0,0,101.2,0,0,87,4.155,4.158,4.156,4.152,0,0,6.974,100.58,63.782812736588,5.905512,32,GPSNovice,
23700,2022-07-09 11:19:50,52.1729186693292,0.105507124335466,5.905512,5.8727036,57.910109136588,63.782812736588,6.233596,0,0.3795603796,2.4863517856,21,5,16.62,64.767064736588,6.889764,0.223694,0.52893046312,0,0,0,120.1, -1.9, -1.3,0,0,1024,1024,1024,1024,0,0,0,0,105.5,0,0,87,4.155,4.158,4.156,4.152,0,0,6.974,100.58,63.782812736588,5.905512,32,GPSNovice,
23900,2022-07-09 11:19:50,52.1729185900724,0.105507164559152,5.905512,5.8727036,57.910109136588,63.782812736588,6.233596,0,0.39908793928,2.51663721964,21,5,16.62,64.767064736588,6.889764,0.223694,0.52893046312,0,0,0,125.2, -1.7, -0.9,0,0,1024,1024,1024,1024,0,0,0,0,115.4,0,0,87,4.155,4.158,4.156,4.152,0,0,6.974,100.58,63.782812736588,5.905512,32,GPSNovice,
24100,2022-07-09 11:19:50,52.1729184427343,0.105507174288548,5.905512,5.8727036,57.910109136588,63.782812736588,6.233596,0,0.42610893752,2.57043643396,21,5,16.62,64.767064736588,6.889764,0.223694,0.52893046312,0,0,0,125.1, -1.2, -2,0,0,1024,1024,1024,1024,0,0,0,0,117,0,0,87,4.155,4.158,4.156,4.152,0,0,6.974,100.58,63.782812736588,5.905512,32,GPSNovice,
24300,2022-07-09 11:19:51,52.1729182899862,0.105507210656794,5.905512,5.8727036,57.910109136588,63.782812736588,6.233596,0,0.46384844004,2.62675861424,22,5,16.616,64.767064736588,6.889764,0.223694,0.52893046312,0,0,0,125.2, -1.3, -2.3,0,0,1024,1024,1024,1024,0,0,0,0,117.4,0,0,87,4.152,4.155,4.154,4.15,0,0,7.018,100.76,63.782812736588,5.905512,32,GPSNovice,
24500,2022-07-09 11:19:51,52.1729181959857,0.105507275626532,5.905512,5.8727036,57.910109136588,63.782812736588,6.233596,0,0.49626313924,2.6640092716,22,5,16.616,64.767064736588,6.889764,0.223694,0.52893046312,0,0,0,125.3, -1.1, -2,0,0,1024,1024,1024,1024,0,0,0,0,117.6,0,0,87,4.152,4.155,4.154,4.15,0,0,7.018,100.76,63.782812736588,5.905512,32,GPSNovice,
24700,2022-07-09 11:19:51,52.1729181302732,0.105507334680405,5.905512,5.8727036,57.910109136588,63.782812736588,6.233596,0,0.52165356,2.69138460056,22,5,16.616,64.767064736588,6.889764,0.223694,0.52893046312,0,0,0,132.2, -1.2, -1.6,0,0,1024,1024,1024,1024,0,0,0,0,119,0,0,87,4.152,4.155,4.154,4.15,0,0,7.018,100.76,63.782812736588,5.905512,32,GPSNovice,
24900,2022-07-09 11:19:51,52.1729180681887,0.105507411845064,5.905512,5.8727036,57.910109136588,63.782812736588,6.233596,0,0.54944883648,2.7198655726,22,5,16.616,64.767064736588,6.889764,0.223694,0.54944883648,0,0,0,145, -1.7, -0.6,0,0,1024,1024,1024,1024,0,0,0,0,131.9,0,0,87,4.152,4.155,4.154,4.15,0,0,7.018,100.76,63.782812736588,5.905512,32,GPSNovice,
25100,2022-07-09 11:19:51,52.1729179209277,0.105507471220225,5.905512,5.8727036,57.910109136588,63.782812736588,6.233596,0,0.59527232876,2.7752133434,22,5,16.616,64.767064736588,6.889764,0.223694,0.59527232876,0,0,0,145.2, -0.5, -1.8,0,0,1024,1024,1024,1024,0,0,0,0,136.9,0,0,87,4.152,4.155,4.154,4.15,0,0,7.018,100.76,63.782812736588,5.905512,32,GPSNovice,
25300,2022-07-09 11:19:52,52.172917799421,0.105507477670402,5.905512,5.8727036,57.910109136588,63.782812736588,6.233596,0,0.64259516492,2.83055783336,22,5,16.611,64.767064736588,6.889764,0.223694,0.64259516492,0,0,0,145.3, -0.5, -2.1,0,0,1024,1024,1024,1024,0,0,0,0,137.5,0,0,87,4.152,4.153,4.151,4.149,0,0,7.111,100.76,63.782812736588,5.905512,32,GPSNovice,
25500,2022-07-09 11:19:52,52.1729176779143,0.10550748412058,5.905512,5.8727036,57.910109136588,63.782812736588,6.233596,0,0.66136156972,2.86700796576,22,5,16.611,64.767064736588,6.889764,0.223694,0.66136156972,0,0,0,145.4, -0.9, -2.1,0,0,1024,1024,1024,1024,0,0,0,0,137.8,0,0,87,4.152,4.153,4.151,4.149,0,0,7.111,100.76,63.782812736588,5.905512,32,GPSNovice,
25700,2022-07-09 11:19:52,52.1729176008206,0.105507484134549,5.905512,5.8727036,57.910109136588,63.782812736588,5.905512,0,0.68281826332,2.89513460708,22,5,16.611,64.767064736588,6.889764,0.223694,0.68281826332,0,0,0,145.4, -0.8, -1.8,0,0,1024,1024,1024,1024,0,0,0,0,138,0,0,87,4.152,4.153,4.151,4.149,0,0,7.111,100.76,63.782812736588,5.905512,32,GPSNovice,
25900,2022-07-09 11:19:52,52.1729175114634,0.105507494283015,5.905512,5.8727036,57.910109136588,63.782812736588,6.233596,0,0.70966537704,2.92781833516,22,5,16.611,64.767064736588,6.889764,0.223694,0.70966537704,0,0,0,145.4, -0.9, -1.7,0,0,1024,1024,1024,1024,0,0,0,0,138.1,0,0,87,4.152,4.153,4.151,4.149,0,0,7.111,100.76,63.782812736588,5.905512,32,GPSNovice,
26100,2022-07-09 11:19:52,52.1729174206413,0.105507499542337,5.905512,5.8727036,57.910109136588,63.782812736588,5.905512,0,0.73676511544,2.9609745042,22,5,16.611,64.767064736588,6.889764,0.223694,0.73676511544,0,0,0,145.3, -0.5, -0.8,0,0,1024,1024,1024,1024,0,0,0,0,138.3,0,0,87,4.152,4.153,4.151,4.149,0,0,7.111,100.76,63.782812736588,5.905512,32,GPSNovice,
26300,2022-07-09 11:19:53,52.1729173078278,0.105507472009472,5.905512,5.8727036,57.910109136588,63.782812736588,6.233596,0,0.7667651164,3.0025919596,22,5,16.602,64.767064736588,6.889764,0.223694,0.7667651164,0,0,0,145.3, -1.9, -0.7,0,0,1024,1024,1024,1024,0,0,0,0,138.3,0,0,87,4.149,4.153,4.152,4.148,0,0,7.273,100.76,63.782812736588,5.905512,32,GPSNovice,
26500,2022-07-09 11:19:53,52.1729171001144,0.105507441703765,5.905512,5.8727036,57.910109136588,63.782812736588,5.905512,0,0.82697837292,3.07867792004,22,5,16.602,64.767064736588,6.889764,0.223694,0.82697837292,0,0,0,145.4, -5.5, -1,0,0,1024,1024,1024,1024,0,0,0,0,138.4,0,0,87,4.149,4.153,4.152,4.148,0,0,7.273,100.76,63.782812736588,5.905512,32,GPSNovice,
26700,2022-07-09 11:19:53,52.1729166641183,0.105507635928497,5.905512,5.8727036,57.910109136588,63.782812736588,6.233596,0.447388,0.98677168512,3.24358278096,22,5,16.602,64.767064736588,6.889764,0.447388,0.98677168512,-0.447388,0,0,145.5, -6.5, -1.3,0,0,1024,1024,1024,1024,0,0,0,0,138.5,0,0,87,4.149,4.153,4.152,4.148,0,0,7.273,100.76,63.782812736588,5.905512,32,GPSNovice,
26900,2022-07-09 11:19:53,52.1729159501216,0.105508116817705,5.905512,5.8727036,57.910109136588,63.782812736588,6.233596,0.7158208,1.26746067048,3.525426622,22,5,16.602,64.767064736588,6.889764,0.7158208,1.26746067048,-0.671082,0.223694,0,145.5, -6.7, -1.5,0,0,1024,1024,1024,1024,0,0,0,0,138.6,0,0,87,4.149,4.153,4.152,4.148,0,0,7.273,100.76,63.782812736588,5.905512,32,GPSNovice,
27100,2022-07-09 11:19:53,52.1729149544489,0.105508905422643,5.905512,5.8727036,57.910109136588,63.782812736588,6.233596,1.2974252,1.671259896,3.929298026,21,5,16.602,64.767064736588,6.889764,1.2974252,1.671259896,-1.11847,0.671082,0,145.5, -6.6, -1.4,0,0,1024,1024,1024,1024,0,0,0,0,138.6,0,0,87,4.149,4.153,4.152,4.148,0,0,7.273,100.76,63.782812736588,5.905512,32,GPSNovice,
27300,2022-07-09 11:19:54,52.1729135386247,0.10551018544591,5.905512,5.8398952,57.942917536588,63.782812736588,6.233596,1.8119214,2.0750820874,4.3331366216,20,5,16.6,64.767064736588,6.889764,1.8119214,2.0750820874,-1.565858,0.894776,0,145.6, -6.3, -1.8,0,0,1024,1024,1024,1024,0,0,0,0,138.7,0,0,87,4.149,4.152,4.151,4.146,0,0,7.281,100.76,63.782812736588,5.905512,32,GPSNovice,
27500,2022-07-09 11:19:54,52.1729121228005,0.105511465469176,5.905512,5.8398952,57.942917536588,63.782812736588,6.233596,2.1027236,2.85203093116,5.1114831032,21,5,16.6,64.767064736588,6.889764,2.1027236,2.85203093116,-1.789552,1.11847,0,145.5, -6, -1.9,0,0,1024,1024,1024,1024,0,0,0,0,138.7,0,0,87,4.149,4.152,4.151,4.146,0,0,7.281,100.76,63.782812736588,5.905512,32,GPSNovice,
27700,2022-07-09 11:19:54,52.1729103766489,0.105513191965569,5.905512,5.8070868,57.975725936588,63.782812736588,6.233596,2.4158952,3.595964682,5.8565618672,21,5,16.6,64.767064736588,6.889764,2.4158952,3.595964682,-2.013246,1.342164,0,145.5, -5.6, -2,0,0,1024,1024,1024,1024,0,0,0,0,138.8,0,0,87,4.149,4.152,4.151,4.146,0,0,7.281,100.76,63.782812736588,5.905512,32,GPSNovice,
27900,2022-07-09 11:19:54,52.1729084597929,0.105515193106127,5.905512,5.8070868,57.975725936588,63.782812736588,5.905512,2.6172198,4.4245736324,6.6869752796,20,5,16.6,64.767064736588,6.889764,2.6172198,4.4245736324,-2.23694,1.342164,0,145.5, -5.3, -1.7,0,0,1024,1024,1024,1024,0,0,0,0,138.8,0,0,87,4.149,4.152,4.151,4.146,0,0,7.281,100.76,63.782812736588,5.905512,32,GPSNovice,
28100,2022-07-09 11:19:55,52.172906382924,0.105517378637255,5.905512,5.7742784,58.008534336588,63.782812736588,5.905512,2.908022,5.3249017452,7.5888125788,20,5,16.6,64.767064736588,6.889764,2.908022,5.3249017452,-2.460634,1.565858,0,145.3, -5.2, -2.1,0,0,1024,1024,1024,1024,0,0,0,0,138.8,0,0,87,4.149,4.152,4.151,4.146,0,0,7.281,100.76,63.782812736588,5.905512,32,GPSNovice,
28300,2022-07-09 11:19:55,52.1729041934987,0.105519774551736,6.233596,6.069554,58.041342736588,64.110896736588,5.905512,3.2211936,6.2256891756,8.490649878,21,5,16.599,64.767064736588,6.889764,3.2211936,6.2256891756,-2.684328,1.789552,0,145.3, -2.7, -2.5,0,0,1024,1024,1024,1024,0,0,0,0,138.9,0,0,87,4.148,4.152,4.151,4.148,0,0,7.258,100.76,64.110896736588,6.233596,32,GPSNovice,
28500,2022-07-09 11:19:55,52.1729020040734,0.105522170466216,6.233596,6.0367456,58.074151136588,64.110896736588,5.905512,2.7290668,7.2454726728,9.5131564724,21,5,16.599,64.767064736588,6.889764,3.2211936,7.2454726728,-2.23694,1.565858,0,145.2, 16.4, -1.4,0,0,1024,1024,1024,1024,0,0,0,0,138.9,0,0,87,4.148,4.152,4.151,4.148,0,0,7.258,100.76,64.110896736588,6.233596,32,GPSNovice,
28700,2022-07-09 11:19:55,52.1729005984439,0.105523751112463,6.233596,6.0039372,58.106959536588,64.110896736588,5.905512,1.2974252,7.8672246612,10.1361223716,21,5,16.599,64.767064736588,6.889764,3.2211936,7.8672246612,-1.11847,0.671082,0,144.9, 15.5, -2,0,0,1024,1024,1024,1024,0,0,0,0,139,0,0,87,4.148,4.152,4.151,4.148,0,0,7.258,100.76,64.110896736588,6.233596,32,GPSNovice,
28900,2022-07-09 11:19:55,52.1729000418042,0.105524329903284,6.233596,6.0039372,58.106959536588,64.110896736588,5.577428,0.223694,8.1080383172,10.3770016444,22,5,16.599,64.767064736588,6.889764,3.2211936,8.1080383172,-0.223694,0,0,145.1, 6, -3,0,0,1024,1024,1024,1024,0,0,0,0,139.1,0,0,87,4.148,4.152,4.151,4.148,0,0,7.258,100.76,64.110896736588,6.233596,32,GPSNovice,
29100,2022-07-09 11:19:55,52.1728999544003,0.105524441871663,6.233596,6.0039372,58.106959536588,64.110896736588,5.905512,0,8.148294224,10.4175528268,21,5,16.599,64.767064736588,6.889764,3.2211936,8.148294224,0,0,0,145.2, 1.4, -3,0,0,1024,1024,1024,1024,0,0,0,0,139.1,0,0,87,4.148,4.152,4.151,4.148,0,0,7.258,100.76,64.110896736588,6.233596,32,GPSNovice,
29300,2022-07-09 11:19:56,52.172900094313,0.105524554985499,6.233596,6.0039372,58.106959536588,64.110896736588,5.905512,0,8.1885501308,10.4581040092,22,5,16.58,64.767064736588,6.889764,3.2211936,8.1885501308,0,0,0,145.3, -0.6, -1.8,0,0,1024,1024,1024,1024,0,0,0,0,139.1,0,0,87,4.148,4.148,4.149,4.143,0,0,7.427,100.76,64.110896736588,6.233596,32,GPSNovice,
29500,2022-07-09 11:19:56,52.1729002342257,0.105524668099335,6.233596,6.0039372,58.106959536588,64.110896736588,5.905512,0,8.0878939596,10.594488528,22,5,16.58,64.767064736588,6.889764,3.2211936,8.1885501308,0,0,0,145.4, -1.6, -0.8,0,0,1024,1024,1024,1024,0,0,0,0,139.1,0,0,87,4.148,4.148,4.149,4.143,0,0,7.427,100.76,64.110896736588,6.233596,32,GPSNovice,
29700,2022-07-09 11:19:56,52.1729003391833,0.10552481850337,6.233596,6.0039372,58.106959536588,64.110896736588,5.905512,0,8.07332703,10.6454727816,22,5,16.58,64.767064736588,6.889764,3.2211936,8.1885501308,0,0,0,145.3, -1.6, -0.1,0,0,1024,1024,1024,1024,0,0,0,0,139.1,0,0,87,4.148,4.148,4.149,4.143,0,0,7.427,100.76,64.110896736588,6.233596,32,GPSNovice,
29900,2022-07-09 11:19:56,52.172900325806,0.105524899809832,6.233596,6.0039372,58.106959536588,64.110896736588,5.905512,0,8.0872049832,10.6643048032,22,5,16.58,64.767064736588,6.889764,3.2211936,8.1885501308,0,0,0,145.4, -0.8, -0.7,0,0,1024,1024,1024,1024,0,0,0,0,139.1,0,0,87,4.148,4.148,4.149,4.143,0,0,7.427,100.76,64.110896736588,6.233596,32,GPSNovice,
30100,2022-07-09 11:19:56,52.1729002540067,0.105524921440802,6.233596,6.0039372,58.106959536588,64.110896736588,5.905512,0,8.1119097084,10.690945224,22,5,16.58,64.767064736588,6.889764,3.2211936,8.1885501308,0,0,0,145.5, -0.5, -1.2,0,0,1024,1024,1024,1024,0,0,0,0,139.2,0,0,87,4.148,4.148,4.149,4.143,0,0,7.427,100.76,64.110896736588,6.233596,32,GPSNovice,
30300,2022-07-09 11:19:57,52.1729001609443,0.105524902649028,6.233596,6.0039372,58.106959536588,64.110896736588,5.905512,0,8.136647242,10.7175856448,22,5,16.593,64.767064736588,6.889764,3.2211936,8.1885501308,0,0,0,145.3, -0.1, -2,0,0,1024,1024,1024,1024,0,0,0,0,139.2,0,0,87,4.149,4.151,4.149,4.146,0,0,7.134,100.94,64.110896736588,6.233596,32,GPSNovice,
30500,2022-07-09 11:19:57,52.1729000678819,0.105524883857254,6.233596,6.0039372,58.106959536588,64.110896736588,5.905512,0,8.1649280828,10.7613520504,21,5,16.593,64.767064736588,6.889764,3.2211936,8.1885501308,0,0,0,145.3, 2.5, -1.2,0,0,1024,1024,1024,1024,0,0,0,0,139.2,0,0,87,4.149,4.151,4.149,4.146,0,0,7.134,100.94,64.110896736588,6.233596,32,GPSNovice,
30700,2022-07-09 11:19:57,52.1729001140919,0.10552469225869,6.233596,6.0039372,58.106959536588,64.110896736588,5.905512,0,8.127953016,10.807415044,21,5,16.593,64.767064736588,6.889764,3.2211936,8.1885501308,0,0,0,145.2, 4, -1.4,0,0,1024,1024,1024,1024,0,0,0,0,139.2,0,0,87,4.149,4.151,4.149,4.146,0,0,7.134,100.94,64.110896736588,6.233596,32,GPSNovice,
30900,2022-07-09 11:19:57,52.1729003850763,0.105524240767207,6.233596,6.0039372,58.106959536588,64.110896736588,5.905512,0.4921268,7.9907482872,10.9487864396,21,5,16.593,64.767064736588,6.889764,3.2211936,8.1885501308,0.447388,-0.223694,0,145.4, 4.1, -1.1,0,0,1024,1024,1024,1024,0,0,0,0,139.2,0,0,87,4.149,4.151,4.149,4.146,0,0,7.134,100.94,64.110896736588,6.233596,32,GPSNovice,
31100,2022-07-09 11:19:57,52.1729008696553,0.10552350107466,6.233596,6.0039372,58.106959536588,64.110896736588,5.905512,0.8052984,7.753609172,11.19094524,21,5,16.593,64.767064736588,6.889764,3.2211936,8.1885501308,0.671082,-0.447388,0,145.4, 3.6, -1.6,0,0,1024,1024,1024,1024,0,0,0,0,139.3,0,0,87,4.149,4.151,4.149,4.146,0,0,7.134,100.94,64.110896736588,6.233596,32,GPSNovice,
31300,2022-07-09 11:19:58,52.1729016385596,0.105522408756104,6.233596,6.0367456,58.074151136588,64.110896736588,5.905512,1.11847,7.5167981408,11.4331368488,21,5,16.594,64.767064736588,6.889764,3.2211936,8.1885501308,0.894776,-0.671082,0,145.4, 3.4, -1.9,0,0,1024,1024,1024,1024,0,0,0,0,139.3,0,0,87,4.148,4.149,4.149,4.145,0,0,7.138,100.94,64.110896736588,6.233596,32,GPSNovice,
31500,2022-07-09 11:19:58,52.1729024074638,0.105521316437548,6.233596,6.0367456,58.074151136588,64.110896736588,5.905512,1.2750558,7.0215881512,11.9353350276,21,5,16.594,64.767064736588,6.889764,3.2211936,8.1885501308,0.894776,-0.894776,0,145.5, 3.5, -1.8,0,0,1024,1024,1024,1024,0,0,0,0,139.3,0,0,87,4.148,4.149,4.149,4.145,0,0,7.138,100.94,64.110896736588,6.233596,32,GPSNovice,
31700,2022-07-09 11:19:58,52.1729033697298,0.105520028965322,6.233596,6.069554,58.041342736588,64.110896736588,5.905512,1.4316416,6.5736878744,12.3894689004,21,5,16.594,64.767064736588,6.889764,3.2211936,8.1885501308,1.11847,-0.894776,0,145.2, 4, -2.1,0,0,1024,1024,1024,1024,0,0,0,0,139.3,0,0,87,4.148,4.149,4.149,4.145,0,0,7.138,100.94,64.110896736588,6.233596,32,GPSNovice,
31900,2022-07-09 11:19:58,52.1729044303782,0.105518607879777,6.233596,6.069554,58.041342736588,64.110896736588,5.905512,1.6105968,6.0808400896,12.8903219348,21,5,16.594,64.767064736588,6.889764,3.2211936,8.1885501308,1.342164,-0.894776,0,145.4, 4.5, -2.1,0,0,1024,1024,1024,1024,0,0,0,0,139.4,0,0,87,4.148,4.149,4.149,4.145,0,0,7.138,100.94,64.110896736588,6.233596,32,GPSNovice,
32100,2022-07-09 11:19:58,52.172905653207,0.105517044806511,6.233596,6.1023624,58.008534336588,64.110896736588,5.905512,1.9237684,5.5222442712,13.4572182784,22,5,16.594,64.767064736588,6.889764,3.2211936,8.1885501308,1.565858,-1.11847,0,145.5, 4.3, -2.2,0,0,1024,1024,1024,1024,0,0,0,0,139.4,0,0,87,4.148,4.149,4.149,4.145,0,0,7.138,100.94,64.110896736588,6.233596,32,GPSNovice,
32300,2022-07-09 11:19:59,52.172906947743,0.105515438279232,6.233596,6.1351708,57.975725936588,64.110896736588,5.905512,2.1027236,4.96555134,14.024114622,21,5,16.58,64.767064736588,6.889764,3.2211936,8.1885501308,1.789552,-1.11847,0,145.4, 3, -2.4,0,0,1024,1024,1024,1024,0,0,0,0,139.4,0,0,87,4.144,4.146,4.145,4.142,0,0,7.42,100.94,64.110896736588,6.233596,32,GPSNovice,
32500,2022-07-09 11:19:59,52.1729082422789,0.105513831751953,6.233596,6.1351708,57.975725936588,64.110896736588,5.905512,1.4316416,4.3558400344,14.6444230408,22,5,16.58,64.767064736588,6.889764,3.2211936,8.1885501308,1.11847,-0.894776,0,145.7, -16.5, -2.5,0,0,1024,1024,1024,1024,0,0,0,0,139.4,0,0,87,4.144,4.146,4.145,4.142,0,0,7.42,100.94,64.110896736588,6.233596,32,GPSNovice,
32700,2022-07-09 11:19:59,52.172908727706,0.105513137151282,6.233596,6.1351708,57.975725936588,64.110896736588,6.233596,0.3131716,4.129921392,14.8800529696,22,5,16.58,64.767064736588,6.889764,3.2211936,8.1885501308,0.223694,-0.223694,0,145.7, -6.3, -3.3,0,0,1024,1024,1024,1024,0,0,0,0,139.4,0,0,87,4.144,4.146,4.145,4.142,0,0,7.42,100.94,64.110896736588,6.233596,32,GPSNovice,
