time(millisecond),datetime(utc),latitude,longitude,height_above_takeoff(feet),height_above_ground_at_drone_location(feet),ground_elevation_at_drone_location(feet),altitude_above_seaLevel(feet),height_sonar(feet),speed(mph),distance(feet),mileage(feet),satellites,gpslevel,voltage(v),max_altitude(feet),max_ascent(feet),max_speed(mph),max_distance(feet), xSpeed(mph), ySpeed(mph), zSpeed(mph), compass_heading(degrees), pitch(degrees), roll(degrees),isPhoto,isVideo,rc_elevator,rc_aileron,rc_throttle,rc_rudder,rc_elevator(percent),rc_aileron(percent),rc_throttle(percent),rc_rudder(percent),gimbal_heading(degrees),gimbal_pitch(degrees),gimbal_roll(degrees),battery_percent,voltageCell1,voltageCell2,voltageCell3,voltageCell4,voltageCell5,voltageCell6,current(A),battery_temperature(f),altitude(feet),ascent(feet),flycStateRaw,flycState,message
0,2023-07-12 12:11:34,0,0,0,,,54.045939393512,0.328084,0,0,0,16,2,0,54.045939393512,0,0,0,0,0,0,277.3, 4.7, -0.1,0,0,1024,1024,1024,1024,0,0,0,0,277.5,0,0.1,64,3.939,3.943,3.942,3.939,0,0,0,73.22,54.045939393512,0,41,Motors_Started,"GPS signal weak. Hovering unstable. Fly with caution (Code: 30002)"
200,2023-07-12 12:11:34,0,0,0,,,54.045939393512,0.328084,0,0,0,16,2,0,54.045939393512,0,0,0,0,0,0,277.3, 4.7, -0.1,0,0,1024,1024,1024,1024,0,0,0,0,277.4,0,0,64,3.939,3.943,3.942,3.939,0,0,0,73.22,54.045939393512,0,41,Motors_Started,
400,2023-07-12 12:11:35,0,0,0,,,54.045939393512,0,0,0,0,16,2,0,54.045939393512,0,0,0,0,0,0,277.3, 4.7, -0.1,0,0,1024,1024,1024,1024,0,0,0,0,277.4,0,0,64,3.939,3.943,3.942,3.939,0,0,0,73.22,54.045939393512,0,41,Motors_Started,
600,2023-07-12 12:11:35,0,0,0,,,54.045939393512,0,0,0,0,16,2,0,54.045939393512,0,0,0,0,0,0,277.3, 4.7, -0.1,0,0,1024,1024,1024,1024,0,0,0,0,277.4,0,0,64,3.939,3.943,3.942,3.939,0,0,0,73.22,54.045939393512,0,41,Motors_Started,
800,2023-07-12 12:11:35,0,0,0,,,54.045939393512,0,0,0,0,16,2,0,54.045939393512,0,0,0,0,0,0,277.3, 4.7, -0.1,0,0,1024,1024,1024,1024,0,0,0,0,277.4,0,0,64,3.939,3.943,3.942,3.939,0,0,0,73.22,54.045939393512,0,41,Motors_Started,"Setting new Return-To-Home altitude to 26m (85 ft). Data Recorder File Index is 57. Setting new Maximum Flight Altitude to 30m (98 ft)"
1000,2023-07-12 12:11:35,0,0,0,,,54.045939393512,0,0,0,0,16,2,0,54.045939393512,0,0,0,0,0,0,277.2, 4.7, -0.1,0,0,1024,1024,1024,1024,0,0,0,0,277.4,0,0,64,3.939,3.943,3.942,3.939,0,0,0,73.22,54.045939393512,0,41,Motors_Started,
1200,2023-07-12 12:11:35,0,0,0,,,54.045939393512,0,0,0,0,16,2,0,54.045939393512,0,0,0,0,0,0,277.2, 4.7, -0.1,0,0,1024,1024,1153,1024,0,0,20,0,277.4,0,0,64,3.939,3.943,3.942,3.939,0,0,0,73.22,54.045939393512,0,41,Motors_Started,
1400,2023-07-12 12:11:36,0,0,0,,,54.045939393512,0,0,0,0,16,2,15.81,54.045939393512,0,0,0,0,0,0,277, 4.7, -0.1,0,0,1024,1024,1577,1024,0,0,84,0,277.4,0,0,64,3.939,3.943,3.942,3.939,0,0,2.229,73.22,54.045939393512,0,41,Motors_Started,
1600,2023-07-12 12:11:36,0,0,0,,,54.045939393512,0,0,0,0,16,2,15.81,54.045939393512,0,0,0,0,0,0,276.4, 4.7, -0.1,0,0,1024,1024,1684,1024,0,0,100,0,277.3,0,0,64,3.939,3.943,3.942,3.939,0,0,2.229,73.22,54.045939393512,0,11,AutoTakeoff,
1800,2023-07-12 12:11:36,0,0,0,,,54.045939393512,0,0,0,0,16,2,15.81,54.045939393512,0,0,0,0,0,0,276.4, 4.7, -0.1,0,0,1024,1024,1635,1024,0,0,93,0,277.3,0,0,64,3.939,3.943,3.942,3.939,0,0,2.229,73.22,54.045939393512,0,11,AutoTakeoff,
2000,2023-07-12 12:11:36,0,0,0,,,54.045939393512,0,0,0,0,16,2,15.81,54.045939393512,0,0,0,0,0,0,276.2, 3.3, -0.1,0,0,1024,1024,1655,1024,0,0,96,0,277.2,0,0,64,3.939,3.943,3.942,3.939,0,0,2.229,73.22,54.045939393512,0,11,AutoTakeoff,
2200,2023-07-12 12:11:36,0,0,0,,,54.045939393512,0,0,0,0,16,2,15.81,54.045939393512,0,0,0,0,0,-0.447388,275.5, -1.7, 0.2,0,0,1024,1024,1656,1024,0,0,96,0,277.1,0,0,64,3.939,3.943,3.942,3.939,0,0,2.229,73.22,54.045939393512,0,11,AutoTakeoff,
2400,2023-07-12 12:11:37,0,0,0,,,54.045939393512,0.328084,0,0,0,16,2,15.806,54.045939393512,0,0,0,0,0,-1.342164,275.9, -0.1, 0.7,0,0,1024,1024,1675,1024,0,0,99,0,277,0,0,64,3.961,3.968,3.969,3.967,0,0,4.442,73.22,54.045939393512,0,11,AutoTakeoff,
2600,2023-07-12 12:11:37,0,0,0.656168,,,54.702107393512,0.984252,0,0,0,17,2,15.806,54.702107393512,0.656168,0,0,0,0,-2.684328,275.8, 0.3, 0.5,0,0,1024,1024,1684,1024,0,0,100,0,276.9,0,0,64,3.961,3.968,3.969,3.967,0,0,4.442,73.22,54.702107393512,0.656168,11,AutoTakeoff,
2800,2023-07-12 12:11:37,0,0,1.968504,,,56.014443393512,1.968504,0,0,0,17,2,15.806,56.014443393512,1.968504,0,0,0,0,-4.250186,275.9, -1.1, -1.7,0,0,1024,1024,1684,1024,0,0,100,0,276.8,0,0,64,3.961,3.968,3.969,3.967,0,0,4.442,73.22,56.014443393512,1.968504,11,AutoTakeoff,
3000,2023-07-12 12:11:37,0,0,3.28084,,,57.326779393512,3.608924,0,0,0,17,2,15.806,57.326779393512,3.28084,0,0,0,0,-6.039738,276.2, -2.4, -1.3,0,0,1024,1024,1684,1024,0,0,100,0,276.8,0,0,64,3.961,3.968,3.969,3.967,0,0,4.442,73.22,57.326779393512,3.28084,11,AutoTakeoff,
3200,2023-07-12 12:11:37,0,0,5.905512,,,59.951451393512,5.905512,0,0,0,17,2,15.806,59.951451393512,5.905512,0,0,0,0,-8.052984,275.6, -1.8, -1.1,0,0,1024,1024,1684,1024,0,0,100,0,276.8,0,0,64,3.961,3.968,3.969,3.967,0,0,4.442,73.22,59.951451393512,5.905512,6,P-GPS,
3400,2023-07-12 12:11:38,0,0,8.858268,,,62.904207393512,8.858268,0,0,0,17,2,15.614,62.904207393512,8.858268,0,0,0,0,-10.06623,276.5, -1.7, 0,0,0,1024,1024,1684,1024,0,0,100,0,276.8,0,0,64,3.873,3.874,3.872,3.866,0,0,5.277,73.22,62.904207393512,8.858268,6,P-GPS,
3600,2023-07-12 12:11:38,0,0,12.795276,,,66.841215393512,12.139108,0,0,0,17,2,15.614,66.841215393512,12.795276,0,0,0,0,-12.079476,276.7, -2.3, 0.9,0,0,1024,1024,1684,1024,0,0,100,0,276.8,0,0,64,3.873,3.874,3.872,3.866,0,0,5.277,73.22,66.841215393512,12.795276,6,P-GPS,
3800,2023-07-12 12:11:38,0,0,17.060368,,,71.106307393512,15.748032,0,0,0,17,2,15.614,71.106307393512,17.060368,0,0,0,0,-13.42164,276.7, -2.6, 0.6,0,0,1082,1024,1684,1024,9,0,100,0,276.8,0,0,64,3.873,3.874,3.872,3.866,0,0,5.277,73.22,71.106307393512,17.060368,6,P-GPS,
4000,2023-07-12 12:11:38,0,0,20.997376,,,75.043315393512,20.013124,0,0,0,17,2,15.614,75.043315393512,20.997376,0,0,0,0,-13.869028,277, -4.2, 0.3,0,0,1033,1024,1684,1024,1,0,100,0,276.8,0,0,64,3.873,3.874,3.872,3.866,0,0,5.277,73.22,75.043315393512,20.997376,6,P-GPS,
4200,2023-07-12 12:11:38,52.2064110991622,0.086729846869833,25.262468,25.262468,54.045939393512,79.308407393512,24.278216,0,0,0,17,2,15.614,79.308407393512,25.262468,0,0,0,0,-13.869028,277.1, 0, 1,0,0,1024,1024,1684,1024,0,0,100,0,276.8,0,0,64,3.873,3.874,3.872,3.866,0,0,5.277,73.22,79.308407393512,25.262468,6,P-GPS,"No GPS. Fly with caution GPS signal weak. Hovering unstable. Fly with caution (Code: 30002)"
4400,2023-07-12 12:11:39,52.2064111674509,0.0867301716400454,29.199476,29.199476,54.045939393512,83.245415393512,28.215224,0.223694,0.076769687496,0.076769687496,17,2,15.265,83.245415393512,29.199476,0.223694,0.076769687496,0,0.223694,-13.645334,277, -4.9, 2,0,0,1024,1024,1684,1024,0,0,100,0,276.8,0,0,64,3.772,3.777,3.774,3.772,0,0,13.602,73.04,83.245415393512,29.199476,6,P-GPS,
4600,2023-07-12 12:11:39,52.2064113280182,0.0867305659273229,33.464568,33.464568,54.045939393512,87.510507393512,32.480316,0.223694,0.18116142312,0.182617131828,17,2,15.265,87.510507393512,33.464568,0.223694,0.18116142312,0,0.223694,-13.42164,277.4, -5.6, -0.1,0,0,1024,1024,1684,1024,0,0,100,0,276.8,0,0,64,3.772,3.777,3.774,3.772,0,0,13.602,73.04,87.510507393512,33.464568,6,P-GPS,
4800,2023-07-12 12:11:39,52.2064115053483,0.0867308893157478,37.72966,37.72966,54.045939393512,91.775599393512,36.745408,0,0.276201124324,0.279642725484,17,2,15.265,91.775599393512,37.72966,0.223694,0.276201124324,0,0,-13.197946,277.2, -6.7, 0.9,0,0,1024,1024,1684,1024,0,0,100,0,276.8,0,0,64,3.772,3.777,3.774,3.772,0,0,13.602,73.04,91.775599393512,37.72966,6,P-GPS,
5000,2023-07-12 12:11:39,52.2064117187599,0.0867310123677986,41.994752,41.994752,54.045939393512,96.040691393512,40.682416,0,0.34497704516,0.36222442104,17,2,15.265,96.040691393512,41.994752,0.223694,0.34497704516,0,0,-12.750558,277.4, -5.3, 2.4,0,0,1024,1024,1684,1024,0,0,100,0,276.8,-1.2,0,64,3.772,3.777,3.774,3.772,0,0,13.602,73.04,96.040691393512,41.994752,6,P-GPS,
5200,2023-07-12 12:11:39,52.2064121278058,0.0867309984282572,46.259844,46.259844,54.045939393512,100.30578339351,44.29134,0.223694,0.45512796732,0.51149607936,18,5,15.265,100.30578339351,46.259844,0.223694,0.45512796732,0.223694,0,-13.197946,278, -4.1, -2.5,0,0,1024,1024,1684,1024,0,0,100,0,276.8,-3.7,0,64,3.772,3.777,3.774,3.772,0,0,13.602,73.04,100.30578339351,46.259844,6,P-GPS,
5400,2023-07-12 12:11:40,52.2064124630456,0.0867310500089506,50.196852,50.196852,54.045939393512,104.24279139351,46.916012,0.3131716,0.56566930944,0.634350414,18,5,15.278,104.24279139351,50.196852,0.3131716,0.56566930944,0.223694,0.223694,-13.197946,277.5, -6.4, -4.3,0,0,1024,1024,1684,1024,0,0,100,0,276.8,-6.6,0,64,3.831,3.849,3.844,3.848,0,0,14.692,73.22,104.24279139351,50.196852,6,P-GPS,
5600,2023-07-12 12:11:40,52.2064125348744,0.0867310888226343,54.13386,54.1010516,54.078747793512,108.17979939351,50.85302,0.223694,0.59287075388,0.6619586826,18,5,15.278,108.17979939351,54.13386,0.3131716,0.59287075388,0,0.223694,-12.974252,277.4, -8.4, -5.4,0,0,1024,1024,1684,1024,0,0,100,0,276.8,-9.5,0,64,3.831,3.849,3.844,3.848,0,0,14.692,73.22,108.17979939351,54.13386,6,P-GPS,
5800,2023-07-12 12:11:40,52.2064123054055,0.0867309900800847,58.070868,58.070868,54.045939393512,112.11680739351,54.13386,0,0.508940305,0.7485400502,18,5,15.278,112.11680739351,58.070868,0.3131716,0.59287075388,0,0,-13.42164,275.3, -8.6, -3.9,0,0,1024,1024,1684,1024,0,0,100,0,276.8,-12.4,0,64,3.831,3.849,3.844,3.848,0,0,14.692,73.22,112.11680739351,58.070868,6,P-GPS,"Setting new Maximum Flight Altitude to 120m (394 ft)"
6000,2023-07-12 12:11:40,52.2064119088455,0.086730708655212,62.007876,62.007876,54.045939393512,116.05381539351,58.070868,0,0.35269686168,0.9063156458,18,5,15.278,116.05381539351,62.007876,0.3131716,0.59287075388,0,0,-13.42164,275.2, -7.9, -3.6,0,0,1024,1024,1684,1024,0,0,100,0,276.8,-15.3,0,64,3.831,3.849,3.844,3.848,0,0,14.692,73.22,116.05381539351,62.007876,6,P-GPS,
6200,2023-07-12 12:11:40,52.2064114784699,0.0867303637903219,65.944884,65.944884,54.045939393512,119.99082339351,62.007876,0,0.180304467712,1.0812500346,18,5,15.278,119.99082339351,65.944884,0.3131716,0.59287075388,0,0,-13.42164,275.9, -7.4, -3.8,0,0,1024,1024,1684,1024,0,0,100,0,276.8,-18.2,0,64,3.831,3.849,3.844,3.848,0,0,14.692,73.22,119.99082339351,65.944884,6,P-GPS,
6400,2023-07-12 12:11:41,52.2064110368054,0.0867300807667608,69.881892,69.881892,54.045939393512,123.92783139351,65.944884,0,0.057030513636,1.25437011888,18,5,15.275,123.92783139351,69.881892,0.3131716,0.59287075388,0,0,-13.42164,276.3, -7.3, -3.9,0,0,1024,1024,1684,1024,0,0,100,0,276.8,-21.1,0,63,3.804,3.81,3.806,3.81,0,0,10.956,73.58,123.92783139351,69.881892,6,P-GPS,
6600,2023-07-12 12:11:41,52.206410598604,0.0867299347857951,73.490816,73.490816,54.045939393512,127.53675539351,70.209976,0,0.183683076744,1.41754597712,18,5,15.275,127.53675539351,73.490816,0.3131716,0.59287075388,0,0,-13.197946,277.3, -8.9, -3.7,0,0,1024,1024,1684,1024,0,0,100,0,276.8,-24.1,0,63,3.804,3.81,3.806,3.81,0,0,10.956,73.58,127.53675539351,73.490816,6,P-GPS,"Home Point updated (Code: 3000001)"
6800,2023-07-12 12:11:41,52.2064102311138,0.0867298607404597,77.427824,77.427824,54.045939393512,131.47376339351,74.146984,0,0.316722122996,1.5526411258,18,5,15.275,131.47376339351,77.427824,0.3131716,0.59287075388,0,0,-13.197946,277.8, -9.6, -3.6,0,0,1024,1024,1684,1024,0,0,100,0,276.8,-27,0,63,3.804,3.81,3.806,3.81,0,0,10.956,73.58,131.47376339351,77.427824,6,P-GPS,
7000,2023-07-12 12:11:41,52.2064099787033,0.086729675628104,81.364832,81.364832,54.045939393512,135.41077139351,78.083992,0,0.41058728348,1.65360569596,18,5,15.275,135.41077139351,81.364832,0.3131716,0.59287075388,0,0,-13.197946,278.7, -8.4, -4.2,0,0,1024,1024,1684,1024,0,0,100,0,276.8,-29.9,0,63,3.804,3.81,3.806,3.81,0,0,10.956,73.58,135.41077139351,81.364832,6,P-GPS,
7200,2023-07-12 12:11:41,52.2064098141796,0.0867293244006238,85.30184,85.30184,54.045939393512,139.34777939351,82.021,0,0.48315946428,1.75245084348,18,5,15.275,139.34777939351,85.30184,0.3131716,0.59287075388,0,0,-13.197946,277.4, -7.7, -7,0,0,1024,1024,1684,1024,0,0,100,0,276.8,-32.8,0,63,3.804,3.81,3.806,3.81,0,0,10.956,73.58,139.34777939351,85.30184,6,P-GPS,
7400,2023-07-12 12:11:42,52.2064095460502,0.0867288218574114,88.910764,88.910764,54.045939393512,142.95670339351,83.66142,0.223694,0.61124345788,1.90143050704,18,5,15.213,142.95670339351,88.910764,0.3131716,0.61124345788,0,-0.223694,-13.645334,275.9, -7.1, -5.3,0,0,1024,1024,1684,1024,0,0,100,0,276.8,-35.7,0,63,3.805,3.823,3.819,3.82,0,0,13.11,73.58,142.95670339351,88.910764,6,P-GPS,
7600,2023-07-12 12:11:42,52.2064092787362,0.0867284996559329,92.847772,92.8805804,54.013130993512,146.89371139351,83.66142,0,0.72929464276,2.02268051092,18,5,15.213,146.89371139351,92.847772,0.3131716,0.72929464276,0,0,-13.42164,275.5, -6.7, -4.5,0,0,1024,1024,1684,1024,0,0,100,0,276.8,-38.6,0,63,3.805,3.823,3.819,3.82,0,0,13.11,73.58,146.89371139351,92.847772,6,P-GPS,
7800,2023-07-12 12:11:42,52.2064090165841,0.0867284309308947,96.456696,96.4895044,54.013130993512,150.50263539351,83.66142,0,0.82314307096,2.1195538736,18,5,15.213,150.50263539351,96.456696,0.3131716,0.82314307096,0,0,-13.645334,275.8, -9.2, -3.6,0,0,1024,1024,1684,1024,0,0,100,0,276.8,-41.6,0,63,3.805,3.823,3.819,3.82,0,0,13.11,73.58,150.50263539351,96.456696,6,P-GPS,
8000,2023-07-12 12:11:42,52.2064088425241,0.0867285843885659,100.393704,100.4265124,54.013130993512,154.43964339351,83.66142,0.223694,0.87037732444,2.19173563444,18,5,15.213,154.43964339351,100.393704,0.3131716,0.87037732444,0,0.223694,-13.197946,276, -11.2, -4.9,0,0,1024,1024,1684,1024,0,0,100,0,276.8,-44.5,0,63,3.805,3.823,3.819,3.82,0,0,13.11,73.58,154.43964339351,100.393704,6,P-GPS,
8200,2023-07-12 12:11:42,52.2064087120117,0.0867288078481141,104.002628,104.0354364,54.013130993512,158.04856739351,83.66142,0.223694,0.90140094748,2.26075466552,18,5,15.213,158.04856739351,104.002628,0.3131716,0.90140094748,0,0.223694,-12.974252,275.6, -12.1, -4.7,0,0,1024,1024,1684,1024,0,0,100,0,276.8,-47.4,0,63,3.805,3.823,3.819,3.82,0,0,13.11,73.58,158.04856739351,104.002628,6,P-GPS,
8400,2023-07-12 12:11:43,52.2064085179327,0.0867288804229249,108.26772,108.3005284,54.013130993512,162.31365939351,83.66142,0,0.96623362672,2.3333990248,18,5,15.141,162.31365939351,108.26772,0.3131716,0.96623362672,0,0,-13.197946,275.4, -11.9, -3.9,0,0,1024,1024,1144,1024,0,0,18,0,276.8,-50.3,0,63,3.814,3.817,3.802,3.805,0,0,12.742,73.76,162.31365939351,108.26772,6,P-GPS,
8600,2023-07-12 12:11:43,52.2064082294734,0.086728795539937,112.532812,112.5656204,54.013130993512,166.57875139351,83.66142,0,1.07306761964,2.44034128544,19,5,15.141,166.57875139351,112.532812,0.3131716,1.07306761964,0,0,-13.197946,275.4, -13.2, -2.5,0,0,1024,1024,1024,1024,0,0,0,0,276.8,-53.2,0,63,3.814,3.817,3.802,3.805,0,0,12.742,73.76,166.57875139351,112.532812,6,P-GPS,
8800,2023-07-12 12:11:43,52.2064079772881,0.0867287115646279,117.125988,117.1587964,54.013130993512,171.17192739351,83.66142,0,1.16695541792,2.53424876876,19,5,15.141,171.17192739351,117.125988,0.3131716,1.16695541792,0,0,-10.961006,275.7, -14, -2.7,0,0,1024,1024,1024,1024,0,0,0,0,276.8,-56.1,0,63,3.814,3.817,3.802,3.805,0,0,12.742,73.76,171.17192739351,117.125988,6,P-GPS,
9000,2023-07-12 12:11:43,52.2064077985992,0.086728716579997,121.062996,121.0958044,54.013130993512,175.10893539351,83.66142,0.223694,1.23043967192,2.59945218292,20,5,15.141,175.10893539351,121.062996,0.3131716,1.23043967192,0.223694,0,-8.500372,276.1, -14.4, -5.2,0,0,1024,1024,1024,1024,0,0,0,0,276.8,-59,0,63,3.814,3.817,3.802,3.805,0,0,12.742,73.76,175.10893539351,121.062996,6,P-GPS,
9200,2023-07-12 12:11:43,52.2064077999373,0.0867289581049749,124.343836,124.3766444,54.013130993512,178.38977539351,83.66142,0.447388,1.2200131624,2.65345480932,19,5,15.141,178.38977539351,124.343836,0.447388,1.23043967192,0.447388,0,-6.039738,276.8, -14.4, -9.8,0,0,1024,1024,1024,1024,0,0,0,0,276.8,-62,0,63,3.814,3.817,3.802,3.805,0,0,12.742,73.76,178.38977539351,124.343836,6,P-GPS,
9400,2023-07-12 12:11:44,52.2064079801328,0.0867292459730383,126.640424,126.6732324,54.013130993512,180.68636339351,83.66142,0.894776,1.14587930176,2.74546268628,19,5,15.246,180.68636339351,126.640424,0.894776,1.23043967192,0.894776,0,-3.579104,277.7, -13.7, -15.7,0,0,1024,1024,1024,1024,0,0,0,0,276.8,-64.9,0,63,3.796,3.805,3.801,3.805,0,0,11.812,73.94,180.68636339351,126.640424,6,P-GPS,
9600,2023-07-12 12:11:44,52.2064083105372,0.0867295247818306,126.968508,127.0013164,54.013130993512,181.01444739351,83.66142,1.11847,1.01997378592,2.88117463288,19,5,15.246,181.01444739351,126.968508,1.11847,1.23043967192,1.11847,0,-1.342164,276, -13.3, -21.4,0,0,1024,1024,1024,1024,0,0,0,0,276.8,-67.8,0,63,3.796,3.805,3.801,3.805,0,0,11.812,73.94,181.01444739351,126.968508,6,P-GPS,
9800,2023-07-12 12:11:44,52.2064084745191,0.0867297277337936,126.968508,127.0013164,54.013130993512,181.01444739351,83.66142,0.671082,0.95796919076,2.95626321796,20,5,15.246,181.01444739351,126.968508,1.11847,1.23043967192,0.671082,0,0,274.6, -10, -24.8,0,0,1024,1024,1024,1024,0,0,0,0,276.8,-70.7,0,63,3.796,3.805,3.801,3.805,0,0,11.812,73.94,181.01444739351,126.968508,6,P-GPS,
10000,2023-07-12 12:11:44,52.2064078483465,0.0867296903590168,126.968508,127.0013164,54.013130993512,181.01444739351,83.66142,0.3131716,1.18657484112,3.18487543,20,5,15.246,181.01444739351,126.968508,1.11847,1.23043967192,-0.223694,-0.223694,0,274.2, -8.8, -21.3,0,0,1024,1024,1024,1024,0,0,0,0,276.8,-73.6,0,63,3.796,3.805,3.801,3.805,0,0,11.812,73.94,181.01444739351,126.968508,6,P-GPS,
10200,2023-07-12 12:11:44,52.2064064559776,0.0867295121547254,126.968508,127.0341248,53.980322593512,181.01444739351,83.66142,0.8052984,1.69571527736,3.6944554988,20,5,15.246,181.01444739351,126.968508,1.11847,1.69571527736,-0.671082,-0.447388,0,273.5, -8.1, -16.7,0,0,1024,1024,1024,1024,0,0,0,0,276.8,-76.5,0,63,3.796,3.805,3.801,3.805,0,0,11.812,73.94,181.01444739351,126.968508,6,P-GPS,
10400,2023-07-12 12:11:45,52.2064047145482,0.0867292746724891,126.968508,127.0341248,53.980322593512,181.01444739351,83.66142,1.006623,2.33293314552,4.332021136,20,5,15.503,181.01444739351,126.968508,1.11847,2.33293314552,-0.894776,-0.447388,0,272.7, -5.8, -12.4,0,0,1024,1024,1024,1024,0,0,0,0,276.8,-79.4,0,63,3.891,3.897,3.9,3.898,0,0,8.667,74.3,181.01444739351,126.968508,6,P-GPS,
10600,2023-07-12 12:11:45,52.2064028332876,0.0867290166302648,126.640424,126.7388492,53.947514193512,180.68636339351,83.66142,1.1408394,3.0215060022,5.0208006856,20,5,15.503,181.01444739351,126.968508,1.1408394,3.0215060022,-1.11847,-0.223694,0,276.2, -6.5, -6.8,0,0,1024,1024,1024,1024,0,0,0,0,276.8,-82.4,0,63,3.891,3.897,3.9,3.898,0,0,8.667,74.3,180.68636339351,126.640424,6,P-GPS,
10800,2023-07-12 12:11:45,52.2064011972418,0.08672884993754,126.31234,126.4435736,53.914705793512,180.35827939351,83.66142,0.7158208,3.61958673,5.6188978176,20,5,15.503,181.01444739351,126.968508,1.1408394,3.61958673,-0.671082,-0.223694,0,277.4, -7.1, -4.3,0,0,1024,1024,1024,1024,0,0,0,0,276.8,-85.3,0,63,3.891,3.897,3.9,3.898,0,0,8.667,74.3,180.35827939351,126.31234,6,P-GPS,
11000,2023-07-12 12:11:45,52.2063999839547,0.086728702901534,125.984256,126.1154896,53.914705793512,180.03019539351,83.66142,0.447388,4.0634187652,6.0627626612,20,5,15.503,181.01444739351,126.968508,1.1408394,4.0634187652,-0.447388,0,0.223694,278.2, -6.7, -5.7,0,0,1024,1024,1024,1024,0,0,0,0,276.8,-88.2,0,63,3.891,3.897,3.9,3.898,0,0,8.667,74.3,180.03019539351,125.984256,6,P-GPS,
11200,2023-07-12 12:11:45,52.2063990575691,0.086728623774222,125.656172,125.7874056,53.914705793512,179.70211139351,83.66142,0.223694,4.4018702196,6.4012141156,20,5,15.503,181.01444739351,126.968508,1.1408394,4.4018702196,-0.223694,0,0.223694,277.6, -8.2, -5.3,0,0,1024,1024,1024,1024,0,0,0,0,276.8,-89.9,0,63,3.891,3.897,3.9,3.898,0,0,8.667,74.3,179.70211139351,125.656172,6,P-GPS,
11400,2023-07-12 12:11:46,52.2063982742004,0.086728558986847,125.328088,125.49213,53.881897393512,179.37402739351,83.66142,0.223694,4.6880250844,6.6874017888,20,5,15.369,181.01444739351,126.968508,1.1408394,4.6880250844,-0.223694,0,0.223694,277.9, -9.6, -4.3,0,0,1024,1024,1024,1024,0,0,0,0,276.8,-89.9,0,63,3.852,3.853,3.857,3.849,0,0,7.186,74.48,179.37402739351,125.328088,6,P-GPS,
11600,2023-07-12 12:11:46,52.206397769465,0.086728376271896,125.328088,125.49213,53.881897393512,179.37402739351,83.66142,0,4.8744424132,6.8760172804,20,5,15.369,181.01444739351,126.968508,1.1408394,4.8744424132,0,0,0.447388,278.5, -7.2, -4.5,0,0,1024,1024,1094,1024,0,0,11,0,276.8,-90,0,63,3.852,3.853,3.857,3.849,0,0,7.186,74.48,179.37402739351,125.328088,6,P-GPS,
11800,2023-07-12 12:11:46,52.2063976392299,0.0867281177583819,125.000004,125.164046,53.881897393512,179.04594339351,83.66142,0.223694,4.9260500264,6.9508532408,20,5,15.369,181.01444739351,126.968508,1.1408394,4.9260500264,0.223694,0,0,278, -5.5, -6.3,0,0,1024,1024,1587,1024,0,0,85,0,276.8,-89.9,0,63,3.852,3.853,3.857,3.849,0,0,7.186,74.48,179.04594339351,125.000004,6,P-GPS,
12000,2023-07-12 12:11:46,52.206397689478,0.0867279414041918,125.328088,125.49213,53.881897393512,179.37402739351,83.66142,0.223694,4.9110237792,6.9943571792,20,5,15.369,181.01444739351,126.968508,1.1408394,4.9260500264,0.223694,0,-1.11847,278.1, -4, -8.2,0,0,1024,1024,1336,1024,0,0,47,0,276.8,-90,0,63,3.852,3.853,3.857,3.849,0,0,7.186,74.48,179.37402739351,125.328088,6,P-GPS,
12200,2023-07-12 12:11:46,52.2063976629913,0.0867279112137384,125.984256,126.148298,53.881897393512,180.03019539351,83.66142,0.223694,4.92126,7.0061353948,20,5,15.369,181.01444739351,126.968508,1.1408394,4.9260500264,0.223694,0,-3.35541,278.8, -4.9, -7.2,0,0,1024,1024,1024,1024,0,0,0,0,276.8,-89.9,0,63,3.852,3.853,3.857,3.849,0,0,7.186,74.48,180.03019539351,125.984256,6,P-GPS,
12400,2023-07-12 12:11:47,52.2063976538739,0.0867281271832502,126.968508,127.13255,53.881897393512,181.01444739351,83.66142,0.3131716,4.9205382152,7.0545277848,20,5,15.427,181.01444739351,126.968508,1.1408394,4.9260500264,0.223694,0.223694,-3.35541,278.7, -9, -9.6,0,0,1024,1024,1684,1024,0,0,100,0,276.8,-89.9,0,63,3.839,3.836,3.829,3.82,0,0,7.648,74.48,181.01444739351,126.968508,6,P-GPS,
12600,2023-07-12 12:11:47,52.2063976466295,0.0867284667770716,127.624676,127.788718,53.881897393512,181.67061539351,83.66142,0.223694,4.9178479264,7.1305120392,20,5,15.427,181.67061539351,127.624676,1.1408394,4.9260500264,0.223694,0,-2.23694,278.5, -6.8, -9.1,0,0,1024,1024,1067,1024,0,0,7,0,276.8,-90,0,63,3.839,3.836,3.829,3.82,0,0,7.648,74.48,181.67061539351,127.624676,6,P-GPS,
12800,2023-07-12 12:11:47,52.2063975783309,0.0867285916853671,128.608928,128.77297,53.881897393512,182.65486739351,83.66142,0,4.9410434652,7.1679464236,20,5,15.427,182.65486739351,128.608928,1.1408394,4.9410434652,0,0,-4.47388,278.6, -4.8, -4.7,0,0,1024,1024,1024,1024,0,0,0,0,276.8,-89.9,0,63,3.839,3.836,3.829,3.82,0,0,7.648,74.48,182.65486739351,128.608928,6,P-GPS,
13000,2023-07-12 12:11:47,52.2063977834334,0.0867287579611672,129.59318,129.757222,53.881897393512,183.63911939351,83.66142,0.447388,4.864337426,7.25147661,20,5,15.427,183.63911939351,129.59318,1.1408394,4.9410434652,0.447388,0,-3.579104,278.4, -8.6, -9.8,0,0,1024,1024,1024,1024,0,0,0,0,276.8,-89.9,0,63,3.839,3.836,3.829,3.82,0,0,7.648,74.48,183.63911939351,129.59318,6,P-GPS,
13200,2023-07-12 12:11:47,52.2063982280066,0.0867289617451775,129.921264,130.085306,53.881897393512,183.96720339351,83.66142,0.447388,4.7001970008,7.4199805524,20,5,15.427,183.96720339351,129.921264,1.1408394,4.9410434652,0.447388,0,-1.565858,278.6, -7.1, -12.5,0,0,1024,1024,1024,1024,0,0,0,0,276.8,-89.9,0,63,3.839,3.836,3.829,3.82,0,0,7.648,74.48,183.96720339351,129.921264,6,P-GPS,
13400,2023-07-12 12:11:48,52.2063986446046,0.0867292322790941,129.921264,130.0524976,53.914705793512,183.96720339351,83.66142,0.447388,4.5461287544,7.5835632348,20,5,15.122,183.96720339351,129.921264,1.1408394,4.9410434652,0.447388,0,-0.223694,279, -7.3, -12.1,0,0,1684,1024,1024,1024,100,0,0,0,276.8,-90,0,63,3.864,3.863,3.86,3.824,0,0,10.525,74.3,183.96720339351,129.921264,6,P-GPS,
13600,2023-07-12 12:11:48,52.2063988612788,0.0867293746761438,129.59318,129.7244136,53.914705793512,183.63911939351,83.66142,0,4.4662403004,7.668799458,20,5,15.122,183.96720339351,129.921264,1.1408394,4.9410434652,0,0,0,278, -3.5, -5.8,0,0,1684,1024,1024,1024,100,0,0,0,276.8,-89.9,0,63,3.864,3.863,3.86,3.824,0,0,10.525,74.3,183.63911939351,129.59318,6,P-GPS,
13800,2023-07-12 12:11:48,52.2063990887708,0.0867294000844565,129.265096,129.3963296,53.914705793512,183.31103539351,83.66142,0.447388,4.3831366232,7.751968752,20,5,15.122,183.96720339351,129.921264,1.1408394,4.9410434652,0.447388,0,0.223694,278, -25.2, -2.1,0,0,1684,1024,1024,1024,100,0,0,0,276.8,-89.9,0,63,3.864,3.863,3.86,3.824,0,0,10.525,74.3,183.31103539351,129.265096,6,P-GPS,
14000,2023-07-12 12:11:48,52.2063997352617,0.0867279932272877,128.937012,129.0682456,53.914705793512,182.98295139351,83.66142,2.1027236,4.1667652252,8.1451446176,20,5,15.122,183.96720339351,129.921264,2.1027236,4.9410434652,1.11847,-1.789552,0.223694,280, -30.3, -5.3,0,0,1684,1024,1024,1024,100,0,0,0,276.8,-90,0,63,3.864,3.863,3.86,3.824,0,0,10.525,74.3,182.98295139351,128.937012,6,P-GPS,
14200,2023-07-12 12:11:48,52.2064008401871,0.0867239441092779,128.608928,128.7401616,53.914705793512,182.65486739351,83.66142,4.4067718,3.968832148,9.1361879564,20,5,15.122,183.96720339351,129.921264,4.4067718,4.9410434652,1.789552,-4.026492,0,280.7, -30.9, -8.4,0,0,1684,1024,1024,1024,100,0,0,0,276.8,-89.9,0,63,3.864,3.863,3.86,3.824,0,0,10.525,74.3,182.65486739351,128.608928,6,P-GPS,
14400,2023-07-12 12:11:49,52.2064023212778,0.0867172248663616,128.608928,128.7073532,53.947514193512,182.65486739351,83.66142,6.2410626,4.2686024988,10.7327431256,20,5,15.497,183.96720339351,129.921264,6.2410626,4.9410434652,2.23694,-5.816044,0,281, -28.7, -11.8,0,0,1684,1024,1024,1024,100,0,0,0,276.8,-90,0,63,3.864,3.87,3.868,3.835,0,0,8.174,74.66,182.65486739351,128.608928,6,P-GPS,
14600,2023-07-12 12:11:49,52.2064042366465,0.0867085207168131,128.280844,128.3792692,53.947514193512,182.32678339351,83.66142,7.3595326,5.3856300936,12.800525344,20,5,15.497,183.96720339351,129.921264,7.3595326,5.3856300936,2.460634,-6.934514,-0.223694,282.1, -16.3, -11.1,0,0,1684,1024,1024,1024,100,0,0,0,276.8,-90,0,63,3.864,3.87,3.868,3.835,0,0,8.174,74.66,182.32678339351,128.280844,6,P-GPS,
14800,2023-07-12 12:11:49,52.2064059225677,0.0866987388996366,127.95276,128.0183768,53.980322593512,181.99869939351,83.66142,7.717443,7.20718527,15.0724742356,19,5,15.497,183.96720339351,129.921264,7.717443,7.20718527,2.23694,-7.381902,-0.671082,281.1, -15.2, -9.3,0,0,1684,1024,1024,1024,100,0,0,0,276.8,-90,0,63,3.864,3.87,3.868,3.835,0,0,8.174,74.66,181.99869939351,127.95276,6,P-GPS,
15000,2023-07-12 12:11:49,52.206407769879,0.0866883736806449,127.95276,127.9855684,54.013130993512,181.99869939351,83.66142,8.2095698,9.3520672284,17.4859913732,19,5,15.497,183.96720339351,129.921264,8.2095698,9.3520672284,2.460634,-7.82929,-0.447388,282.3, -15.3, -10.1,0,0,1531,1024,1024,1024,77,0,0,0,276.8,-90,0,63,3.864,3.87,3.868,3.835,0,0,8.174,74.66,181.99869939351,127.95276,6,P-GPS,
15200,2023-07-12 12:11:49,52.2064097114721,0.0866774984435494,127.624676,127.624676,54.045939393512,181.67061539351,83.66142,8.6345884,11.7153547056,20.0186358112,19,5,15.497,183.96720339351,129.921264,8.6345884,11.7153547056,2.460634,-8.276678,-0.671082,282.1, -13.7, -9.6,0,0,1024,1024,1646,1024,0,0,94,0,276.8,-90,0,63,3.864,3.87,3.868,3.835,0,0,8.174,74.66,181.67061539351,127.624676,6,P-GPS,
15400,2023-07-12 12:11:50,52.2064116123294,0.0866662828856703,127.624676,127.624676,54.045939393512,181.67061539351,83.66142,8.8582824,14.2132878564,22.6204403564,20,5,15.247,183.96720339351,129.921264,8.8582824,14.2132878564,2.460634,-8.500372,-1.11847,281.8, -9.2, -8.5,0,0,1024,1024,995,1024,0,0,-4,0,276.8,-90,0,63,3.791,3.801,3.806,3.812,0,0,8.513,74.66,181.67061539351,127.624676,6,P-GPS,
15600,2023-07-12 12:11:50,52.2064132255318,0.0866559096529222,127.624676,127.5918676,54.078747793512,181.67061539351,83.66142,6.6660812,16.5495740204,25.0132553936,20,5,15.247,183.96720339351,129.921264,8.8582824,16.5495740204,1.565858,-6.487126,-3.802798,280, 30.2, -9.1,0,0,1024,1024,1024,1024,0,0,0,0,276.8,-90,0,63,3.791,3.801,3.806,3.812,0,0,8.513,74.66,181.67061539351,127.624676,6,P-GPS,
15800,2023-07-12 12:11:50,52.2064140229263,0.086650010584597,128.608928,128.5761196,54.078747793512,182.65486739351,83.66142,3.1988242,17.8821528032,26.3639116048,20,5,15.247,183.96720339351,129.921264,8.8582824,17.8821528032,0.671082,-3.131716,-4.026492,279.2, 22.1, -9.8,0,0,1024,1024,1106,1024,0,0,12,0,276.8,-89.9,0,63,3.791,3.801,3.806,3.812,0,0,8.513,74.66,182.65486739351,128.608928,6,P-GPS,
16000,2023-07-12 12:11:50,52.2064145846476,0.0866467973933056,128.937012,128.9042036,54.078747793512,182.98295139351,83.66142,1.901399,18.6122381284,27.1109916812,20,5,15.247,183.96720339351,129.921264,8.8582824,18.6122381284,0.671082,-1.789552,-1.789552,280.1, 11.4, -11.6,0,0,1024,1024,1684,1024,0,0,100,0,276.8,-89.9,0,63,3.791,3.801,3.806,3.812,0,0,8.513,74.66,182.98295139351,128.937012,6,P-GPS,
16200,2023-07-12 12:11:50,52.2064146320529,0.0866448837516146,128.937012,128.9042036,54.078747793512,182.98295139351,83.66142,0.671082,19.0402893232,27.539206918,20,5,15.247,183.96720339351,129.921264,8.8582824,19.0402893232,0,-0.671082,-0.894776,284.1, 8.9, -10.3,0,0,1024,1024,1024,1024,0,0,0,0,276.8,-89.9,0,63,3.791,3.801,3.806,3.812,0,0,8.513,74.66,182.98295139351,128.937012,6,P-GPS,
16400,2023-07-12 12:11:51,52.2064142968052,0.0866445430918278,129.265096,129.2322876,54.078747793512,183.31103539351,83.66142,0.223694,19.10843237,27.6833014108,20,5,15.29,183.96720339351,129.921264,8.8582824,19.10843237,-0.223694,0,-2.684328,284.8, -2.9, -5.8,0,0,1024,1024,1024,1024,0,0,0,0,276.8,-90,0,63,3.773,3.763,3.775,3.796,0,0,10.138,74.84,183.31103539351,129.265096,6,P-GPS,
16600,2023-07-12 12:11:51,52.206414062972,0.0866448975074564,129.59318,129.5603716,54.078747793512,183.63911939351,83.66142,0,19.024278824,27.7997384224,20,5,15.29,183.96720339351,129.921264,8.8582824,19.10843237,0,0,-0.894776,285.1, -9.1, -8.7,0,0,1024,1024,1684,1024,0,0,100,0,276.8,-90,0,63,3.773,3.763,3.775,3.796,0,0,10.138,74.84,183.63911939351,129.59318,6,P-GPS,
16800,2023-07-12 12:11:51,52.2064139989826,0.0866454127853524,129.265096,129.2322876,54.078747793512,183.31103539351,83.66142,0.223694,18.9079402376,27.9172909196,22,5,15.29,183.96720339351,129.921264,8.8582824,19.10843237,0,0.223694,0,285.5, -5.1, -10.2,0,0,1024,1024,1684,1024,0,0,100,0,276.8,-90,0,63,3.773,3.763,3.775,3.796,0,0,10.138,74.84,183.31103539351,129.265096,6,P-GPS,
17000,2023-07-12 12:11:51,52.2064138987136,0.0866460710457176,129.59318,129.5603716,54.078747793512,183.63911939351,83.66142,0.223694,18.7589572932,28.0689641528,22,5,15.29,183.96720339351,129.921264,8.8582824,19.10843237,0,0.223694,-1.789552,285.3, -7.4, -9.3,0,0,1024,1024,1024,1024,0,0,0,0,276.8,-89.9,0,63,3.773,3.763,3.775,3.796,0,0,10.138,74.84,183.63911939351,129.59318,6,P-GPS,
17200,2023-07-12 12:11:51,52.2064138234258,0.0866467385465415,130.577432,130.5446236,54.078747793512,184.62337139351,83.66142,0.223694,18.6084651624,28.2207030028,22,5,15.29,184.62337139351,130.577432,8.8582824,19.10843237,0,0.223694,-2.684328,285.6, -12.4, -11.6,0,0,1024,1024,1024,1024,0,0,0,0,276.8,-90,0,63,3.773,3.763,3.775,3.796,0,0,10.138,74.84,184.62337139351,130.577432,6,P-GPS,
17400,2023-07-12 12:11:52,52.2064139060402,0.0866474519281303,131.561684,131.5288756,54.078747793512,185.60762339351,83.66142,0.223694,18.4508536088,28.383038966,21,5,15.567,185.60762339351,131.561684,8.8582824,19.10843237,0,0.223694,-1.11847,286.1, -14.4, -15.8,0,0,1288,1024,1024,1024,40,0,0,0,276.8,-90,0,63,3.882,3.886,3.876,3.864,0,0,8.604,74.66,185.60762339351,131.561684,6,P-GPS,
17600,2023-07-12 12:11:52,52.2064141392373,0.0866482015026809,131.889768,131.8569596,54.078747793512,185.93570739351,83.66142,0.3131716,18.2884848372,28.5709982896,22,5,15.567,185.93570739351,131.889768,8.8582824,19.10843237,0.223694,0.223694,-0.671082,285.7, -4, -6.8,0,0,1593,1024,1024,1024,86,0,0,0,276.8,-89.9,0,63,3.882,3.886,3.876,3.864,0,0,8.604,74.66,185.93570739351,131.889768,6,P-GPS,
17800,2023-07-12 12:11:52,52.2064147062835,0.086649226305903,132.217852,132.1850436,54.078747793512,186.26379139351,83.66142,0.9395148,18.073655434,28.8796925252,22,5,15.567,186.26379139351,132.217852,8.8582824,19.10843237,0.671082,0.671082,-0.447388,285.7, -18.6, -7.5,0,0,1684,1025,1024,1024,100,0,0,0,276.8,-90,0,63,3.882,3.886,3.876,3.864,0,0,8.604,74.66,186.26379139351,132.217852,6,P-GPS,
18000,2023-07-12 12:11:52,52.2064158420599,0.0866499611320663,132.217852,132.1522352,54.111556193512,186.26379139351,83.66142,1.5882274,17.9450136976,29.325460256,22,5,15.567,186.26379139351,132.217852,8.8582824,19.10843237,1.565858,-0.223694,0.447388,287.3, -31.2, -12.8,0,0,1684,1137,1024,1024,100,17,0,0,276.8,-89.9,0,63,3.882,3.886,3.876,3.864,0,0,8.604,74.66,186.26379139351,132.217852,6,P-GPS,
18200,2023-07-12 12:11:52,52.2064174149842,0.0866486317082445,132.217852,132.1522352,54.111556193512,186.26379139351,83.66142,2.684328,18.3042328692,29.9717529276,22,5,15.567,186.26379139351,132.217852,8.8582824,19.10843237,1.789552,-2.013246,0.671082,286.5, -29.8, -12.4,0,0,1684,1170,1024,1024,100,22,0,0,276.8,-90,0,63,3.882,3.886,3.876,3.864,0,0,8.604,74.66,186.26379139351,132.217852,6,P-GPS,
18400,2023-07-12 12:11:53,52.2064192513638,0.0866447205687477,132.217852,132.1194268,54.144364593512,186.26379139351,83.66142,4.6080964,19.2640754196,31.0733933828,22,5,15.051,186.26379139351,132.217852,8.8582824,19.2640754196,2.23694,-4.026492,0.223694,286.7, -32.1, -10.1,0,0,1684,1166,1024,1024,100,22,0,0,276.8,-90,0,63,3.812,3.811,3.786,3.814,0,0,10.496,74.84,186.26379139351,132.217852,6,P-GPS,
18600,2023-07-12 12:11:53,52.2064214687694,0.0866382906703172,132.217852,132.0866184,54.177172993512,186.26379139351,83.66142,6.5094954,20.817421926,32.7230325432,22,5,15.051,186.26379139351,132.217852,8.8582824,20.817421926,2.908022,-5.816044,0.223694,286.8, -32.9, -9.8,0,0,1684,1166,1024,1024,100,22,0,0,276.8,-90,0,63,3.812,3.811,3.786,3.814,0,0,10.496,74.84,186.26379139351,132.217852,6,P-GPS,
18800,2023-07-12 12:11:53,52.2064241850882,0.0866294067730515,132.545936,132.381894,54.209981393512,186.59187539351,83.66142,8.3214168,22.9589574276,34.942914504,21,5,15.051,186.59187539351,132.545936,8.8582824,22.9589574276,3.35541,-7.605596,0.223694,287, -31, -12,0,0,1024,1024,1024,1024,0,0,0,0,276.8,-89.9,0,63,3.812,3.811,3.786,3.814,0,0,10.496,74.84,186.59187539351,132.545936,6,P-GPS,
19000,2023-07-12 12:11:53,52.2064271848655,0.0866183776005376,132.545936,132.3490856,54.242789793512,186.59187539351,83.66142,9.6412114,25.6046924204,37.640749236,21,5,15.051,186.59187539351,132.545936,9.6412114,25.6046924204,3.579104,-8.94776,0.223694,286.3, -23.3, -13.1,0,0,1024,1024,1024,1024,0,0,0,0,276.8,-89.9,0,63,3.812,3.811,3.786,3.814,0,0,10.496,74.84,186.59187539351,132.545936,6,P-GPS,
19200,2023-07-12 12:11:53,52.2064300913493,0.0866061671311322,132.545936,132.3162772,54.275598193512,186.59187539351,83.66142,9.6859502,28.5080717784,40.569555104,21,5,15.051,186.59187539351,132.545936,9.6859502,28.5080717784,3.131716,-9.171454,-0.223694,286.6, 7.2, -13.5,0,0,1024,1024,1024,1024,0,0,0,0,276.8,-89.9,0,63,3.812,3.811,3.786,3.814,0,0,10.496,74.84,186.59187539351,132.545936,6,P-GPS,
19400,2023-07-12 12:11:54,52.2064323412803,0.0865954000255774,132.217852,131.9553848,54.308406593512,186.26379139351,83.66142,7.493749,31.0435049304,43.113190356,21,5,15.091,186.59187539351,132.545936,9.6859502,31.0435049304,2.23694,-7.158208,-0.223694,281.2, 28.5, -14,0,0,1024,1024,1024,1024,0,0,0,0,276.8,-90,0,63,3.718,3.726,3.726,3.733,0,0,10.354,74.84,186.26379139351,132.217852,6,P-GPS,
19600,2023-07-12 12:11:54,52.2064338547271,0.0865877442985135,131.889768,131.6273008,54.308406593512,185.93570739351,83.66142,4.8765292,32.838911812,44.911746844,21,5,15.091,186.59187539351,132.545936,9.6859502,32.838911812,1.342164,-4.697574,0.671082,280.6, 30.9, -14.5,0,0,1024,1024,1024,1024,0,0,0,0,276.8,-90,0,63,3.718,3.726,3.726,3.733,0,0,10.354,74.84,185.93570739351,131.889768,6,P-GPS,
19800,2023-07-12 12:11:54,52.2064345381007,0.0865835150202271,131.2336,130.9383244,54.341214993512,185.27953939351,83.66142,2.0356154,33.816930216,45.889765248,22,5,15.091,186.59187539351,132.545936,9.6859502,33.816930216,0.223694,-2.013246,1.11847,282, 20.8, -12.4,0,0,1024,1024,1024,1024,0,0,0,0,276.8,-89.9,0,63,3.718,3.726,3.726,3.733,0,0,10.354,74.84,185.27953939351,131.2336,6,P-GPS,
20000,2023-07-12 12:11:54,52.2064345256123,0.0865822260391393,130.905516,130.6102404,54.341214993512,184.95145539351,83.66142,0.447388,34.094817364,46.177823,22,5,15.091,186.59187539351,132.545936,9.6859502,34.094817364,0,-0.447388,0.894776,283.6, 5.2, -11.4,0,1,1024,1024,1024,1024,0,0,0,0,276.8,-89.9,0,63,3.718,3.726,3.726,3.733,0,0,10.354,74.84,184.95145539351,130.905516,6,P-GPS,
20200,2023-07-12 12:11:54,52.2064342540307,0.0865821706942434,130.577432,130.3149648,54.308406593512,184.62337139351,83.66142,0.223694,34.082022088,46.277560536,22,5,15.091,186.59187539351,132.545936,9.6859502,34.094817364,-0.223694,0,0.894776,284.6, -1.8, -11.2,0,1,1024,1024,1024,1024,0,0,0,0,276.8,-90,0,63,3.718,3.726,3.726,3.733,0,0,10.354,74.84,184.62337139351,130.577432,6,P-GPS,
20400,2023-07-12 12:11:55,52.2064337890575,0.0865824537234837,130.249348,129.9868808,54.308406593512,184.29528739351,83.66142,0.447388,33.979003712,46.458662904,22,5,14.954,186.59187539351,132.545936,9.6859502,34.094817364,-0.447388,0,0.447388,284.3, -3.7, -9.6,0,1,1024,1024,1024,1024,0,0,0,0,276.8,-90,0,63,3.842,3.847,3.846,3.837,0,0,16.21,75.2,184.29528739351,130.249348,6,P-GPS,
20600,2023-07-12 12:11:55,52.2064332528527,0.0865828059373388,130.249348,129.9868808,54.308406593512,184.29528739351,83.66142,0.447388,33.855316044,46.669620916,22,5,14.954,186.59187539351,132.545936,9.6859502,34.094817364,-0.447388,0,0.223694,284.8, -5.5, -8.6,0,1,1024,1024,1024,1024,0,0,0,0,276.8,-90,0,63,3.842,3.847,3.846,3.837,0,0,16.21,75.2,184.29528739351,130.249348,6,P-GPS,
20800,2023-07-12 12:11:55,52.206432830215,0.0865831724522367,130.249348,129.9868808,54.308406593512,184.29528739351,83.66142,0.447388,33.739174308,46.844161604,22,5,14.954,186.59187539351,132.545936,9.6859502,34.094817364,-0.447388,0,0.223694,284.4, -5.8, -7.6,0,1,1024,1024,1024,1024,0,0,0,0,276.8,-90,0,63,3.842,3.847,3.846,3.837,0,0,16.21,75.2,184.29528739351,130.249348,6,P-GPS,
21000,2023-07-12 12:11:55,52.2064325246892,0.0865835001320446,130.249348,129.9868808,54.308406593512,184.29528739351,83.66142,0.223694,33.642061444,46.977691792,22,5,14.954,186.59187539351,132.545936,9.6859502,34.094817364,-0.223694,0,0,284.9, -7.1, -6.9,0,1,1024,1024,1024,1024,0,0,0,0,276.8,-90,0,63,3.842,3.847,3.846,3.837,0,0,16.21,75.2,184.29528739351,130.249348,6,P-GPS,
21200,2023-07-12 12:11:55,52.2064324451283,0.0865837111947469,129.921264,129.6587968,54.308406593512,183.96720339351,83.66142,0,33.58923992,47.033137988,22,5,14.954,186.59187539351,132.545936,9.6859502,34.094817364,0,0,0.223694,284.5, -6, -7.5,0,1,1024,1024,1024,1024,0,0,0,0,276.8,-90,0,63,3.842,3.847,3.846,3.837,0,0,16.21,75.2,183.96720339351,129.921264,6,P-GPS,
21400,2023-07-12 12:11:56,52.2064325530671,0.0865838758594423,130.249348,129.9868808,54.308406593512,184.29528739351,83.66142,0,33.562665116,47.086943764,22,5,15.235,186.59187539351,132.545936,9.6859502,34.094817364,0,0,0,285.1, -6.1, -8.7,0,1,1024,1024,1024,1024,0,0,0,0,276.8,-90,0,63,3.808,3.813,3.811,3.806,0,0,7.903,75.38,184.29528739351,130.249348,6,P-GPS,
21600,2023-07-12 12:11:56,52.206432842001,0.0865840908643675,130.249348,129.9868808,54.308406593512,184.29528739351,83.66142,0.223694,33.540683488,47.202757416,22,5,15.235,186.59187539351,132.545936,9.6859502,34.094817364,0.223694,0,0.223694,285.2, -6.2, -10.9,0,1,1024,1024,1024,1024,0,0,0,0,276.8,-89.9,0,63,3.808,3.813,3.811,3.806,0,0,7.903,75.38,184.29528739351,130.249348,6,P-GPS,
21800,2023-07-12 12:11:56,52.2064331951075,0.0865842830687054,130.249348,129.9868808,54.308406593512,184.29528739351,83.66142,0.223694,33.529528632,47.338584192,22,5,15.235,186.59187539351,132.545936,9.6859502,34.094817364,0.223694,0,0.223694,284.5, -5.7, -11.5,0,1,1024,1024,1024,1024,0,0,0,0,276.8,-90,0,63,3.808,3.813,3.811,3.806,0,0,7.903,75.38,184.29528739351,130.249348,6,P-GPS,
22000,2023-07-12 12:11:56,52.2064335196133,0.0865844878965444,130.249348,129.9868808,54.308406593512,184.29528739351,83.66142,0,33.5137806,47.4655527,22,5,15.235,186.59187539351,132.545936,9.6859502,34.094817364,0,0,0,285.2, -6.6, -11,0,1,1024,1024,1024,1024,0,0,0,0,276.8,-90,0,63,3.808,3.813,3.811,3.806,0,0,7.903,75.38,184.29528739351,130.249348,6,P-GPS,
22200,2023-07-12 12:11:56,52.2064338495913,0.0865846441595518,130.249348,129.9868808,54.308406593512,184.29528739351,83.66142,0,33.509515508,47.590880788,22,5,15.235,186.59187539351,132.545936,9.6859502,34.094817364,0,0,0,285, -7.1, -11.3,0,1,1024,1024,1024,1024,0,0,0,0,276.8,-90,0,63,3.808,3.813,3.811,3.806,0,0,7.903,75.38,184.29528739351,130.249348,6,P-GPS,
22400,2023-07-12 12:11:57,52.2064341329203,0.0865846495975828,130.249348,129.9868808,54.308406593512,184.29528739351,83.66142,0,33.534121808,47.694227248,22,5,15.23,186.59187539351,132.545936,9.6859502,34.094817364,0,0,0,285.1, -6.8, -10.8,0,1,1024,1024,1024,1024,0,0,0,0,276.8,-89.9,0,62,3.8,3.806,3.804,3.801,0,0,9.8,75.38,184.29528739351,130.249348,6,P-GPS,
22600,2023-07-12 12:11:57,52.2064344125356,0.0865846092107668,130.249348,129.9868808,54.308406593512,184.29528739351,83.66142,0,33.568570628,47.79691754,22,5,15.23,186.59187539351,132.545936,9.6859502,34.094817364,0,0,0.223694,285.1, -6.6, -11.4,0,1,1024,1024,1024,1024,0,0,0,0,276.8,-89.9,0,62,3.8,3.806,3.804,3.801,0,0,9.8,75.38,184.29528739351,130.249348,6,P-GPS,
22800,2023-07-12 12:11:57,52.2064347258188,0.0865845053429779,130.249348,129.9540724,54.341214993512,184.29528739351,83.66142,0,33.6204079,47.91338736,24,5,15.23,186.59187539351,132.545936,9.6859502,34.094817364,0,0,0.223694,285.1, -6.3, -10.1,0,1,1024,1024,1024,1024,0,0,0,0,276.8,-90,0,62,3.8,3.806,3.804,3.801,0,0,9.8,75.38,184.29528739351,130.249348,6,P-GPS,
23000,2023-07-12 12:11:57,52.2064350585831,0.0865843366941211,129.921264,129.6259884,54.341214993512,183.96720339351,83.66142,0,33.687993204,48.040683952,24,5,15.23,186.59187539351,132.545936,9.6859502,34.094817364,0,0,0.223694,284.7, -4.5, -11,0,1,1024,1024,1024,1024,0,0,0,0,276.8,-89.9,0,62,3.8,3.806,3.804,3.801,0,0,9.8,75.38,183.96720339351,129.921264,6,P-GPS,
23200,2023-07-12 12:11:57,52.2064352686608,0.086584264671665,129.921264,129.6259884,54.341214993512,183.96720339351,83.66142,0,33.723426276,48.118767944,24,5,15.23,186.59187539351,132.545936,9.6859502,34.094817364,0,0,0.223694,285.1, -5.7, -10.4,0,1,1024,1024,1024,1024,0,0,0,0,276.8,-89.9,0,62,3.8,3.806,3.804,3.801,0,0,9.8,75.38,183.96720339351,129.921264,6,P-GPS,
23400,2023-07-12 12:11:58,52.2064354089996,0.0865842092289125,129.921264,129.6259884,54.341214993512,183.96720339351,83.66142,0,33.749016828,48.171589468,24,5,15.231,186.59187539351,132.545936,9.6859502,34.094817364,0,0,0.223694,284.9, -6.1, -10.7,0,1,1024,1024,1024,1024,0,0,0,0,276.8,-89.9,0,62,3.824,3.83,3.829,3.827,0,0,9.729,75.74,183.96720339351,129.921264,6,P-GPS,
23600,2023-07-12 12:11:58,52.206435535203,0.0865841378075755,129.921264,129.6259884,54.341214993512,183.96720339351,83.66142,0,33.776575884,48.2201459,24,5,15.231,186.59187539351,132.545936,9.6859502,34.094817364,0,0,0,285.2, -7.1, -9.6,0,1,1024,1024,1024,1024,0,0,0,0,276.8,-89.9,0,62,3.824,3.83,3.829,3.827,0,0,9.729,75.74,183.96720339351,129.921264,6,P-GPS,
23800,2023-07-12 12:11:58,52.2064357447474,0.0865839765538815,129.921264,129.6259884,54.341214993512,183.96720339351,83.66142,0.223694,33.831365912,48.304791572,24,5,15.231,186.59187539351,132.545936,9.6859502,34.094817364,0.223694,0,0,285.1, -6.5, -12.4,0,1,1024,1024,1024,1024,0,0,0,0,276.8,-90,0,62,3.824,3.83,3.829,3.827,0,0,9.729,75.74,183.96720339351,129.921264,6,P-GPS,
24000,2023-07-12 12:11:58,52.2064359330716,0.086583757243266,129.921264,129.6259884,54.341214993512,183.96720339351,83.66142,0,33.896982712,48.38910916,24,5,15.231,186.59187539351,132.545936,9.6859502,34.094817364,0,0,0,284.9, -5.1, -12.5,0,1,1024,1024,1024,1024,0,0,0,0,276.8,-90,0,62,3.824,3.83,3.829,3.827,0,0,9.729,75.74,183.96720339351,129.921264,6,P-GPS,
24200,2023-07-12 12:11:58,52.2064359785511,0.0865834998943929,129.921264,129.6259884,54.341214993512,183.96720339351,83.66142,0,33.957022084,48.449148532,24,5,15.231,186.59187539351,132.545936,9.6859502,34.094817364,0,0,0,284.6, -5.2, -11.7,0,1,1024,1024,1024,1024,0,0,0,0,276.8,-89.9,0,62,3.824,3.83,3.829,3.827,0,0,9.729,75.74,183.96720339351,129.921264,6,P-GPS,
24400,2023-07-12 12:11:59,52.2064359049186,0.0865832490739528,129.921264,129.6259884,54.341214993512,183.96720339351,83.66142,0,34.003938096,48.511156408,24,5,15.298,186.59187539351,132.545936,9.6859502,34.094817364,0,0,0,284.7, -5.9, -10.6,0,1,1024,1024,1024,1024,0,0,0,0,276.8,-90,0,62,3.805,3.81,3.816,3.82,0,0,7.862,75.74,183.96720339351,129.921264,6,P-GPS,
24600,2023-07-12 12:11:59,52.2064358102778,0.0865830157418848,129.921264,129.6259884,54.341214993512,183.96720339351,83.66142,0,34.044948596,48.573820452,24,5,15.298,186.59187539351,132.545936,9.6859502,34.094817364,0,0,0,284.8, -6.1, -9.8,0,1,1024,1024,1024,1024,0,0,0,0,276.8,-90,0,62,3.805,3.81,3.816,3.82,0,0,7.862,75.74,183.96720339351,129.921264,6,P-GPS,
24800,2023-07-12 12:11:59,52.2064357578291,0.0865828079364093,129.921264,129.6259884,54.341214993512,183.96720339351,83.66142,0,34.08464676,48.624017304,24,5,15.298,186.59187539351,132.545936,9.6859502,34.094817364,0,0,0,284.8, -5.7, -10.4,0,1,1024,1024,1024,1024,0,0,0,0,276.8,-90,0,62,3.805,3.81,3.816,3.82,0,0,7.862,75.74,183.96720339351,129.921264,6,P-GPS,
25000,2023-07-12 12:11:59,52.2064356743959,0.0865826341850298,129.921264,129.6259884,54.341214993512,183.96720339351,83.66142,0,34.11417432,48.673557988,24,5,15.298,186.59187539351,132.545936,9.6859502,34.11417432,0,0,0,284.8, -6.6, -9,0,1,1024,1024,1024,1024,0,0,0,0,276.8,-90,0,62,3.805,3.81,3.816,3.82,0,0,7.862,75.74,183.96720339351,129.921264,6,P-GPS,
25200,2023-07-12 12:11:59,52.2064356401519,0.0865825090264411,129.921264,129.6259884,54.341214993512,183.96720339351,83.66142,0,34.137796368,48.7040698,24,5,15.298,186.59187539351,132.545936,9.6859502,34.137796368,0,0,0,284.9, -7, -9.2,0,1,1024,1024,1024,1024,0,0,0,0,276.8,-89.9,0,62,3.805,3.81,3.816,3.82,0,0,7.862,75.74,183.96720339351,129.921264,6,P-GPS,
25400,2023-07-12 12:12:00,52.2064356250827,0.0865824113236178,129.921264,129.6259884,54.341214993512,183.96720339351,83.66142,0,34.157481408,48.726707596,25,5,15.257,186.59187539351,132.545936,9.6859502,34.157481408,0,0,0.223694,284.8, -7.4, -8.9,0,1,1024,1024,1024,1024,0,0,0,0,276.8,-90,0,62,3.816,3.824,3.822,3.824,0,0,8.781,75.74,183.96720339351,129.921264,6,P-GPS,
25600,2023-07-12 12:12:00,52.2064356376953,0.0865823002284201,129.921264,129.6259884,54.341214993512,183.96720339351,83.66142,0,34.182743876,48.751970064,25,5,15.257,186.59187539351,132.545936,9.6859502,34.182743876,0,0,0,284.8, -7.3, -8.9,0,1,1024,1024,1024,1024,0,0,0,0,276.8,-90,0,62,3.816,3.824,3.822,3.824,0,0,8.781,75.74,183.96720339351,129.921264,6,P-GPS,
25800,2023-07-12 12:12:00,52.2064356649724,0.0865821250511302,129.921264,129.6259884,54.341214993512,183.96720339351,83.66142,0,34.223098208,48.792324396,25,5,15.257,186.59187539351,132.545936,9.6859502,34.223098208,0,0,0,284.9, -7.5, -8.5,0,1,1024,1024,1024,1024,0,0,0,0,276.8,-90,0,62,3.816,3.824,3.822,3.824,0,0,8.781,75.74,183.96720339351,129.921264,6,P-GPS,
26000,2023-07-12 12:12:00,52.2064357167122,0.0865818831915586,129.921264,129.6259884,54.341214993512,183.96720339351,83.66142,0,34.280184824,48.849411012,25,5,15.257,186.59187539351,132.545936,9.6859502,34.280184824,0,0,0,284.8, -6.6, -8.7,0,1,1024,1024,1024,1024,0,0,0,0,276.8,-90,0,62,3.816,3.824,3.822,3.824,0,0,8.781,75.74,183.96720339351,129.921264,6,P-GPS,
26200,2023-07-12 12:12:00,52.2064357556167,0.0865816381726168,129.59318,129.2979044,54.341214993512,183.63911939351,83.66142,0,34.336943356,48.906169544,25,5,15.257,186.59187539351,132.545936,9.6859502,34.336943356,0,0,0,284.8, -6.6, -8.7,0,1,1024,1024,1024,1024,0,0,0,0,276.8,-89.9,0,62,3.816,3.824,3.822,3.824,0,0,8.781,75.74,183.63911939351,129.59318,6,P-GPS,
26400,2023-07-12 12:12:01,52.2064357646505,0.086581462016761,129.59318,129.2979044,54.341214993512,183.63911939351,83.66142,0,34.375657268,48.945539624,25,5,15.279,186.59187539351,132.545936,9.6859502,34.375657268,0,0,0,285, -7, -8.7,0,1,1024,1024,1024,1024,0,0,0,0,276.8,-90,0,62,3.811,3.818,3.817,3.819,0,0,8.268,75.74,183.63911939351,129.59318,6,P-GPS,
26600,2023-07-12 12:12:01,52.206435796605,0.0865813244863023,129.59318,129.2979044,54.341214993512,183.63911939351,83.66142,0.223694,34.408465668,48.978676108,24,5,15.279,186.59187539351,132.545936,9.6859502,34.408465668,0.223694,0,0.223694,285.3, -7.7, -9.4,0,1,1024,1024,1024,1024,0,0,0,0,276.8,-90,0,62,3.811,3.818,3.817,3.819,0,0,8.268,75.74,183.63911939351,129.59318,6,P-GPS,
26800,2023-07-12 12:12:01,52.2064359614644,0.086581260669821,129.59318,129.2979044,54.341214993512,183.63911939351,83.66142,0.223694,34.437993228,49.0403559,25,5,15.279,186.59187539351,132.545936,9.6859502,34.437993228,0.223694,0,0.223694,285.1, -6.4, -11.4,0,1,1024,1024,1024,1024,0,0,0,0,276.8,-89.9,0,62,3.811,3.818,3.817,3.819,0,0,8.268,75.74,183.63911939351,129.59318,6,P-GPS,
27000,2023-07-12 12:12:01,52.2064361301147,0.0865812816530715,129.59318,129.2979044,54.341214993512,183.63911939351,83.66142,0.223694,34.449804252,49.102035692,25,5,15.279,186.59187539351,132.545936,9.6859502,34.449804252,0.223694,0,0.223694,285.1, -6.9, -12.9,0,1,1024,1024,1024,1024,0,0,0,0,276.8,-90,0,62,3.811,3.818,3.817,3.819,0,0,8.268,75.74,183.63911939351,129.59318,6,P-GPS,
27200,2023-07-12 12:12:01,52.206436206735,0.0865812944583063,129.59318,129.2979044,54.341214993512,183.63911939351,83.66142,0,34.454397428,49.130250916,25,5,15.279,186.59187539351,132.545936,9.6859502,34.454397428,0,0,0,285.1, -6.7, -12.9,0,1,1024,1024,1024,1024,0,0,0,0,276.8,-89.9,0,62,3.811,3.818,3.817,3.819,0,0,8.268,75.74,183.63911939351,129.59318,6,P-GPS,
27400,2023-07-12 12:12:02,52.2064361493688,0.0865812900268003,129.59318,129.2979044,54.341214993512,183.63911939351,83.66142,0,34.449804252,49.151248292,25,5,15.28,186.59187539351,132.545936,9.6859502,34.454397428,0,0,0,284.9, -6.8, -12,0,1,1024,1024,1024,1024,0,0,0,0,276.8,-89.9,0,62,3.816,3.82,3.816,3.814,0,0,8.411,75.92,183.63911939351,129.59318,6,P-GPS,
27600,2023-07-12 12:12:02,52.2064360059866,0.0865812364852618,129.59318,129.2979044,54.341214993512,183.63911939351,83.66142,0,34.447507664,49.204725984,25,5,15.28,186.59187539351,132.545936,9.6859502,34.454397428,0,0,0,284.8, -5.6, -11,0,1,1024,1024,1024,1024,0,0,0,0,276.8,-90,0,62,3.816,3.82,3.816,3.814,0,0,8.411,75.92,183.63911939351,129.59318,6,P-GPS,
27800,2023-07-12 12:12:02,52.2064358281312,0.0865811581161063,129.59318,129.2979044,54.341214993512,183.63911939351,83.66142,0,34.44717958,49.271983204,24,5,15.28,186.59187539351,132.545936,9.6859502,34.454397428,0,0,0,284.6, -5, -10.4,0,1,1024,1024,1024,1024,0,0,0,0,276.8,-90,0,62,3.816,3.82,3.816,3.814,0,0,8.411,75.92,183.63911939351,129.59318,6,P-GPS,
28000,2023-07-12 12:12:02,52.2064355559221,0.0865811396491683,129.59318,129.2979044,54.341214993512,183.63911939351,83.66142,0.223694,34.425526036,49.371392656,25,5,15.28,186.59187539351,132.545936,9.6859502,34.454397428,-0.223694,0,0,284.5, -5.6, -8.4,0,1,1024,1024,1024,1024,0,0,0,0,276.8,-89.9,0,62,3.816,3.82,3.816,3.814,0,0,8.411,75.92,183.63911939351,129.59318,6,P-GPS,
28200,2023-07-12 12:12:02,52.2064352245648,0.0865811890108322,129.265096,128.9698204,54.341214993512,183.31103539351,83.66142,0.223694,34.383531284,49.492783736,25,5,15.28,186.59187539351,132.545936,9.6859502,34.454397428,-0.223694,0,0,284.5, -6.1, -6.6,0,1,1024,1024,1024,1024,0,0,0,0,276.8,-90,0,62,3.816,3.82,3.816,3.814,0,0,8.411,75.92,183.31103539351,129.265096,6,P-GPS,
28400,2023-07-12 12:12:03,52.2064349363484,0.0865812298729517,129.265096,128.9698204,54.341214993512,183.31103539351,83.66142,0.223694,34.348098212,49.598426784,25,5,15.238,186.59187539351,132.545936,9.6859502,34.454397428,-0.223694,0,0,284.3, -6.5, -5.6,0,1,1024,1024,1024,1024,0,0,0,0,276.8,-90,0,62,3.814,3.822,3.819,3.817,0,0,8.629,75.92,183.31103539351,129.265096,6,P-GPS,
28600,2023-07-12 12:12:03,52.2064347279198,0.0865813069979303,128.937012,128.6417364,54.341214993512,182.98295139351,83.66142,0,34.312008972,49.676182692,25,5,15.238,186.59187539351,132.545936,9.6859502,34.454397428,0,0,0,284.2, -6.4, -4.9,0,1,1024,1024,1024,1024,0,0,0,0,276.8,-90,0,62,3.814,3.822,3.819,3.817,0,0,8.629,75.92,182.98295139351,128.937012,6,P-GPS,
28800,2023-07-12 12:12:03,52.206434599639,0.0865814565787301,128.937012,128.6417364,54.341214993512,182.98295139351,83.66142,0,34.268045716,49.733925476,25,5,15.238,186.59187539351,132.545936,9.6859502,34.454397428,0,0,0,284.2, -6.5, -4.3,0,1,1024,1024,1024,1024,0,0,0,0,276.8,-90,0,62,3.814,3.822,3.819,3.817,0,0,8.629,75.92,182.98295139351,128.937012,6,P-GPS,
29000,2023-07-12 12:12:03,52.2064345818669,0.0865816352369189,128.608928,128.3136524,54.341214993512,182.65486739351,83.66142,0,34.227691384,49.774279808,25,5,15.238,186.59187539351,132.545936,9.6859502,34.454397428,0,0,0,284.1, -6.6, -4.5,0,1,1024,1024,1024,1024,0,0,0,0,276.8,-89.9,0,62,3.814,3.822,3.819,3.817,0,0,8.629,75.92,182.65486739351,128.608928,6,P-GPS,
29200,2023-07-12 12:12:03,52.2064346520406,0.086581805171891,128.608928,128.3136524,54.341214993512,182.65486739351,83.66142,0,34.197507656,49.820211568,25,5,15.238,186.59187539351,132.545936,9.6859502,34.454397428,0,0,0,284.2, -6.8, -5.1,0,1,1024,1024,1024,1024,0,0,0,0,276.8,-90,0,62,3.814,3.822,3.819,3.817,0,0,8.629,75.92,182.65486739351,128.608928,6,P-GPS,
29400,2023-07-12 12:12:04,52.2064347677538,0.0865820241469982,128.608928,128.3136524,54.341214993512,182.65486739351,83.66142,0,34.160762248,49.884844116,25,5,15.286,186.59187539351,132.545936,9.6859502,34.454397428,0,0,0,284.6, -6.8, -5.1,0,1,1024,1024,1024,1024,0,0,0,0,276.8,-89.9,0,62,3.832,3.833,3.83,3.83,0,0,8.094,75.92,182.65486739351,128.608928,6,P-GPS,
29600,2023-07-12 12:12:04,52.2064349892469,0.0865823589283993,128.608928,128.3136524,54.341214993512,182.65486739351,83.66142,0.223694,34.108924976,49.99508034,25,5,15.286,186.59187539351,132.545936,9.6859502,34.454397428,0.223694,0,0,284.9, -8.3, -6.2,0,1,1024,1024,1024,1024,0,0,0,0,276.8,-89.9,0,62,3.832,3.833,3.83,3.83,0,0,8.094,75.92,182.65486739351,128.608928,6,P-GPS,
29800,2023-07-12 12:12:04,52.206435275176,0.0865826608859016,128.280844,127.9855684,54.341214993512,182.32678339351,83.66142,0.223694,34.070539148,50.119096092,25,5,15.286,186.59187539351,132.545936,9.6859502,34.454397428,0.223694,0,0,284.6, -7.6, -7.4,0,1,1024,1024,1024,1024,0,0,0,0,276.8,-90,0,62,3.832,3.833,3.83,3.83,0,0,8.094,75.92,182.32678339351,128.280844,6,P-GPS,
30000,2023-07-12 12:12:04,52.2064355278312,0.0865829219812844,128.280844,127.9855684,54.341214993512,182.32678339351,83.66142,0,34.038058832,50.228348064,25,5,15.286,186.59187539351,132.545936,9.6859502,34.454397428,0,0,0,284.5, -7.2, -7.1,0,1,1571,1024,1024,1024,83,0,0,0,276.8,-89.9,0,62,3.832,3.833,3.83,3.83,0,0,8.094,75.92,182.32678339351,128.280844,6,P-GPS,
30200,2023-07-12 12:12:04,52.206435740783,0.0865831409144531,128.280844,127.9855684,54.341214993512,182.32678339351,83.66142,0,34.011155944,50.320211584,25,5,15.286,186.59187539351,132.545936,9.6859502,34.454397428,0,0,0,285, -7.1, -7.4,0,1,1684,1071,1024,1024,100,7,0,0,276.8,-90,0,62,3.832,3.833,3.83,3.83,0,0,8.094,75.92,182.32678339351,128.280844,6,P-GPS,
30400,2023-07-12 12:12:05,52.2064359609804,0.0865832336265899,128.280844,127.9855684,54.341214993512,182.32678339351,83.66142,0.223694,34.01246828,50.403216836,25,5,15.348,186.59187539351,132.545936,9.6859502,34.454397428,0.223694,0,0,284.1, -20.4, -0.5,0,1,1684,1085,1024,1024,100,9,0,0,276.8,-90,0,62,3.842,3.843,3.837,3.833,0,0,6.919,76.1,182.32678339351,128.280844,6,P-GPS,
30600,2023-07-12 12:12:05,52.206436599367,0.0865822377399925,127.95276,127.6574844,54.341214993512,181.99869939351,83.66142,1.8119214,34.28969926,50.725395324,25,5,15.348,186.59187539351,132.545936,9.6859502,34.454397428,0.894776,-1.565858,0,285.5, -30.1, -3.2,0,1,1684,1084,1024,1024,100,9,0,0,276.8,-90,0,62,3.842,3.843,3.837,3.833,0,0,6.919,76.1,181.99869939351,127.95276,6,P-GPS,
30800,2023-07-12 12:12:05,52.20643786178,0.0865788215521784,128.280844,127.95276,54.374023393512,182.32678339351,83.66142,3.802798,35.150591676,51.61745572,25,5,15.348,186.59187539351,132.545936,9.6859502,35.150591676,1.789552,-3.35541,0,286.1, -31.2, -6.6,0,1,1684,1066,1024,1024,100,6,0,0,276.8,-89.9,0,62,3.842,3.843,3.837,3.833,0,0,6.919,76.1,182.32678339351,128.280844,6,P-GPS,
31000,2023-07-12 12:12:05,52.2064396052012,0.0865729638422454,128.280844,127.95276,54.374023393512,182.32678339351,83.66142,5.816044,36.58628726,53.073164428,24,5,15.348,186.59187539351,132.545936,9.6859502,36.58628726,2.23694,-5.368656,0.223694,286.7, -31.7, -7.5,0,1,1627,1024,1024,1024,91,0,0,0,276.8,-89.9,0,62,3.842,3.843,3.837,3.833,0,0,6.919,76.1,182.32678339351,128.280844,6,P-GPS,
31200,2023-07-12 12:12:05,52.2064417975968,0.0865647740558085,128.280844,127.9199516,54.406831793512,182.32678339351,83.66142,7.4266408,38.570211208,55.071524072,24,5,15.348,186.59187539351,132.545936,9.6859502,38.570211208,2.684328,-6.934514,0.223694,286.6, -32, -8.8,0,0,1024,1024,1024,1024,0,0,0,0,276.8,-89.9,0,62,3.842,3.843,3.837,3.833,0,0,6.919,76.1,182.32678339351,128.280844,6,P-GPS,
31400,2023-07-12 12:12:06,52.206444247458,0.0865544150681852,128.280844,127.8871432,54.439640193512,182.32678339351,83.66142,8.9924988,41.046261156,57.5541357,24,5,15.351,186.59187539351,132.545936,9.6859502,41.046261156,2.908022,-8.500372,0.223694,285.3, -22.3, -8.2,0,0,1074,1024,1024,1024,8,0,0,0,276.8,-89.9,0,62,3.805,3.809,3.815,3.814,0,0,6.965,75.92,182.32678339351,128.280844,6,P-GPS,
31600,2023-07-12 12:12:06,52.2064466810442,0.0865429801752264,128.280844,127.8543348,54.472448593512,182.32678339351,83.66142,8.7016966,43.751313736,60.260500616,24,5,15.351,186.59187539351,132.545936,9.6859502,43.751313736,2.684328,-8.276678,-0.894776,284.6, 16.4, -8.9,0,0,1024,1024,1024,1024,0,0,0,0,276.8,-90,0,62,3.805,3.809,3.815,3.814,0,0,6.965,75.92,182.32678339351,128.280844,6,P-GPS,
31800,2023-07-12 12:12:06,52.2064486432899,0.0865336777313117,128.280844,127.8215264,54.505256993512,182.32678339351,83.66142,6.151585,45.950132704,62.460303836,24,5,15.351,186.59187539351,132.545936,9.6859502,45.950132704,2.013246,-5.816044,-0.671082,283.2, 29.5, -5.8,0,0,1024,1024,1024,1024,0,0,0,0,276.8,-89.9,0,62,3.805,3.809,3.815,3.814,0,0,6.965,75.92,182.32678339351,128.280844,6,P-GPS,
32000,2023-07-12 12:12:06,52.206450071526,0.0865280124913273,127.95276,127.4934424,54.505256993512,181.99869939351,83.66142,3.4001488,47.31463406,63.830054536,25,5,15.351,186.59187539351,132.545936,9.6859502,47.31463406,1.342164,-3.131716,0,281.6, 27.7, -11.5,0,0,1024,1024,1024,1024,0,0,0,0,276.8,-90,0,62,3.805,3.809,3.815,3.814,0,0,6.965,75.92,181.99869939351,127.95276,6,P-GPS,
32200,2023-07-12 12:12:06,52.2064508526823,0.0865253518123675,127.95276,127.4934424,54.505256993512,181.99869939351,83.66142,1.006623,47.96752122,64.489503376,25,5,15.351,186.59187539351,132.545936,9.6859502,47.96752122,0.447388,-0.894776,0.223694,282.6, 15.6, -11.2,0,0,1024,1024,1024,1024,0,0,0,0,276.8,-90,0,62,3.805,3.809,3.815,3.814,0,0,6.965,75.92,181.99869939351,127.95276,6,P-GPS,
