time(millisecond),datetime(utc),latitude,longitude,height_above_takeoff(feet),height_above_ground_at_drone_location(feet),ground_elevation_at_drone_location(feet),altitude_above_seaLevel(feet),height_sonar(feet),speed(mph),distance(feet),mileage(feet),satellites,gpslevel,voltage(v),max_altitude(feet),max_ascent(feet),max_speed(mph),max_distance(feet), xSpeed(mph), ySpeed(mph), zSpeed(mph), compass_heading(degrees), pitch(degrees), roll(degrees),isPhoto,isVideo,rc_elevator,rc_aileron,rc_throttle,rc_rudder,rc_elevator(percent),rc_aileron(percent),rc_throttle(percent),rc_rudder(percent),gimbal_heading(degrees),gimbal_pitch(degrees),gimbal_roll(degrees),battery_percent,voltageCell1,voltageCell2,voltageCell3,voltageCell4,voltageCell5,voltageCell6,current(A),battery_temperature(f),altitude(feet),ascent(feet),flycStateRaw,flycState,message
100,2023-07-06 16:41:13,52.2063913136332,0.0867047968310565,0,0,53.741802244672,53.741802244672,0.328084,0,0,0,29,5,0,53.741802244672,0,0,0,0,0,0,279.9, 5, 0.7,0,0,1024,1024,1024,1024,0,0,0,0,279.9,0,0,100,4.35,4.353,4.35,4.351,0,0,0,78.62,53.741802244672,0,41,Motors_Started,
300,2023-07-06 16:41:13,52.2063912604845,0.0867048816718975,0,0,53.741802244672,53.741802244672,0.328084,0,0.027126641288,0.027126641288,29,5,0,53.741802244672,0,0,0.027126641288,0,0,0,279.9, 5, 0.7,0,0,1024,1024,1024,1024,0,0,0,0,279.9,0,0,100,4.35,4.353,4.35,4.351,0,0,0,78.62,53.741802244672,0,41,Motors_Started,"Setting new Return-To-Home altitude to 26m (85 ft). Data Recorder File Index is 52. Setting new Maximum Flight Altitude to 120m (394 ft)"
500,2023-07-06 16:41:13,52.2063911891998,0.0867049826589194,0,0,53.741802244672,53.741802244672,0,0,0.06154199672,0.061568571524,28,5,0,53.741802244672,0,0,0.06154199672,0,0,0,279.9, 5.1, 0.7,0,0,1024,1024,1024,1024,0,0,0,0,279.9,0,0,100,4.35,4.353,4.35,4.351,0,0,0,78.62,53.741802244672,0,41,Motors_Started,
700,2023-07-06 16:41:13,52.2063911293518,0.0867051482166852,0,0,53.741802244672,53.741802244672,0,0,0.10340715554,0.10454560702,28,5,0,53.741802244672,0,0,0.10340715554,0,0,0,279.9, 5.2, 0.7,0,0,1024,1024,1024,1024,0,0,0,0,279.9,0,0,100,4.35,4.353,4.35,4.351,0,0,0,78.62,53.741802244672,0,41,Motors_Started,
900,2023-07-06 16:41:14,52.2063910595663,0.0867053072041437,0,0,53.741802244672,53.741802244672,0,0,0.147018049324,0.148270674036,28,5,0,53.741802244672,0,0,0.147018049324,0,0,0,279.9, 5.2, 0.7,0,0,1024,1024,1024,1024,0,0,0,0,279.9,0,0,100,4.35,4.353,4.35,4.351,0,0,0,78.62,53.741802244672,0,41,Motors_Started,
1100,2023-07-06 16:41:14,52.206391010067,0.0867054825754325,0,0,53.741802244672,53.741802244672,0,0,0.189142394504,0.191440622924,28,5,17.401,53.741802244672,0,0,0.189142394504,0,0,0,279.9, 5.2, 0.7,0,0,1024,1024,1024,1024,0,0,0,0,279.9,0,0,100,4.35,4.353,4.35,4.351,0,0,1.262,78.62,53.741802244672,0,41,Motors_Started,
1300,2023-07-06 16:41:14,52.2063909527719,0.0867056691721612,0,0,53.741802244672,53.741802244672,0,0,0.235321857924,0.238104994496,28,5,17.401,53.741802244672,0,0,0.235321857924,0,0,0,279.9, 5.2, 0.7,0,0,1024,1024,1024,1024,0,0,0,0,279.9,0,0,100,4.35,4.353,4.35,4.351,0,0,1.262,78.62,53.741802244672,0,41,Motors_Started,
1500,2023-07-06 16:41:14,52.2063908899427,0.0867058617171149,0,0,53.741802244672,53.741802244672,0,0,0.283874681,0.28687829002,28,5,17.401,53.741802244672,0,0,0.283874681,0,0,0,279.4, 5.2, 0.8,0,0,1024,1024,1024,1024,0,0,0,0,279.9,0,0,100,4.35,4.353,4.35,4.351,0,0,1.262,78.62,53.741802244672,0,41,Motors_Started,
1700,2023-07-06 16:41:14,52.2063908535422,0.086706038563228,0,0,53.741802244672,53.741802244672,0,0,0.324437018256,0.32858924936,28,5,17.401,53.741802244672,0,0,0.324437018256,0,0,0,279.1, 5.2, 0.8,0,0,1024,1024,1024,1024,0,0,0,0,279.8,0,0,100,4.35,4.353,4.35,4.351,0,0,1.262,78.62,53.741802244672,0,11,AutoTakeoff,
1900,2023-07-06 16:41:15,52.2063908083778,0.086706220707525,0,0,53.741802244672,53.741802244672,0,0,0.3678805892,0.3725229778,28,5,17.401,53.741802244672,0,0,0.3678805892,0,0,0,278.7, 4.9, 0.7,0,0,1024,1024,1024,1024,0,0,0,0,279.8,0,0,100,4.35,4.353,4.35,4.351,0,0,1.262,78.62,53.741802244672,0,11,AutoTakeoff,
2100,2023-07-06 16:41:15,52.2063908136207,0.0867065016021436,0,0,53.741802244672,53.741802244672,0,0,0.422572192,0.43535434464,28,5,17.241,53.741802244672,0,0,0.422572192,0,0,-0.223694,278.5, -1, 0.8,0,0,1024,1024,1024,1024,0,0,0,0,279.7,0,0,100,4.306,4.31,4.306,4.305,0,0,3.716,78.44,53.741802244672,0,11,AutoTakeoff,
2300,2023-07-06 16:41:15,52.2063908819156,0.0867067768281246,0,0,53.741802244672,53.741802244672,0.328084,0,0.46988846648,0.50174542288,28,5,17.241,53.741802244672,0,0,0.46988846648,0,0,-1.11847,278.5, -0.6, 0.1,0,0,1024,1024,1024,1024,0,0,0,0,279.6,0,0,100,4.306,4.31,4.306,4.305,0,0,3.716,78.44,53.741802244672,0,11,AutoTakeoff,
2500,2023-07-06 16:41:15,52.2063910121402,0.0867068893970606,0.656168,0.656168,53.741802244672,54.397970244672,0.328084,0,0.4806266558,0.5555118288,28,5,17.241,54.397970244672,0.656168,0,0.4806266558,0,0,-1.11847,278.6, 0.6, -0.8,0,0,1024,1024,1024,1024,0,0,0,0,279.6,0,0,100,4.306,4.31,4.306,4.305,0,0,3.716,78.44,54.397970244672,0.656168,11,AutoTakeoff,
2700,2023-07-06 16:41:15,52.2063911192343,0.0867069991002243,0.984252,0.984252,53.741802244672,54.726054244672,0.984252,0,0.49748033088,0.60164700088,28,5,17.241,54.726054244672,0.984252,0,0.49748033088,0,0,-0.894776,278.6, 0.6, -1.7,0,0,1024,1024,1024,1024,0,0,0,0,279.5,0,0,100,4.306,4.31,4.306,4.305,0,0,3.716,78.44,54.726054244672,0.984252,11,AutoTakeoff,
2900,2023-07-06 16:41:16,52.206391152962,0.0867071755898632,0.984252,0.984252,53.741802244672,54.726054244672,1.312336,0,0.53507875728,0.64298230404,28,5,17.241,54.726054244672,0.984252,0,0.53507875728,0,0,-0.894776,278.9, 0, -0.2,0,0,1024,1024,1024,1024,0,0,0,0,279.5,0,0,100,4.306,4.31,4.306,4.305,0,0,3.716,78.44,54.726054244672,0.984252,11,AutoTakeoff,
3100,2023-07-06 16:41:16,52.2063912262685,0.0867073724125064,1.312336,1.312336,53.741802244672,55.054138244672,1.64042,0,0.57674542528,0.69447836868,28,5,17.293,55.054138244672,1.312336,0,0.57674542528,0,0,-0.894776,278.5, -0.2, 0,0,0,1024,1024,1024,1024,0,0,0,0,279.5,0,0,100,4.303,4.305,4.299,4.296,0,0,3.411,78.62,55.054138244672,1.312336,11,AutoTakeoff,
3300,2023-07-06 16:41:16,52.2063913373377,0.0867075875830824,1.968504,1.968504,53.741802244672,55.710306244672,1.968504,0,0.62403545304,0.757381914,28,5,17.293,55.710306244672,1.968504,0,0.62403545304,0,0,-1.11847,278.5, -0.2, -0.1,0,0,1024,1024,1024,1024,0,0,0,0,279.4,0,0,100,4.303,4.305,4.299,4.296,0,0,3.411,78.62,55.710306244672,1.968504,11,AutoTakeoff,"Home Point updated (Code: 3000001)"
3500,2023-07-06 16:41:16,52.2063915506864,0.0867078382403078,2.296588,2.296588,53.741802244672,56.038390244672,2.296588,0,0.68549542876,0.8532972714,28,5,17.293,56.038390244672,2.296588,0,0.68549542876,0,0,-1.11847,278.5, -0.6, -1.7,0,0,1024,1024,1024,1024,0,0,0,0,279.4,0,0,100,4.303,4.305,4.299,4.296,0,0,3.411,78.62,56.038390244672,2.296588,11,AutoTakeoff,
3700,2023-07-06 16:41:16,52.2063918586132,0.0867081559426269,2.624672,2.624672,53.741802244672,56.366474244672,2.624672,0,0.77692587788,0.98621722316,29,5,17.293,56.366474244672,2.624672,0,0.77692587788,0,0,-1.11847,278.6, -0.4, -2.6,0,0,1024,1024,1024,1024,0,0,0,0,279.3,0,0,100,4.303,4.305,4.299,4.296,0,0,3.411,78.62,56.366474244672,2.624672,11,AutoTakeoff,
3900,2023-07-06 16:41:17,52.2063920672501,0.0867085065244415,2.952756,2.952756,53.741802244672,56.694558244672,2.952756,0,0.87382548728,1.09548231852,29,5,17.293,56.694558244672,2.952756,0,0.87382548728,0,0,-1.11847,278.5, -0.7, -2.4,0,0,1024,1024,1024,1024,0,0,0,0,279.3,0,0,100,4.303,4.305,4.299,4.296,0,0,3.411,78.62,56.694558244672,2.952756,11,AutoTakeoff,
4100,2023-07-06 16:41:17,52.2063922479249,0.0867089002745733,3.28084,3.28084,53.741802244672,57.022642244672,3.28084,0,0.97875331216,1.205462637,27,5,17.099,57.022642244672,3.28084,0,0.97875331216,0,0,-0.894776,278.7, -1.4, -1.8,0,0,1024,1024,1024,1024,0,0,0,0,279.3,0,0,100,4.27,4.276,4.271,4.273,0,0,6.932,78.26,57.022642244672,3.28084,11,AutoTakeoff,
4300,2023-07-06 16:41:17,52.2063923908542,0.0867093010912804,3.608924,3.608924,53.741802244672,57.350726244672,3.608924,0,1.08106630756,1.30914702352,29,5,17.099,57.350726244672,3.608924,0,1.08106630756,0,0,-0.894776,278.7, -2.2, -1.6,0,0,1024,1024,1024,1024,0,0,0,0,279.3,0,0,100,4.27,4.276,4.271,4.273,0,0,6.932,78.26,57.350726244672,3.608924,6,P-GPS,
4500,2023-07-06 16:41:17,52.2063925378698,0.0867095701873045,3.608924,3.608924,53.741802244672,57.350726244672,3.937008,0,1.1569554176,1.38975070064,29,5,17.099,57.350726244672,3.608924,0,1.1569554176,0,0,-0.223694,278.8, -1.2, -2.4,0,0,1024,1024,1024,1024,0,0,0,0,279.3,0,0,100,4.27,4.276,4.271,4.273,0,0,6.932,78.26,57.350726244672,3.608924,6,P-GPS,
4700,2023-07-06 16:41:17,52.2063926501641,0.0867097564135797,3.937008,3.937008,53.741802244672,57.678810244672,3.937008,0,1.21137799152,1.44816605684,29,5,17.099,57.678810244672,3.937008,0,1.21137799152,0,0,0,279, -0.5, -1.8,0,0,1024,1024,1024,1024,0,0,0,0,279.3,0,0,100,4.27,4.276,4.271,4.273,0,0,6.932,78.26,57.678810244672,3.937008,6,P-GPS,
4900,2023-07-06 16:41:18,52.2063927299899,0.0867099069994324,3.937008,3.937008,53.741802244672,57.678810244672,3.937008,0,1.25398954144,1.4926837748,29,5,17.099,57.678810244672,3.937008,0,1.25398954144,0,0,0,279.5, -1.2, -1.3,0,0,1024,1024,1024,1024,0,0,0,0,279.3,0,0,100,4.27,4.276,4.271,4.273,0,0,6.932,78.26,57.678810244672,3.937008,6,P-GPS,
5100,2023-07-06 16:41:18,52.2063928330405,0.0867100207356464,3.937008,3.937008,53.741802244672,57.678810244672,3.937008,0,1.29287405712,1.5380741962,29,5,17.1,57.678810244672,3.937008,0,1.29287405712,0,0,0,279.2, -0.9, -1.9,0,0,1024,1024,1024,1024,0,0,0,0,279.3,0,0,100,4.272,4.279,4.275,4.275,0,0,6.934,78.44,57.678810244672,3.937008,6,P-GPS,
5300,2023-07-06 16:41:18,52.206392933324,0.0867100817136904,3.937008,3.937008,53.741802244672,57.678810244672,3.937008,0,1.32115817876,1.57711947304,29,5,17.1,57.678810244672,3.937008,0,1.32115817876,0,0,0,279.3, 0.1, -2.5,0,0,1024,1024,1024,1024,0,0,0,0,279.3,0,0,100,4.272,4.279,4.275,4.275,0,0,6.934,78.44,57.678810244672,3.937008,6,P-GPS,
5500,2023-07-06 16:41:18,52.2063929916386,0.0867101919480704,3.937008,3.937008,53.741802244672,57.678810244672,3.937008,0,1.35274282544,1.60968181004,29,5,17.1,57.678810244672,3.937008,0,1.35274282544,0,0,0,279.3, -0.2, -1,0,0,1024,1024,1301,1024,0,0,42,0,279.3,0,0,100,4.272,4.279,4.275,4.275,0,0,6.934,78.44,57.678810244672,3.937008,6,P-GPS,
5700,2023-07-06 16:41:18,52.2063930893092,0.0867103054326556,3.937008,3.937008,53.741802244672,57.678810244672,3.937008,0,1.39164374532,1.65342524976,29,5,17.1,57.678810244672,3.937008,0,1.39164374532,0,0,0,279.3, 0, -1.3,0,0,1024,1024,1024,1024,0,0,0,0,279.3,0,0,100,4.272,4.279,4.275,4.275,0,0,6.934,78.44,57.678810244672,3.937008,6,P-GPS,
5900,2023-07-06 16:41:19,52.2063932031283,0.0867104911626629,3.937008,3.937008,53.741802244672,57.678810244672,3.937008,0,1.447834692,1.7121555666,29,5,17.1,57.678810244672,3.937008,0,1.447834692,0,0,-0.894776,278.9, 0.3, -1.2,0,0,1024,1024,1024,1024,0,0,0,0,279.3,0,0,100,4.272,4.279,4.275,4.275,0,0,6.934,78.44,57.678810244672,3.937008,6,P-GPS,
6100,2023-07-06 16:41:19,52.2063933018441,0.0867107678355095,4.265092,4.265092,53.741802244672,58.006894244672,4.265092,0,1.51938325072,1.78373693372,29,5,17.105,58.006894244672,4.265092,0,1.51938325072,0,0,-0.223694,279, -0.2, -2.8,0,0,1024,1024,1322,1024,0,0,45,0,279.3,0,0,100,4.27,4.274,4.27,4.27,0,0,6.558,78.44,58.006894244672,4.265092,6,P-GPS,
6300,2023-07-06 16:41:19,52.2063933161764,0.0867110996010822,4.265092,4.265092,53.741802244672,58.006894244672,4.265092,0,1.58735569384,1.85809717232,29,5,17.105,58.006894244672,4.265092,0,1.58735569384,0,0,-0.671082,279.4, 0, -1.4,0,0,1024,1024,1026,1024,0,0,0,0,279.3,0,0,100,4.27,4.274,4.27,4.27,0,0,6.558,78.44,58.006894244672,4.265092,6,P-GPS,
6500,2023-07-06 16:41:19,52.2063932740618,0.0867115419714884,4.593176,4.593176,53.741802244672,58.334978244672,4.593176,0,1.66914047336,1.95819231988,29,5,17.105,58.334978244672,4.593176,0,1.66914047336,0,0,-0.447388,279.5, -2, 0.1,0,0,1024,1024,1076,1024,0,0,8,0,279.3,0,0,100,4.27,4.274,4.27,4.27,0,0,6.558,78.44,58.334978244672,4.593176,6,P-GPS,
6700,2023-07-06 16:41:19,52.2063932860554,0.0867119168844093,4.593176,4.593176,53.741802244672,58.334978244672,4.92126,0,1.7470473,2.04213261128,28,5,17.105,58.334978244672,4.593176,0,1.7470473,0,0,-1.11847,279.6, -1.8, 0.2,0,0,1024,1024,1118,1024,0,0,14,0,279.3,0,0,100,4.27,4.274,4.27,4.27,0,0,6.558,78.44,58.334978244672,4.593176,6,P-GPS,
6900,2023-07-06 16:41:20,52.2063934182075,0.0867122326366052,4.92126,4.92126,53.741802244672,58.663062244672,5.249344,0,1.8312992712,2.12762474,28,5,17.105,58.663062244672,4.92126,0,1.8312992712,0,0,-0.447388,279.4, -1.8, -1.5,0,0,1024,1024,1506,1024,0,0,73,0,279.3,0,0,100,4.27,4.274,4.27,4.27,0,0,6.558,78.44,58.663062244672,4.92126,6,P-GPS,
7100,2023-07-06 16:41:20,52.2063935860406,0.0867124526230767,5.249344,5.2165356,53.774610644672,58.991146244672,5.249344,0,1.90194887976,2.20616476876,28,5,17.074,58.991146244672,5.249344,0,1.90194887976,0,0,-1.11847,279.7, -0.9, -1.9,0,0,1024,1024,1461,1024,0,0,66,0,279.3,0,0,100,4.269,4.295,4.302,4.299,0,0,7.513,78.44,58.991146244672,5.249344,6,P-GPS,
7300,2023-07-06 16:41:20,52.2063937223734,0.0867126284067571,5.905512,5.8727036,53.774610644672,59.647314244672,6.233596,0,1.95919953776,2.26956044008,29,5,17.074,59.647314244672,5.905512,0,1.95919953776,0,0,-3.35541,279.5, -1.3, -2.2,0,0,1024,1024,1024,1024,0,0,0,0,279.3,0,0,100,4.269,4.295,4.302,4.299,0,0,7.513,78.44,59.647314244672,5.905512,6,P-GPS,
7500,2023-07-06 16:41:20,52.2063938321833,0.0867127627625527,7.217848,7.1850396,53.774610644672,60.959650244672,7.217848,0,2.00414376492,2.319635901,29,5,17.074,60.959650244672,7.217848,0,2.00414376492,0,0,-3.131716,279.1, -1.1, -3.7,0,0,1011,1024,1024,1024,-2,0,0,0,279.3,0,0,100,4.269,4.295,4.302,4.299,0,0,7.513,78.44,60.959650244672,7.217848,6,P-GPS,
7700,2023-07-06 16:41:20,52.206393931987,0.0867128403341175,7.545932,7.5131236,53.774610644672,61.287734244672,7.874016,0,2.03639770296,2.35996726712,28,5,17.074,61.287734244672,7.545932,0,2.03639770296,0,0,-1.11847,278.9, 0.1, -4,0,0,1024,1197,1024,1024,0,26,0,0,279.3,0,0,100,4.269,4.295,4.302,4.299,0,0,7.513,78.44,61.287734244672,7.545932,6,P-GPS,
7900,2023-07-06 16:41:21,52.2063940435445,0.0867128945042047,7.874016,7.8412076,53.774610644672,61.615818244672,7.874016,0.223694,2.06641082728,2.40243446008,29,5,17.074,61.615818244672,7.874016,0.223694,2.06641082728,0.223694,0,-0.223694,278.6, 0.4, 7.9,0,0,1024,972,1024,1024,0,-8,0,0,279.3,0,0,100,4.269,4.295,4.302,4.299,0,0,7.513,78.44,61.615818244672,7.874016,6,P-GPS,
8100,2023-07-06 16:41:21,52.2063946026083,0.0867132350208676,7.874016,7.8412076,53.774610644672,61.615818244672,7.874016,0.7158208,2.23594823428,2.62015428332,29,5,16.966,61.615818244672,7.874016,0.7158208,2.23594823428,0.671082,0.223694,0,279.7, 0, -3.6,0,0,1024,540,1024,1024,0,-73,0,0,279.3,0,0,100,4.251,4.252,4.249,4.251,0,0,6.992,78.8,61.615818244672,7.874016,6,P-GPS,
8300,2023-07-06 16:41:21,52.20639512301,0.0867137207063745,7.874016,7.8412076,53.774610644672,61.615818244672,7.874016,0.3131716,2.4316109702,2.83888132444,29,5,16.966,61.615818244672,7.874016,0.7158208,2.4316109702,0.223694,0.223694,0,279.3, -1.3, -12,0,0,1024,1105,1024,1024,0,12,0,0,279.3,0,0,100,4.251,4.252,4.249,4.251,0,0,6.992,78.8,61.615818244672,7.874016,6,P-GPS,
8500,2023-07-06 16:41:21,52.2063952211432,0.0867140423299089,7.874016,7.8412076,53.774610644672,61.615818244672,7.874016,0,2.51110900424,2.91921269184,29,5,16.966,61.615818244672,7.874016,0.7158208,2.51110900424,0,0,0,280.7, -0.6, 2.5,0,0,1024,1024,1444,1024,0,0,64,0,279.3,0,0,100,4.251,4.252,4.249,4.251,0,0,6.992,78.8,61.615818244672,7.874016,6,P-GPS,
8700,2023-07-06 16:41:21,52.2063953197648,0.0867144692950413,7.874016,7.8412076,53.774610644672,61.615818244672,8.2021,0,2.61023958484,3.02123369248,29,5,16.966,61.615818244672,7.874016,0.7158208,2.61023958484,0,0,-0.447388,283.6, -1.4, -1.8,0,0,1024,1024,1288,1024,0,0,40,0,279.3,0,0,100,4.251,4.252,4.249,4.251,0,0,6.992,78.8,61.615818244672,7.874016,6,P-GPS,
8900,2023-07-06 16:41:22,52.206395319799,0.0867148633457297,8.530184,8.4973756,53.774610644672,62.271986244672,8.530184,0,2.68369759244,3.10933736984,29,5,16.966,62.271986244672,8.530184,0.7158208,2.68369759244,0,0,-2.460634,283.8, -1.9, -3.2,0,0,1024,1024,1024,1024,0,0,0,0,279.3,0,0,100,4.251,4.252,4.249,4.251,0,0,6.992,78.8,62.271986244672,8.530184,6,P-GPS,
9100,2023-07-06 16:41:22,52.2063952779071,0.0867151372716287,9.186352,9.1535436,53.774610644672,62.928154244672,9.186352,0,2.72712935236,3.17246401228,29,5,17.126,62.928154244672,9.186352,0.7158208,2.72712935236,0,0,-1.342164,283.6, -2.6, -3.7,0,0,1024,1024,1024,1024,0,0,0,0,279.3,0,0,100,4.271,4.273,4.266,4.238,0,0,7.857,78.8,62.928154244672,9.186352,6,P-GPS,
9300,2023-07-06 16:41:22,52.2063952112485,0.0867153805617222,9.186352,9.1535436,53.774610644672,62.928154244672,9.186352,0,2.76079077076,3.23204734752,29,5,17.126,62.928154244672,9.186352,0.7158208,2.76079077076,0,0,-0.223694,283.5, -1.3, -2.3,0,0,1024,1024,1024,1024,0,0,0,0,279.3,0,0,100,4.271,4.273,4.266,4.238,0,0,7.857,78.8,62.928154244672,9.186352,6,P-GPS,
9500,2023-07-06 16:41:22,52.2063951468087,0.0867155965151434,9.514436,9.4816276,53.774610644672,63.256238244672,9.186352,0,2.79042987932,3.28576126,27,5,17.126,63.256238244672,9.514436,0.7158208,2.79042987932,0,0,0,283.5, -1.3, -2,0,0,1024,1024,1179,1024,0,0,23,0,279.3,0,0,100,4.271,4.273,4.266,4.238,0,0,7.857,78.8,63.256238244672,9.514436,6,P-GPS,
9700,2023-07-06 16:41:22,52.2063951609012,0.0867158323192803,9.514436,9.4816276,53.774610644672,63.256238244672,9.186352,0,2.8387140016,3.3387140176,27,5,17.126,63.256238244672,9.514436,0.7158208,2.8387140016,0,0,0,283.5, -1.1, -2.6,0,0,1024,1024,1024,1024,0,0,0,0,279.3,0,0,100,4.271,4.273,4.266,4.238,0,0,7.857,78.8,63.256238244672,9.514436,6,P-GPS,
9900,2023-07-06 16:41:23,52.2063951936094,0.086716055961359,9.514436,9.4816276,53.774610644672,63.256238244672,9.514436,0,2.88811360948,3.3901247804,27,5,17.126,63.256238244672,9.514436,0.7158208,2.88811360948,0,0,-1.11847,283.7, -1.4, -2.2,0,0,1024,1024,1024,1024,0,0,0,0,279.3,0,0,100,4.271,4.273,4.266,4.238,0,0,7.857,78.8,63.256238244672,9.514436,6,P-GPS,
10100,2023-07-06 16:41:23,52.2063952597454,0.0867162917235578,9.84252,9.8097116,53.774610644672,63.584322244672,9.84252,0,2.94589248272,3.4480972232,28,5,16.797,63.584322244672,9.84252,0.7158208,2.94589248272,0,0,-0.223694,283.6, -2.3, -4,0,0,1024,1024,1054,1024,0,0,5,0,279.3,0,0,100,4.252,4.287,4.288,4.291,0,0,9.477,78.62,63.584322244672,9.84252,6,P-GPS,
10300,2023-07-06 16:41:23,52.2063953039761,0.0867164379408551,9.84252,9.8097116,53.774610644672,63.584322244672,9.84252,0,2.9822999642,3.484580164,29,5,16.797,63.584322244672,9.84252,0.7158208,2.9822999642,0,0,-0.447388,283.6, -0.3, -3.2,0,0,1024,1024,1024,1024,0,0,0,0,279.3,0,0,100,4.252,4.287,4.288,4.291,0,0,9.477,78.62,63.584322244672,9.84252,6,P-GPS,
10500,2023-07-06 16:41:23,52.2063953096559,0.0867166503155556,10.170604,10.1377956,53.774610644672,63.912406244672,10.170604,0,3.02482949312,3.5320867272,29,5,16.797,63.912406244672,10.170604,0.7158208,3.02482949312,0,0,-0.447388,283.6, -1.7, -3.6,0,0,1024,1024,1024,1024,0,0,0,0,279.3,0,0,100,4.252,4.287,4.288,4.291,0,0,9.477,78.62,63.912406244672,10.170604,6,P-GPS,
10700,2023-07-06 16:41:23,52.2063953367357,0.0867168071152415,10.170604,10.1377956,53.774610644672,63.912406244672,10.170604,0,3.06032162024,3.5685040512,29,5,16.797,63.912406244672,10.170604,0.7158208,3.06032162024,0,0,0,283.6, -1.1, -3.5,0,0,1024,1024,1024,1024,0,0,0,0,279.3,0,0,100,4.252,4.287,4.288,4.291,0,0,9.477,78.62,63.912406244672,10.170604,6,P-GPS,
10900,2023-07-06 16:41:24,52.2063953385004,0.0867169617551136,10.170604,10.1377956,53.774610644672,63.912406244672,10.170604,0,3.0910105976,3.6030841048,29,5,16.797,63.912406244672,10.170604,0.7158208,3.0910105976,0,0,0,283.8, -1.1, -3.5,0,0,1024,1024,1024,1024,0,0,0,0,279.3,0,0,100,4.252,4.287,4.288,4.291,0,0,9.477,78.62,63.912406244672,10.170604,6,P-GPS,
11100,2023-07-06 16:41:24,52.2063952957862,0.0867170862624379,10.170604,10.1377956,53.774610644672,63.912406244672,10.170604,0,3.1082186034,3.635006678,29,5,16.964,63.912406244672,10.170604,0.7158208,3.1082186034,0,0,0,283.7, -1.5, -2.9,0,0,1262,1024,1024,1024,36,0,0,0,279.3,0,0,100,4.299,4.308,4.289,4.267,0,0,6.875,78.62,63.912406244672,10.170604,6,P-GPS,
11300,2023-07-06 16:41:24,52.2063952317575,0.0867171383286288,10.170604,10.1377956,53.774610644672,63.912406244672,10.170604,0,3.10770023068,3.661089356,29,5,16.964,63.912406244672,10.170604,0.7158208,3.1082186034,0,0,0,283.6, -2.7, -0.1,0,0,1024,1024,1024,1024,0,0,0,0,279.3,0,0,100,4.299,4.308,4.289,4.267,0,0,6.875,78.62,63.912406244672,10.170604,6,P-GPS,
11500,2023-07-06 16:41:24,52.2063952853346,0.0867170835085006,10.170604,10.1377956,53.774610644672,63.912406244672,10.170604,0.223694,3.10589248784,3.6841864696,29,5,16.964,63.912406244672,10.170604,0.7158208,3.1082186034,0,-0.223694,0,283.6, -0.6, -0.5,0,0,1203,1024,1024,1024,27,0,0,0,279.3,0,0,100,4.299,4.308,4.289,4.267,0,0,6.875,78.62,63.912406244672,10.170604,6,P-GPS,
11700,2023-07-06 16:41:24,52.206395474799,0.0867169107723245,10.170604,10.1377956,53.774610644672,63.912406244672,10.170604,0,3.10499353768,3.7633531388,29,5,16.964,63.912406244672,10.170604,0.7158208,3.1082186034,0,0,0,283.6, 0.3, -1.8,0,0,1495,1024,1024,1024,71,0,0,0,279.3,0,0,100,4.299,4.308,4.289,4.267,0,0,6.875,78.62,63.912406244672,10.170604,6,P-GPS,
11900,2023-07-06 16:41:25,52.2063956612907,0.0867168395613763,10.498688,10.4330712,53.807419044672,64.240490244672,10.170604,0.223694,3.12509524436,3.8332350308,29,5,16.964,64.240490244672,10.498688,0.7158208,3.12509524436,0.223694,0,0,283.6, -5, -1.4,0,0,1507,1010,1024,1024,73,-2,0,0,279.3,0,0,100,4.299,4.308,4.289,4.267,0,0,6.875,78.62,64.240490244672,10.498688,6,P-GPS,
12100,2023-07-06 16:41:25,52.2063959325341,0.0867164831152129,10.498688,10.4330712,53.807419044672,64.240490244672,10.170604,0.4921268,3.1092028554,3.960301964,29,5,17.05,64.240490244672,10.498688,0.7158208,3.12509524436,0.223694,-0.447388,0,283.8, -8.2, -1.7,0,0,1537,1024,1024,1024,78,0,0,0,279.3,0,0,100,4.257,4.261,4.255,4.255,0,0,6.655,78.8,64.240490244672,10.498688,6,P-GPS,
12300,2023-07-06 16:41:25,52.2063963294276,0.0867154747337977,10.498688,10.4330712,53.807419044672,64.240490244672,10.170604,1.2079476,3.008120175,4.2282481668,29,5,17.05,64.240490244672,10.498688,1.2079476,3.12509524436,0.447388,-1.11847,0,283.8, -8.6, -2.3,0,0,1519,1022,1024,1024,75,-0,0,0,279.3,0,0,100,4.257,4.261,4.255,4.255,0,0,6.655,78.8,64.240490244672,10.498688,6,P-GPS,
12500,2023-07-06 16:41:25,52.2063968469765,0.0867137686346697,10.498688,10.4330712,53.807419044672,64.240490244672,10.170604,1.7000744,2.84598762388,4.6539043484,29,5,17.05,64.240490244672,10.498688,1.7000744,3.12509524436,0.671082,-1.565858,0,283.8, -9.6, -2.7,0,0,1516,1017,1024,1024,75,-1,0,0,279.3,0,0,100,4.257,4.261,4.255,4.255,0,0,6.655,78.8,64.240490244672,10.498688,6,P-GPS,
12700,2023-07-06 16:41:25,52.2063975222067,0.0867112987932299,10.498688,10.4330712,53.807419044672,64.240490244672,10.170604,2.125093,2.69156176592,5.2585959688,29,5,17.05,64.240490244672,10.498688,2.125093,3.12509524436,0.671082,-2.013246,0,284, -9.4, -3,0,0,1491,1011,1024,1024,71,-2,0,0,279.3,0,0,100,4.257,4.261,4.255,4.255,0,0,6.655,78.8,64.240490244672,10.498688,6,P-GPS,
12900,2023-07-06 16:41:25,52.2063983655271,0.0867081651969747,10.498688,10.4330712,53.807419044672,64.240490244672,10.170604,2.8185444,2.6808399808,6.023786282,29,5,17.05,64.240490244672,10.498688,2.8185444,3.12509524436,0.894776,-2.684328,0,284.9, -9.2, -3.5,0,0,1486,1024,1024,1024,70,0,0,0,279.3,0,0,100,4.257,4.261,4.255,4.255,0,0,6.655,78.8,64.240490244672,10.498688,6,P-GPS,
13100,2023-07-06 16:41:26,52.2063993363907,0.0867043861379193,10.498688,10.4002628,53.840227444672,64.240490244672,10.170604,3.3330406,2.92853683912,6.9399936604,29,5,16.97,64.240490244672,10.498688,3.3330406,3.12509524436,1.11847,-3.131716,0,285.5, -9.2, -3.8,0,0,1306,1024,1103,1024,43,0,12,0,279.3,0,0,100,4.244,4.251,4.246,4.25,0,0,7.701,78.8,64.240490244672,10.498688,6,P-GPS,
13300,2023-07-06 16:41:26,52.2064003571904,0.0867001003404148,10.498688,10.4002628,53.840227444672,64.240490244672,10.170604,3.7580592,3.462598536,7.9680776828,29,5,16.97,64.240490244672,10.498688,3.7580592,3.462598536,1.11847,-3.579104,0,284.6, -9, -3.4,0,0,1024,1024,1366,1024,0,0,52,0,279.3,0,0,100,4.244,4.251,4.246,4.25,0,0,7.701,78.8,64.240490244672,10.498688,6,P-GPS,
13500,2023-07-06 16:41:26,52.2064015114016,0.0866950226950602,10.498688,10.3674544,53.873035844672,64.240490244672,10.170604,4.250186,4.3149935764,9.1789373016,29,5,16.97,64.240490244672,10.498688,4.250186,4.3149935764,1.342164,-4.026492,-0.223694,284.4, -6.1, -3.2,0,0,1024,1024,1380,1024,0,0,54,0,279.3,0,0,100,4.244,4.251,4.246,4.25,0,0,7.701,78.8,64.240490244672,10.498688,6,P-GPS,
13700,2023-07-06 16:41:26,52.2064025878601,0.0866903020899926,10.826772,10.6955384,53.873035844672,64.568574244672,10.498688,3.0422384,5.236712766,10.30511844,29,5,16.97,64.568574244672,10.826772,4.250186,5.236712766,0.894776,-2.908022,-2.23694,284.3, 25.7, -5.3,0,0,1024,1024,1245,1024,0,0,33,0,279.3,0,0,100,4.244,4.251,4.246,4.25,0,0,7.701,78.8,64.568574244672,10.826772,6,P-GPS,
13900,2023-07-06 16:41:27,52.2064031293705,0.0866882918765003,11.811024,11.6797904,53.873035844672,65.552826244672,11.154856,0.7158208,5.6747377144,10.7960633376,29,5,16.97,65.552826244672,11.811024,4.250186,5.6747377144,0.223694,-0.671082,-2.908022,285, 11, -5.2,0,0,1024,1024,1291,1024,0,0,40,0,279.3,0,0,100,4.244,4.251,4.246,4.25,0,0,7.701,78.8,65.552826244672,11.811024,6,P-GPS,
14100,2023-07-06 16:41:27,52.2064034261518,0.0866878682943773,12.139108,12.0078744,53.873035844672,65.880910244672,10.826772,0.3131716,5.81856974,10.9399281716,29,5,17.011,65.880910244672,12.139108,4.250186,5.81856974,0.223694,-0.223694,-1.11847,285.9, 3.3, -7,0,0,1024,1024,1396,1024,0,0,56,0,279.3,0,0,100,4.251,4.256,4.251,4.256,0,0,7.112,78.98,65.880910244672,12.139108,6,P-GPS,
14300,2023-07-06 16:41:27,52.2064036402886,0.0866879797449631,12.467192,12.3359584,53.873035844672,66.208994244672,10.826772,0,5.8621392952,11.0219491716,29,5,17.011,66.208994244672,12.467192,4.250186,5.8621392952,0,0,-0.894776,284.9, 2.2, -5.2,0,0,1024,1024,1378,1024,0,0,54,0,279.3,0,0,100,4.251,4.256,4.251,4.256,0,0,7.112,78.98,66.208994244672,12.467192,6,P-GPS,
14500,2023-07-06 16:41:27,52.2064035602572,0.0866884336134072,13.12336,12.9921264,53.873035844672,66.865162244672,11.48294,0,5.774934568,11.1275266028,29,5,17.011,66.865162244672,13.12336,4.250186,5.8621392952,0,0,-2.908022,285.2, -2.1, -3.4,0,0,1024,1024,1261,1024,0,0,36,0,279.3,0,0,100,4.251,4.256,4.251,4.256,0,0,7.112,78.98,66.865162244672,13.12336,6,P-GPS,
14700,2023-07-06 16:41:27,52.2064034849203,0.0866888948839315,14.107612,13.9763784,53.873035844672,67.849414244672,12.795276,0,5.6886812844,11.234252328,29,5,17.011,67.849414244672,14.107612,4.250186,5.8621392952,0,0,-3.579104,285.3, -3, -5,0,0,1024,1024,1305,1024,0,0,43,0,279.3,0,0,100,4.251,4.256,4.251,4.256,0,0,7.112,78.98,67.849414244672,14.107612,6,P-GPS,
14900,2023-07-06 16:41:28,52.2064034608903,0.0866891475891357,15.091864,14.9606304,53.873035844672,68.833666244672,14.107612,0,5.646653724,11.2914373692,29,5,17.011,68.833666244672,15.091864,4.250186,5.8621392952,0,0,-2.460634,285.1, -3, -5.7,0,0,1024,1024,1517,1024,0,0,75,0,279.3,0,0,100,4.251,4.256,4.251,4.256,0,0,7.112,78.98,68.833666244672,15.091864,6,P-GPS,
15100,2023-07-06 16:41:28,52.2064033482791,0.0866892984126378,16.076116,15.9448824,53.873035844672,69.817918244672,15.091864,0,5.593504116,11.3445869772,28,5,16.816,69.817918244672,16.076116,4.250186,5.8621392952,0,0,-3.35541,284.7, -0.6, -3.7,0,0,1024,1024,1440,1024,0,0,63,0,279.3,0,0,100,4.281,4.282,4.273,4.263,0,0,8.826,78.8,69.817918244672,16.076116,6,P-GPS,
15300,2023-07-06 16:41:28,52.2064032141994,0.0866894786767086,17.388452,17.2572184,53.873035844672,71.130254244672,16.4042,0,5.5301510956,11.407972806,28,5,16.816,71.130254244672,17.388452,4.250186,5.8621392952,0,0,-5.368656,285.6, -2.2, -2.3,0,0,1024,1024,1174,1024,0,0,23,0,279.3,0,0,100,4.281,4.282,4.273,4.263,0,0,8.826,78.8,71.130254244672,17.388452,6,P-GPS,
15500,2023-07-06 16:41:28,52.2064030982728,0.0866896444861032,18.700788,18.5695544,53.873035844672,72.442590244672,18.04462,0,5.4739831148,11.464239212,29,5,16.816,72.442590244672,18.700788,4.250186,5.8621392952,0,0,-4.026492,285.3, -3.7, -4.3,0,0,1024,1024,1024,1024,0,0,0,0,279.3,0,0,100,4.281,4.282,4.273,4.263,0,0,8.826,78.8,72.442590244672,18.700788,6,P-GPS,
15700,2023-07-06 16:41:28,52.2064029977923,0.0866897388189415,19.68504,19.5538064,53.873035844672,73.426842244672,19.028872,0,5.4321195964,11.5065292396,28,5,16.816,73.426842244672,19.68504,4.250186,5.8621392952,0,0,-1.565858,285.1, -2.7, -3.4,0,0,1024,1024,1132,1024,0,0,16,0,279.3,0,0,100,4.281,4.282,4.273,4.263,0,0,8.826,78.8,73.426842244672,19.68504,6,P-GPS,
15900,2023-07-06 16:41:29,52.2064029156619,0.0866898113928789,20.013124,19.8818904,53.873035844672,73.754926244672,19.356956,0,5.3985566032,11.5405843588,29,5,16.816,73.754926244672,20.013124,4.250186,5.8621392952,0,0,-0.447388,285.3, -2.1, -0.9,0,0,1024,1024,1322,1024,0,0,45,0,279.3,0,0,100,4.281,4.282,4.273,4.263,0,0,8.826,78.8,73.754926244672,20.013124,6,P-GPS,
16100,2023-07-06 16:41:29,52.2064029177522,0.0866899271211542,20.013124,19.8818904,53.873035844672,73.754926244672,19.68504,0,5.3831366552,11.5664701864,29,5,17.02,73.754926244672,20.013124,4.250186,5.8621392952,0,0,-1.11847,285.5, -1.9, -0.3,0,0,1024,1024,1195,1024,0,0,26,0,279.3,0,0,100,4.224,4.212,4.192,4.199,0,0,7.394,79.16,73.754926244672,20.013124,6,P-GPS,
16300,2023-07-06 16:41:29,52.2064030979216,0.08669007180072,20.669292,20.5380584,53.873035844672,74.411094244672,20.013124,0,5.4152560788,11.6397313436,29,5,17.02,74.411094244672,20.669292,4.250186,5.8621392952,0,0,-1.565858,285.4, -2.6, -3,0,0,1039,1024,1352,1024,2,0,50,0,279.3,0,0,100,4.224,4.212,4.192,4.199,0,0,7.394,79.16,74.411094244672,20.669292,6,P-GPS,
16500,2023-07-06 16:41:29,52.2064032662516,0.0866901739620096,20.997376,20.8661424,53.873035844672,74.739178244672,20.669292,0,5.4504266836,11.7052825268,29,5,17.02,74.739178244672,20.997376,4.250186,5.8621392952,0,0,-0.894776,285.4, -2, -3.8,0,0,1039,1024,1419,1024,2,0,60,0,279.3,0,0,100,4.224,4.212,4.192,4.199,0,0,7.394,79.16,74.739178244672,20.997376,6,P-GPS,
16700,2023-07-06 16:41:29,52.2064033768838,0.0866902778217935,21.32546,21.1942264,53.873035844672,75.067262244672,20.997376,0,5.4689306212,11.7518376464,29,5,17.02,75.067262244672,21.32546,4.250186,5.8621392952,0,0,-2.013246,285.5, -1.4, -2,0,0,1046,1024,1478,1024,3,0,69,0,279.3,0,0,100,4.224,4.212,4.192,4.199,0,0,7.394,79.16,75.067262244672,21.32546,6,P-GPS,
16900,2023-07-06 16:41:30,52.2064034333822,0.0866904734561897,22.309712,22.1784784,53.873035844672,76.051514244672,21.981628,0,5.4597770776,11.800197228,29,5,17.02,76.051514244672,22.309712,4.250186,5.8621392952,0,0,-4.47388,285.4, 0.1, -0.4,0,0,1123,1024,1148,1024,15,0,19,0,279.3,0,0,100,4.224,4.212,4.192,4.199,0,0,7.394,79.16,76.051514244672,22.309712,6,P-GPS,
17100,2023-07-06 16:41:30,52.206403523771,0.0866909360827137,23.622048,23.4908144,53.873035844672,77.363850244672,23.293964,0.223694,5.4268046356,11.9087602236,29,5,17.07,77.363850244672,23.622048,4.250186,5.8621392952,0,0.223694,-4.250186,285.2, -2.2, -2.5,0,0,1247,1024,1041,1024,34,0,3,0,279.3,0,0,100,4.238,4.222,4.208,4.21,0,0,7.345,79.16,77.363850244672,23.622048,6,P-GPS,
17300,2023-07-06 16:41:30,52.2064036558717,0.0866914942512921,24.6063,24.4750664,53.873035844672,78.348102244672,24.278216,0.223694,5.396653716,12.0425528788,29,5,17.07,78.348102244672,24.6063,4.250186,5.8621392952,0,0.223694,-2.013246,285.3, -3.6, -3.1,0,0,1533,1024,1024,1024,77,0,0,0,279.3,0,0,100,4.238,4.222,4.208,4.21,0,0,7.345,79.16,78.348102244672,24.6063,6,P-GPS,
17500,2023-07-06 16:41:30,52.2064037718411,0.0866919920569191,24.934384,24.8031504,53.873035844672,78.676186244672,24.6063,0,5.371883374,12.1616145624,29,5,17.07,78.676186244672,24.934384,4.250186,5.8621392952,0,0,-0.447388,285.3, -11, -2,0,0,1256,1024,1024,1024,35,0,0,0,279.3,0,0,100,4.238,4.222,4.208,4.21,0,0,7.345,79.16,78.676186244672,24.934384,6,P-GPS,
17700,2023-07-06 16:41:30,52.2064039500316,0.0866919385438626,24.934384,24.8031504,53.873035844672,78.676186244672,24.934384,0.4921268,5.4333006988,12.2277234884,28,5,17.07,78.676186244672,24.934384,4.250186,5.8621392952,0.223694,-0.447388,0,285.6, -15.9, -1.8,0,0,1026,1024,1228,1024,0,0,31,0,279.3,0,0,100,4.238,4.222,4.208,4.21,0,0,7.345,79.16,78.676186244672,24.934384,6,P-GPS,
17900,2023-07-06 16:41:31,52.2064043455457,0.0866907803804089,24.934384,24.8031504,53.873035844672,78.676186244672,25.262468,1.4092722,5.6945867964,12.5241473824,28,5,17.07,78.676186244672,24.934384,4.250186,5.8621392952,0.447388,-1.342164,0,285.4, -8.5, -2.2,0,0,1081,1024,1561,1024,9,0,81,0,279.3,0,0,100,4.238,4.222,4.208,4.21,0,0,7.345,79.16,78.676186244672,24.934384,6,P-GPS,
18100,2023-07-06 16:41:31,52.2064048030325,0.0866893541134668,24.934384,24.770342,53.905844244672,78.676186244672,25.590552,0.7158208,6.011975258,12.8840883388,28,5,16.96,78.676186244672,24.934384,4.250186,6.011975258,0.223694,-0.671082,-1.565858,284.3, 8.4, -1.2,0,0,1136,1024,1629,1024,17,0,92,0,279.3,0,0,100,4.225,4.263,4.263,4.266,0,0,8.22,78.98,78.676186244672,24.934384,6,P-GPS,
18300,2023-07-06 16:41:31,52.2064050640985,0.0866891845995372,25.918636,25.754594,53.905844244672,79.660438244672,26.574804,0.223694,6.1117784108,12.9866145888,29,5,16.96,79.660438244672,25.918636,4.250186,6.1117784108,0.223694,0,-3.802798,285.7, 0.4, -1.6,0,0,1183,1024,1605,1024,24,0,88,0,279.3,0,0,100,4.225,4.263,4.263,4.266,0,0,8.22,78.98,79.660438244672,25.918636,6,P-GPS,
18500,2023-07-06 16:41:31,52.2064053093588,0.0866895633847456,27.559056,27.395014,53.905844244672,81.300858244672,27.88714,0.223694,6.1380251308,13.1098101308,29,5,16.96,81.300858244672,27.559056,4.250186,6.1380251308,0.223694,0,-6.039738,285.6, -2.3, -3.1,0,0,1565,995,1024,1024,82,-4,0,0,279.3,0,0,100,4.225,4.263,4.263,4.266,0,0,8.22,78.98,81.300858244672,27.559056,6,P-GPS,
18700,2023-07-06 16:41:31,52.2064054969984,0.0866899207535479,29.199476,29.035434,53.905844244672,82.941278244672,29.52756,0,6.1515421916,13.2150266696,29,5,16.96,82.941278244672,29.199476,4.250186,6.1515421916,0,0,-5.816044,285.5, -9.6, -3.3,0,0,1599,973,1024,1024,87,-8,0,0,279.3,0,0,100,4.225,4.263,4.263,4.266,0,0,8.22,78.98,82.941278244672,29.199476,6,P-GPS,
18900,2023-07-06 16:41:31,52.2064056790268,0.0866899357394404,30.839896,30.675854,53.905844244672,84.581698244672,31.16798,0.4921268,6.20570886,13.2815292964,28,5,16.96,84.581698244672,30.839896,4.250186,6.20570886,0.223694,-0.447388,-3.579104,285.4, -21.9, -2.5,0,0,1684,979,1024,1024,100,-7,0,0,279.3,0,0,100,4.225,4.263,4.263,4.266,0,0,8.22,78.98,84.581698244672,30.839896,6,P-GPS,
19100,2023-07-06 16:41:32,52.2064060662996,0.0866890297639538,31.496064,31.332022,53.905844244672,85.237866244672,31.824148,1.2079476,6.434219366,13.5285109316,29,5,17.015,85.237866244672,31.496064,4.250186,6.434219366,0.447388,-1.11847,-1.342164,285.6, -29.3, -2.1,0,0,1684,968,1024,1024,100,-8,0,0,279.3,0,0,100,4.207,4.178,4.166,4.179,0,0,7.218,79.52,85.237866244672,31.496064,6,P-GPS,
19300,2023-07-06 16:41:32,52.2064067170458,0.0866865598875656,31.824148,31.6272976,53.938652644672,85.565950244672,32.152232,2.8185444,6.9433401172,14.1296264364,29,5,17.015,85.565950244672,31.824148,4.250186,6.9433401172,0.894776,-2.684328,-0.223694,285.8, -28.5, -1.9,0,0,1593,996,1024,1024,86,-4,0,0,279.3,0,0,100,4.207,4.178,4.166,4.179,0,0,7.218,79.52,85.565950244672,31.824148,6,P-GPS,
19500,2023-07-06 16:41:32,52.2064078399024,0.0866816130682139,31.824148,31.6272976,53.938652644672,85.565950244672,32.480316,4.6752046,7.951443824,15.3090884164,29,5,17.015,85.565950244672,31.824148,4.6752046,7.951443824,1.342164,-4.47388,0,286.2, -28.6, -2.7,0,0,1644,1012,1024,1024,94,-2,0,0,279.3,0,0,100,4.207,4.178,4.166,4.179,0,0,7.218,79.52,85.565950244672,31.824148,6,P-GPS,
19700,2023-07-06 16:41:32,52.2064092822081,0.086674312306945,31.824148,31.6272976,53.938652644672,85.565950244672,26.902888,6.5094954,9.4570541084,17.0241803348,29,5,17.015,85.565950244672,31.824148,6.5094954,9.4570541084,1.789552,-6.263432,0,285.8, -20.2, -3.7,0,0,1637,1012,1024,1024,93,-2,0,0,279.3,0,0,100,4.207,4.178,4.166,4.179,0,0,7.218,79.52,85.565950244672,31.824148,6,P-GPS,
19900,2023-07-06 16:41:32,52.2064109460096,0.0866654757503127,31.496064,31.2664052,53.971461044672,85.237866244672,27.230972,7.6503348,11.3401906516,19.091043918,29,5,17.015,85.565950244672,31.824148,7.6503348,11.3401906516,2.013246,-7.381902,0,285.2, -12.9, -3.3,0,0,1563,1024,1024,1024,82,0,0,0,279.3,0,0,100,4.207,4.178,4.166,4.179,0,0,7.218,79.52,85.237866244672,31.496064,6,P-GPS,
20100,2023-07-06 16:41:33,52.2064127930217,0.0866552743695965,31.496064,31.2335968,54.004269444672,85.237866244672,32.480316,8.0753534,13.5652563396,21.4694232592,29,5,16.698,85.565950244672,31.824148,8.0753534,13.5652563396,2.013246,-7.82929,0,285.1, -4.2, -2.3,0,0,1319,1024,1120,1024,45,0,15,0,279.3,0,0,100,4.268,4.274,4.272,4.268,0,0,10.912,79.52,85.237866244672,31.496064,6,P-GPS,
20300,2023-07-06 16:41:33,52.2064146238339,0.0866452814580924,31.496064,31.2335968,54.004269444672,85.237866244672,32.480316,7.8740288,15.7924545736,23.8014115228,28,5,16.698,85.565950244672,31.824148,8.0753534,15.7924545736,2.013246,-7.605596,0,285, -2, -2.2,0,0,1209,1024,1324,1024,28,0,45,0,279.3,0,0,100,4.268,4.274,4.272,4.268,0,0,10.912,79.52,85.237866244672,31.496064,6,P-GPS,
20500,2023-07-06 16:41:33,52.2064163933589,0.0866357781323414,31.496064,31.2007884,54.037077844672,85.237866244672,31.824148,7.6503348,17.9405845636,26.022146502,28,5,16.698,85.565950244672,31.824148,8.0753534,17.9405845636,2.013246,-7.381902,-0.671082,285.2, -1, -2.5,0,0,1217,1024,1389,1024,29,0,55,0,279.3,0,0,100,4.268,4.274,4.272,4.268,0,0,10.912,79.52,85.237866244672,31.496064,6,P-GPS,
20700,2023-07-06 16:41:33,52.2064181949838,0.0866261901614606,31.824148,31.5288724,54.037077844672,85.565950244672,31.496064,7.2253162,20.1267066808,28.2644037916,29,5,16.698,85.565950244672,31.824148,8.0753534,20.1267066808,2.013246,-6.934514,-2.23694,285.1, -0.3, -2.6,0,0,1243,1024,1437,1024,33,0,63,0,279.3,0,0,100,4.268,4.274,4.272,4.268,0,0,10.912,79.52,85.565950244672,31.824148,6,P-GPS,
20900,2023-07-06 16:41:34,52.2064198393214,0.0866173368442101,32.8084,32.480316,54.069886244672,86.550202244672,32.152232,6.934514,22.1520020212,30.3327765612,29,5,16.698,86.550202244672,32.8084,8.0753534,22.1520020212,1.789552,-6.71082,-3.802798,285.4, -1.5, -2.2,0,0,1250,1024,1490,1024,34,0,71,0,279.3,0,0,100,4.268,4.274,4.272,4.268,0,0,10.912,79.52,86.550202244672,32.8084,6,P-GPS,
21100,2023-07-06 16:41:34,52.2064214426067,0.0866088218947301,34.120736,33.7598436,54.102694644672,87.862538244672,33.464568,6.7331894,24.110401034,32.3244432916,29,5,16.934,87.862538244672,34.120736,8.0753534,24.110401034,1.789552,-6.487126,-5.144962,285.5, -1.8, -2.6,0,0,1267,1024,1511,1024,37,0,74,0,279.3,0,0,100,4.245,4.253,4.221,4.242,0,0,6.204,79.52,87.862538244672,34.120736,6,P-GPS,
21300,2023-07-06 16:41:34,52.2064229206448,0.0866008409476352,35.761156,35.4002636,54.102694644672,89.502958244672,35.104988,6.4647566,25.9465887568,34.188649388,29,5,16.934,89.502958244672,35.761156,8.0753534,25.9465887568,1.565858,-6.263432,-6.934514,285.3, -2, -2.9,0,0,1315,1024,1450,1024,44,0,65,0,279.3,0,0,100,4.245,4.253,4.221,4.242,0,0,6.204,79.52,89.502958244672,35.761156,6,P-GPS,
21500,2023-07-06 16:41:34,52.2064244330787,0.0865928104558796,38.057744,37.6640432,54.135503044672,91.799546244672,36.745408,6.2410626,27.8019365852,36.066930288,29,5,16.934,91.799546244672,38.057744,8.0753534,27.8019365852,1.565858,-6.039738,-7.158208,285.5, -5.4, -3,0,0,1360,1024,1367,1024,51,0,52,0,279.3,0,0,100,4.245,4.253,4.221,4.242,0,0,6.204,79.52,91.799546244672,38.057744,6,P-GPS,
21700,2023-07-06 16:41:34,52.206425891036,0.0865853334164099,40.026248,39.6325472,54.135503044672,93.768050244672,38.713912,6.3081708,29.5397647248,37.821195436,29,5,16.934,93.768050244672,40.026248,8.0753534,29.5397647248,1.789552,-6.039738,-5.59235,285.3, -8, -4.1,0,0,1358,1024,1293,1024,51,0,41,0,279.3,0,0,100,4.245,4.253,4.221,4.242,0,0,6.204,79.52,93.768050244672,40.026248,6,P-GPS,
21900,2023-07-06 16:41:35,52.2064274924023,0.0865774219695369,41.338584,40.9120748,54.168311444672,95.080386244672,40.026248,6.3081708,31.3895679336,39.684056388,29,5,16.934,95.080386244672,41.338584,8.0753534,31.3895679336,1.789552,-6.039738,-3.579104,285.4, -9.8, -4.6,0,0,1367,1024,1644,1024,52,0,94,0,279.3,0,0,100,4.245,4.253,4.221,4.242,0,0,6.204,79.52,95.080386244672,41.338584,6,P-GPS,
22100,2023-07-06 16:41:35,52.2064290938286,0.0865694184859383,42.65092,42.2244108,54.168311444672,96.392722244672,41.338584,6.7331894,33.2595155,41.56660238,29,5,16.853,96.392722244672,42.65092,8.0753534,33.2595155,1.789552,-6.487126,-4.026492,285.5, -7.8, -3.5,0,0,1322,1024,1627,1024,45,0,91,0,279.3,0,0,99,4.203,4.207,4.203,4.203,0,0,7.565,79.52,96.392722244672,42.65092,6,P-GPS,
22300,2023-07-06 16:41:35,52.2064307137165,0.086560845660744,44.619424,44.1601064,54.201119844672,98.361226244672,43.307088,7.0016222,35.250001128,43.572507956,29,5,16.853,98.361226244672,44.619424,8.0753534,35.250001128,2.013246,-6.71082,-6.263432,285.5, -6.3, -3.6,0,0,1265,1024,1684,1024,37,0,100,0,279.3,0,0,99,4.203,4.207,4.203,4.203,0,0,7.565,79.52,98.361226244672,44.619424,6,P-GPS,
22500,2023-07-06 16:41:35,52.2064324108602,0.0865518977129382,47.900264,47.408138,54.233928244672,101.64206624467,45.93176,7.2253162,37.330053688,45.666668128,28,5,16.853,101.64206624467,47.900264,8.0753534,37.330053688,2.013246,-6.934514,-8.500372,285.4, -3.7, -4.4,0,0,1215,1024,1651,1024,29,0,95,0,279.3,0,0,99,4.203,4.207,4.203,4.203,0,0,7.565,79.52,101.64206624467,47.900264,6,P-GPS,
22700,2023-07-06 16:41:35,52.206434071749,0.0865428472054305,51.509188,51.017062,54.233928244672,105.25099024467,48.884516,7.158208,39.4274947,47.779201004,28,5,16.853,105.25099024467,51.509188,8.0753534,39.4274947,1.789552,-6.934514,-10.737312,285.4, -1.8, -4.3,0,0,1186,1024,1625,1024,25,0,91,0,279.3,0,0,99,4.203,4.207,4.203,4.203,0,0,7.565,79.52,105.25099024467,51.509188,6,P-GPS,
22900,2023-07-06 16:41:36,52.2064356691917,0.086534135704813,55.118112,54.5931776,54.266736644672,108.85991424467,51.837272,6.7331894,41.447507888,49.812337552,29,5,16.853,108.85991424467,55.118112,8.0753534,41.447507888,1.789552,-6.487126,-10.737312,285.2, -2.4, -4.6,0,0,1190,1024,1677,1024,25,0,99,0,279.3,0,0,99,4.203,4.207,4.203,4.203,0,0,7.565,79.52,108.85991424467,55.118112,6,P-GPS,
23100,2023-07-06 16:41:36,52.2064372230805,0.0865257364964956,58.727036,58.2021016,54.266736644672,112.46883824467,55.118112,6.4647566,43.398295352,51.773951788,28,5,16.976,112.46883824467,58.727036,8.0753534,43.398295352,1.565858,-6.263432,-12.079476,285.2, -0.1, -3.5,0,0,1175,1024,1488,1024,23,0,70,0,279.3,0,0,99,4.186,4.178,4.18,4.183,0,0,8.694,79.7,112.46883824467,58.727036,6,P-GPS,
23300,2023-07-06 16:41:36,52.206438685287,0.0865180539549368,62.33596,61.7782172,54.299545044672,116.07776224467,58.398952,6.0173686,45.188977824,53.572508276,28,5,16.976,116.07776224467,62.33596,8.0753534,45.188977824,1.565858,-5.816044,-11.632088,284.9, -3, -2.7,0,0,1173,1024,1279,1024,23,0,39,0,279.3,0,0,99,4.186,4.178,4.18,4.183,0,0,8.694,79.7,116.07776224467,62.33596,6,P-GPS,
23500,2023-07-06 16:41:36,52.2064401773918,0.0865105513000056,64.960632,64.4028892,54.299545044672,118.70243424467,61.351708,5.816044,46.947508064,55.33628786,28,5,16.976,118.70243424467,64.960632,8.0753534,46.947508064,1.565858,-5.59235,-9.842536,285.2, -2.4, -4.3,0,0,1215,1024,1487,1024,29,0,70,0,279.3,0,0,99,4.186,4.178,4.18,4.183,0,0,8.694,79.7,118.70243424467,64.960632,6,P-GPS,
23700,2023-07-06 16:41:36,52.2064417345703,0.0865031843988077,66.929136,66.3385848,54.332353444672,120.67093824467,63.648296,5.59235,48.687009432,57.0784139,28,5,16.976,120.67093824467,66.929136,8.0753534,48.687009432,1.565858,-5.368656,-7.605596,285.3, -1.2, -4.6,0,0,1252,1024,1684,1024,35,0,100,0,279.3,0,0,99,4.186,4.178,4.18,4.183,0,0,8.694,79.7,120.67093824467,66.929136,6,P-GPS,
23900,2023-07-06 16:41:37,52.2064431244726,0.0864964178000315,68.569556,67.9790048,54.332353444672,122.31135824467,65.944884,5.3239172,50.279529168,58.674214476,28,5,16.976,122.31135824467,68.569556,8.0753534,50.279529168,1.342164,-5.144962,-8.500372,285.4, -1, -2.9,0,0,1174,1024,984,1024,23,0,-6,0,279.3,0,0,99,4.186,4.178,4.18,4.183,0,0,8.694,79.7,122.31135824467,68.569556,6,P-GPS,
24100,2023-07-06 16:41:37,52.2064444498495,0.0864898152422587,70.866144,70.2427844,54.365161844672,124.60794624467,68.569556,5.1002232,51.829397984,60.227692216,29,5,16.561,124.60794624467,70.866144,8.0753534,51.829397984,1.342164,-4.921268,-8.500372,285.1, -4.1, -4.2,0,0,1197,1024,1024,1024,26,0,0,0,279.3,0,0,99,4.109,4.128,4.131,4.144,0,0,12.444,79.52,124.60794624467,70.866144,6,P-GPS,
24300,2023-07-06 16:41:37,52.206445814925,0.0864832297113675,72.834648,72.17848,54.397970244672,126.57645024467,70.866144,5.1002232,53.381235304,61.781826124,29,5,16.561,126.57645024467,72.834648,8.0753534,53.381235304,1.342164,-4.921268,-6.487126,285, -3.4, -5,0,0,1195,1024,1024,1024,26,0,0,0,279.3,0,0,99,4.109,4.128,4.131,4.144,0,0,12.444,79.52,126.57645024467,72.834648,6,P-GPS,
24500,2023-07-06 16:41:37,52.2064471761113,0.0864769315545363,73.8189,73.162732,54.397970244672,127.56070224467,72.506564,4.8765292,54.873033252,63.275264492,29,5,16.561,127.56070224467,73.8189,8.0753534,54.873033252,1.342164,-4.697574,-4.026492,284.8, -1.6, -7.1,0,0,1156,1024,1024,1024,20,0,0,0,279.3,0,0,99,4.109,4.128,4.131,4.144,0,0,12.444,79.52,127.56070224467,73.8189,6,P-GPS,
24700,2023-07-06 16:41:37,52.2064484324564,0.0864707786154769,73.8189,73.162732,54.397970244672,127.56070224467,73.162732,4.6752046,56.320867944,64.725067688,29,5,16.561,127.56070224467,73.8189,8.0753534,56.320867944,1.342164,-4.47388,-1.565858,284.3, -0.9, -7.3,0,0,1047,1024,1024,1024,3,0,0,0,279.3,0,0,99,4.109,4.128,4.131,4.144,0,0,12.444,79.52,127.56070224467,73.8189,6,P-GPS,
24900,2023-07-06 16:41:38,52.2064494988232,0.0864647882006584,74.146984,73.4580076,54.430778644672,127.88878624467,73.162732,4.6752046,57.709319432,66.120080856,29,5,16.561,127.88878624467,74.146984,8.0753534,57.709319432,1.342164,-4.47388,-0.447388,284.5, 1.4, -7.3,0,0,1024,1024,1024,1024,0,0,0,0,279.3,0,0,99,4.109,4.128,4.131,4.144,0,0,12.444,79.52,127.88878624467,74.146984,6,P-GPS,
25100,2023-07-06 16:41:38,52.2064503184134,0.0864593998496631,73.8189,73.1299236,54.430778644672,127.56070224467,72.834648,3.690951,58.939634432,67.361222628,29,5,17.028,127.88878624467,74.146984,8.0753534,58.939634432,0.894776,-3.579104,0,285.1, 24, -5.5,0,0,1024,1024,1024,1024,0,0,0,0,279.3,0,0,99,4.214,4.258,4.252,4.255,0,0,8.483,79.88,127.56070224467,73.8189,6,P-GPS,
25300,2023-07-06 16:41:38,52.2064506425657,0.0864560538018208,74.146984,73.4580076,54.430778644672,127.88878624467,72.506564,1.6329662,59.679463852,68.118768584,29,5,17.028,127.88878624467,74.146984,8.0753534,59.679463852,0.447388,-1.565858,0,284, 18.2, -7.3,0,0,1024,1024,1024,1024,0,0,0,0,279.3,0,0,99,4.214,4.258,4.252,4.255,0,0,8.483,79.88,127.88878624467,74.146984,6,P-GPS,
25500,2023-07-06 16:41:38,52.2064503667475,0.0864546428213278,74.146984,73.4580076,54.430778644672,127.88878624467,64.632548,0.447388,59.937337876,68.44980534,29,5,17.028,127.88878624467,74.146984,8.0753534,59.937337876,0,-0.447388,0,287.3, 8.5, -7.3,0,0,1154,1024,1024,1024,20,0,0,0,279.3,0,0,99,4.214,4.258,4.252,4.255,0,0,8.483,79.88,127.88878624467,74.146984,6,P-GPS,
25700,2023-07-06 16:41:38,52.2064496548769,0.0864541186785539,74.146984,73.4580076,54.430778644672,127.88878624467,64.960632,0.223694,59.95407016,68.734910336,29,5,17.028,127.88878624467,74.146984,8.0753534,59.95407016,-0.223694,0,0,285.9, 1.7, -3.8,0,0,1283,1024,1024,1024,39,0,0,0,279.3,0,0,99,4.214,4.258,4.252,4.255,0,0,8.483,79.88,127.88878624467,74.146984,6,P-GPS,
25900,2023-07-06 16:41:39,52.2064487787798,0.0864538709360287,74.475068,73.7860916,54.430778644672,128.21687024467,73.490816,0.223694,59.893046536,69.059057328,29,5,17.028,128.21687024467,74.475068,8.0753534,59.95407016,-0.223694,0,0,285.2, -1.8, 0.8,0,0,1348,1024,1024,1024,49,0,0,0,279.3,0,0,99,4.214,4.258,4.252,4.255,0,0,8.483,79.88,128.21687024467,74.475068,6,P-GPS,
26100,2023-07-06 16:41:39,52.2064481511383,0.0864535962272846,74.475068,73.8189,54.397970244672,128.21687024467,73.8189,0,59.871064908,69.29626206,29,5,17.102,128.21687024467,74.475068,8.0753534,59.95407016,0,0,0,285.7, -6.4, -0.8,0,0,1429,1024,1024,1024,61,0,0,0,279.3,0,0,99,4.27,4.272,4.251,4.251,0,0,6.122,80.06,128.21687024467,74.475068,6,P-GPS,
26300,2023-07-06 16:41:39,52.2064477768528,0.0864529367221999,74.475068,73.8189,54.397970244672,128.21687024467,73.8189,0.447388,59.96227226,69.497377552,29,5,17.102,128.21687024467,74.475068,8.0753534,59.96227226,0,-0.447388,0,285.5, -6.7, -1.3,0,0,1668,1006,1024,1024,98,-3,0,0,279.3,0,0,99,4.27,4.272,4.251,4.251,0,0,6.122,80.06,128.21687024467,74.475068,6,P-GPS,
26500,2023-07-06 16:41:39,52.2064476354484,0.0864517049713038,74.475068,73.8189,54.397970244672,128.21687024467,73.490816,1.1408394,60.203414,69.777561288,29,5,17.102,128.21687024467,74.475068,8.0753534,60.203414,0.223694,-1.11847,0,285.5, -20.4, -2.1,0,0,1627,1024,1024,1024,91,0,0,0,279.3,0,0,99,4.27,4.272,4.251,4.251,0,0,6.122,80.06,128.21687024467,74.475068,6,P-GPS,
26700,2023-07-06 16:41:39,52.206447880683,0.0864489427441973,74.475068,73.8189,54.397970244672,128.21687024467,72.834648,2.8185444,60.814634492,70.401577056,29,5,17.102,128.21687024467,74.475068,8.0753534,60.814634492,0.894776,-2.684328,0,285.9, -26.9, -2.4,0,0,1469,1024,1024,1024,67,0,0,0,279.3,0,0,99,4.27,4.272,4.251,4.251,0,0,6.122,80.06,128.21687024467,74.475068,6,P-GPS,
26900,2023-07-06 16:41:39,52.2064486147761,0.0864438521539393,74.475068,73.7860916,54.430778644672,128.21687024467,61.679792,4.6752046,61.976379936,71.570868432,28,5,17.102,128.21687024467,74.475068,8.0753534,61.976379936,1.342164,-4.47388,0,285.9, -23, -3.1,0,0,1251,1024,1024,1024,34,0,0,0,279.3,0,0,99,4.27,4.272,4.251,4.251,0,0,6.122,80.06,128.21687024467,74.475068,6,P-GPS,
27100,2023-07-06 16:41:40,52.2064497289801,0.0864368859785826,74.475068,73.7860916,54.430778644672,128.21687024467,62.007876,5.816044,63.579726444,73.180448536,28,5,16.952,128.21687024467,74.475068,8.0753534,63.579726444,1.565858,-5.59235,0,285.4, -11.1, -3.7,0,0,1586,1024,1024,1024,85,0,0,0,279.3,0,0,99,4.232,4.242,4.239,4.236,0,0,6.612,80.06,128.21687024467,74.475068,6,P-GPS,
27300,2023-07-06 16:41:40,52.2064510197983,0.0864291097122884,74.475068,73.7860916,54.430778644672,128.21687024467,62.664044,6.0844768,65.375986344,74.981629696,28,5,16.952,128.21687024467,74.475068,8.0753534,65.375986344,1.789552,-5.816044,0,285.2, -11.8, -3.4,0,0,1664,1024,1024,1024,97,0,0,0,279.3,0,0,99,4.232,4.242,4.239,4.236,0,0,6.612,80.06,128.21687024467,74.475068,6,P-GPS,
27500,2023-07-06 16:41:40,52.2064524818505,0.086420678554104,74.475068,73.7532832,54.463587044672,128.21687024467,73.162732,7.0016222,67.3310389,76.940947344,29,5,16.952,128.21687024467,74.475068,8.0753534,67.3310389,2.013246,-6.71082,0,285.9, -23.8, -3.2,0,0,1666,1024,1024,1024,97,0,0,0,279.3,0,0,99,4.232,4.242,4.239,4.236,0,0,6.612,80.06,128.21687024467,74.475068,6,P-GPS,
27700,2023-07-06 16:41:40,52.2064543256415,0.0864107878790286,74.475068,73.7532832,54.463587044672,128.21687024467,72.17848,8.4108944,69.64075026,79.252299124,29,5,16.952,128.21687024467,74.475068,8.4108944,69.64075026,2.460634,-8.052984,0,286.3, -28.2, -4.2,0,0,1668,1024,1024,1024,98,0,0,0,279.3,0,0,99,4.232,4.242,4.239,4.236,0,0,6.612,80.06,128.21687024467,74.475068,6,P-GPS,
27900,2023-07-06 16:41:40,52.2064566057248,0.0863988199803156,74.475068,73.6876664,54.529203844672,128.21687024467,64.960632,10.1109688,72.441275284,82.054464568,29,5,16.952,128.21687024467,74.475068,10.1109688,72.441275284,3.131716,-9.618842,0,286.7, -27.9, -5,0,0,1653,1016,1024,1024,95,-1,0,0,279.3,0,0,99,4.232,4.242,4.239,4.236,0,0,6.612,80.06,128.21687024467,74.475068,6,P-GPS,
28100,2023-07-06 16:41:41,52.2064592215771,0.0863848312927115,74.475068,73.6876664,54.529203844672,128.21687024467,64.960632,11.4531328,75.70866384,85.324477796,29,5,16.884,128.21687024467,74.475068,11.4531328,75.70866384,3.35541,-10.961006,0,285.8, -15, -6.3,0,0,1653,1015,1024,1024,95,-1,0,0,279.3,0,0,99,4.222,4.234,4.232,4.236,0,0,7.295,80.06,128.21687024467,74.475068,6,P-GPS,
28300,2023-07-06 16:41:41,52.2064619095108,0.0863699230696247,74.475068,73.654858,54.562012244672,128.21687024467,64.960632,11.9005208,79.17979256,88.79921544,29,5,16.884,128.21687024467,74.475068,11.9005208,79.17979256,3.35541,-11.408394,0,285.3, -11.5, -6.1,0,0,1660,1016,1024,1024,96,-1,0,0,279.3,0,0,99,4.222,4.234,4.232,4.236,0,0,7.295,80.06,128.21687024467,74.475068,6,P-GPS,
28500,2023-07-06 16:41:41,52.2064646499593,0.0863545602371869,74.475068,73.6220496,54.594820644672,128.21687024467,78.74016,12.3255394,82.753283488,92.376643376,29,5,16.884,128.21687024467,74.475068,12.3255394,82.753283488,3.35541,-11.855782,0,285.7, -18.3, -5.5,0,0,1670,1014,1024,1024,98,-2,0,0,279.3,0,0,99,4.222,4.234,4.232,4.236,0,0,7.295,80.06,128.21687024467,74.475068,6,P-GPS,
28700,2023-07-06 16:41:41,52.2064675665593,0.0863382819232858,74.803152,73.9173252,54.627629044672,128.54495424467,78.74016,13.309793,86.541669436,96.168638248,29,5,16.884,128.54495424467,74.803152,13.309793,86.541669436,3.802798,-12.750558,0,286.3, -24.1, -5.9,0,0,1677,1014,1024,1024,99,-2,0,0,279.3,0,0,99,4.222,4.234,4.232,4.236,0,0,7.295,80.06,128.54495424467,74.803152,6,P-GPS,
28900,2023-07-06 16:41:42,52.20647076494,0.0863204756914004,74.803152,73.8517084,54.693245844672,128.54495424467,79.068244,14.651957,90.686682692,100.317260428,29,5,16.884,128.54495424467,74.803152,14.651957,90.686682692,4.026492,-14.092722,0,286.4, -24.5, -6.8,0,0,1678,1016,1024,1024,99,-1,0,0,279.3,0,0,99,4.222,4.234,4.232,4.236,0,0,7.295,80.06,128.54495424467,74.803152,6,P-GPS,
29100,2023-07-06 16:41:42,52.2064741494098,0.0863014530579753,74.803152,73.8189,54.726054244672,128.54495424467,79.068244,14.875651,95.1115516,104.746066344,29,5,16.892,128.54495424467,74.803152,14.875651,95.1115516,4.026492,-14.316416,-0.223694,284.6, 4.9, -7,0,0,1673,1017,1024,1024,98,-1,0,0,279.3,0,0,99,4.224,4.221,4.229,4.233,0,0,7.386,80.24,128.54495424467,74.803152,6,P-GPS,
29300,2023-07-06 16:41:42,52.2064773245572,0.0862832333720257,74.803152,73.7860916,54.758862644672,128.54495424467,79.068244,13.9585056,99.342522864,108.9813027,29,5,16.892,128.54495424467,74.803152,14.875651,99.342522864,3.802798,-13.42164,0,285.5, 1, -7,0,0,1665,1010,1024,1024,97,-2,0,0,279.3,0,0,99,4.224,4.221,4.229,4.233,0,0,7.386,80.24,128.54495424467,74.803152,6,P-GPS,
29500,2023-07-06 16:41:42,52.2064803701911,0.0862658958407037,74.475068,73.4251992,54.791671044672,128.21687024467,72.506564,13.4663788,103.371722468,113.013783144,29,5,16.892,128.54495424467,74.803152,14.875651,103.371722468,3.579104,-12.974252,0.223694,285.7, -13.3, -6.5,0,0,1616,1021,1024,1024,90,-0,0,0,279.3,0,0,99,4.224,4.221,4.229,4.233,0,0,7.386,80.24,128.21687024467,74.475068,6,P-GPS,
29700,2023-07-06 16:41:42,52.2064834885232,0.0862483898019673,74.803152,73.7204748,54.824479444672,128.54495424467,73.8189,14.1598302,107.445213412,117.08989876,29,5,16.892,128.54495424467,74.803152,14.875651,107.445213412,3.802798,-13.645334,0.223694,286, -20.5, -6.6,0,0,1519,1024,1024,1024,75,0,0,0,279.3,0,0,99,4.224,4.221,4.229,4.233,0,0,7.386,80.24,128.54495424467,74.803152,6,P-GPS,
29900,2023-07-06 16:41:43,52.2064867819616,0.0862298794008866,74.803152,73.6876664,54.857287844672,128.54495424467,75.131236,15.0769756,111.75197208,121.399610184,29,5,16.892,128.54495424467,74.803152,15.0769756,111.75197208,4.026492,-14.54011,0,286.2, -19.9, -7.3,0,0,1316,1024,1024,1024,44,0,0,0,279.3,0,0,99,4.224,4.221,4.229,4.233,0,0,7.386,80.24,128.54495424467,74.803152,6,P-GPS,
30100,2023-07-06 16:41:43,52.2064901339973,0.086210653954655,74.803152,73.654858,54.890096244672,128.54495424467,75.787404,14.8085428,116.217851488,125.868770432,29,5,16.894,128.54495424467,74.803152,15.0769756,116.217851488,3.802798,-14.316416,-0.223694,284.3, 13.1, -7.7,0,0,1026,1024,1024,1024,0,0,0,0,279.3,0,0,99,4.215,4.213,4.22,4.227,0,0,7.527,80.24,128.54495424467,74.803152,6,P-GPS,
30300,2023-07-06 16:41:43,52.2064931499042,0.0861929655689206,74.803152,73.6220496,54.922904644672,128.54495424467,76.443572,13.1755766,120.318901488,129.97375744,29,5,16.894,128.54495424467,74.803152,15.0769756,120.318901488,3.35541,-12.750558,0,287.6, 15.1, -6,0,0,1024,1024,1024,1024,0,0,0,0,279.3,0,0,99,4.215,4.213,4.22,4.227,0,0,7.527,80.24,128.54495424467,74.803152,6,P-GPS,
30500,2023-07-06 16:41:43,52.2064957916283,0.0861773607814198,74.803152,73.5564328,54.988521444672,128.54495424467,72.17848,11.3412858,123.935043336,133.593508212,29,5,16.894,128.54495424467,74.803152,15.0769756,123.935043336,2.908022,-10.961006,0,287.9, 23.5, -3.4,0,0,1024,1024,1024,1024,0,0,0,0,279.3,0,0,99,4.215,4.213,4.22,4.227,0,0,7.527,80.24,128.54495424467,74.803152,6,P-GPS,
30700,2023-07-06 16:41:43,52.206498028055,0.08616453383599,74.475068,73.2283488,54.988521444672,128.21687024467,71.522312,9.0148682,126.915030308,136.575135604,29,5,16.894,128.54495424467,74.803152,15.0769756,126.915030308,2.23694,-8.724066,0,284.1, 28.5, -5.9,0,0,1024,1024,1024,1024,0,0,0,0,279.3,0,0,99,4.215,4.213,4.22,4.227,0,0,7.527,80.24,128.21687024467,74.475068,6,P-GPS,
30900,2023-07-06 16:41:44,52.2064996237158,0.0861550208697109,74.475068,73.1955404,55.021329844672,128.21687024467,71.850396,6.3976484,129.118114368,138.780516252,29,5,16.894,128.54495424467,74.803152,15.0769756,129.118114368,1.342164,-6.263432,0,283.2, 29.3, -7,0,0,1024,1024,1024,1024,0,0,0,0,279.3,0,0,99,4.215,4.213,4.22,4.227,0,0,7.527,80.24,128.21687024467,74.475068,6,P-GPS,
31100,2023-07-06 16:41:44,52.2065005043362,0.0861488391051753,74.475068,73.1955404,55.021329844672,128.21687024467,72.17848,3.6462122,130.532484492,140.199479552,29,5,16.883,128.54495424467,74.803152,15.0769756,130.532484492,0.671082,-3.579104,0.223694,283.6, 27.6, -6.3,0,0,1024,1024,1024,1024,0,0,0,0,279.3,0,0,99,4.218,4.235,4.249,4.241,0,0,7.862,80.24,128.21687024467,74.475068,6,P-GPS,
31300,2023-07-06 16:41:44,52.2065008056151,0.0861456151811735,74.475068,73.1955404,55.021329844672,128.21687024467,72.834648,1.789552,131.252300788,140.9284822,29,5,16.883,128.54495424467,74.803152,15.0769756,131.252300788,0,-1.789552,0.223694,285.1, 14.7, -4.4,0,0,1024,1024,1024,1024,0,0,0,0,279.3,0,0,99,4.218,4.235,4.249,4.241,0,0,7.862,80.24,128.21687024467,74.475068,6,P-GPS,
31500,2023-07-06 16:41:44,52.2065008218064,0.086144229042034,74.803152,73.5236244,55.021329844672,128.54495424467,74.146984,0.671082,131.549544892,141.23852158,29,5,16.883,128.54495424467,74.803152,15.0769756,131.549544892,0,-0.671082,0.223694,286.7, 5.6, -4.9,0,0,1024,1024,1024,1024,0,0,0,0,279.3,0,0,99,4.218,4.235,4.249,4.241,0,0,7.862,80.24,128.54495424467,74.803152,6,P-GPS,
31700,2023-07-06 16:41:44,52.2065007089296,0.0861437736498378,74.475068,73.1955404,55.021329844672,128.21687024467,75.45932,0.223694,131.63386248,141.34842972,29,5,16.883,128.54495424467,74.803152,15.0769756,131.63386248,0,-0.223694,0,285.1, 0.5, -5.9,0,0,1024,1024,1024,1024,0,0,0,0,279.3,0,0,99,4.218,4.235,4.249,4.241,0,0,7.862,80.24,128.21687024467,74.475068,6,P-GPS,
31900,2023-07-06 16:41:45,52.2065005276209,0.0861436914510991,74.475068,73.1955404,55.021329844672,128.21687024467,76.115488,0,131.631565892,141.416999276,29,5,16.883,128.54495424467,74.803152,15.0769756,131.63386248,0,0,0,284.8, -1.3, -6.4,0,0,1024,1024,1024,1024,0,0,0,0,279.3,0,0,99,4.218,4.235,4.249,4.241,0,0,7.862,80.24,128.21687024467,74.475068,6,P-GPS,
