time(millisecond),datetime(utc),latitude,longitude,height_above_takeoff(feet),height_above_ground_at_drone_location(feet),ground_elevation_at_drone_location(feet),altitude_above_seaLevel(feet),height_sonar(feet),speed(mph),distance(feet),mileage(feet),satellites,gpslevel,voltage(v),max_altitude(feet),max_ascent(feet),max_speed(mph),max_distance(feet), xSpeed(mph), ySpeed(mph), zSpeed(mph), compass_heading(degrees), pitch(degrees), roll(degrees),isPhoto,isVideo,rc_elevator,rc_aileron,rc_throttle,rc_rudder,rc_elevator(percent),rc_aileron(percent),rc_throttle(percent),rc_rudder(percent),gimbal_heading(degrees),gimbal_pitch(degrees),gimbal_roll(degrees),battery_percent,voltageCell1,voltageCell2,voltageCell3,voltageCell4,voltageCell5,voltageCell6,current(A),battery_temperature(f),altitude(feet),ascent(feet),flycStateRaw,flycState,message
0,2023-07-20 18:32:39,0,0,0,,,53.08739015024,0.328084,0,0,0,17,2,0,53.08739015024,0,0,0,0,0,0,277, 4.6, 1,0,0,1024,1024,1024,1024,0,0,0,0,277,0,0,57,3.884,3.89,3.889,3.887,0,0,0,74.12,53.08739015024,0,41,Motors_Started,"No GPS. Fly with caution Aircraft not in flight. Vision systems and obstacle avoidance disabled (Code: 180059). No GPS signal. Aircraft unable to hover. Fly with caution (Code: 30008). GPS signal weak. Hovering unstable. Fly with caution (Code: 30002). Aircraft not in flight"
200,2023-07-20 18:32:39,0,0,0,,,53.08739015024,0.328084,0,0,0,17,2,0,53.08739015024,0,0,0,0,0,0,277, 4.6, 0.9,0,0,1024,1024,1024,1024,0,0,0,0,277,0,0,57,3.884,3.89,3.889,3.887,0,0,0,74.12,53.08739015024,0,41,Motors_Started,
400,2023-07-20 18:32:39,0,0,0,,,53.08739015024,0,0,0,0,17,2,0,53.08739015024,0,0,0,0,0,0,276.9, 4.6, 1,0,0,1024,1024,1024,1024,0,0,0,0,277,0,0,57,3.884,3.89,3.889,3.887,0,0,0,74.12,53.08739015024,0,41,Motors_Started,
600,2023-07-20 18:32:40,0,0,0,,,53.08739015024,0,0,0,0,17,2,0,53.08739015024,0,0,0,0,0,0,277.2, 4.6, 1,0,0,1024,1024,1024,1024,0,0,0,0,277,0,0,57,3.884,3.89,3.889,3.887,0,0,0,74.12,53.08739015024,0,41,Motors_Started,
800,2023-07-20 18:32:40,0,0,0,,,53.08739015024,0,0,0,0,17,2,0,53.08739015024,0,0,0,0,0,0,277.2, 4.6, 1,0,0,1024,1024,1024,1024,0,0,0,0,277,0,0,57,3.884,3.89,3.889,3.887,0,0,0,74.12,53.08739015024,0,41,Motors_Started,"Setting new Return-To-Home altitude to 26m (85 ft). Data Recorder File Index is 66. Setting new Maximum Flight Altitude to 30m (98 ft)"
1000,2023-07-20 18:32:40,0,0,0,,,53.08739015024,0,0,0,0,17,2,0,53.08739015024,0,0,0,0,0,0,277.5, 4.6, 1,0,0,1024,1024,1024,1024,0,0,0,0,277,0,0,57,3.884,3.89,3.889,3.887,0,0,0,74.12,53.08739015024,0,41,Motors_Started,
1200,2023-07-20 18:32:40,0,0,0,,,53.08739015024,0,0,0,0,15,2,0,53.08739015024,0,0,0,0,0,0,277.6, 4.6, 1,0,0,1024,1024,1024,1024,0,0,0,0,277,0,0,57,3.884,3.89,3.889,3.887,0,0,0,74.12,53.08739015024,0,41,Motors_Started,
1400,2023-07-20 18:32:40,0,0,0,,,53.08739015024,0,0,0,0,15,2,15.735,53.08739015024,0,0,0,0,0,0,277.6, 4.6, 1,0,0,1024,1024,1024,1024,0,0,0,0,277.1,0,0,57,3.884,3.89,3.889,3.887,0,0,1.632,74.12,53.08739015024,0,41,Motors_Started,
1600,2023-07-20 18:32:41,0,0,0,,,53.08739015024,0,0,0,0,14,2,15.735,53.08739015024,0,0,0,0,0,0,277.6, 4.6, 1,0,0,1024,1024,1024,1024,0,0,0,0,277.1,0,0,57,3.884,3.89,3.889,3.887,0,0,1.632,74.12,53.08739015024,0,11,AutoTakeoff,
1800,2023-07-20 18:32:41,0,0,0,,,53.08739015024,0,0,0,0,15,2,15.735,53.08739015024,0,0,0,0,0,0,277.8, 4.5, 0.9,0,0,1024,1024,1024,1024,0,0,0,0,277.1,0,0,57,3.884,3.89,3.889,3.887,0,0,1.632,74.12,53.08739015024,0,11,AutoTakeoff,
2000,2023-07-20 18:32:41,0,0,0,,,53.08739015024,0,0,0,0,15,2,15.735,53.08739015024,0,0,0,0,0,0,277.8, 3.6, 0.9,0,0,1024,1024,1684,1024,0,0,100,0,277.1,0,0,57,3.884,3.89,3.889,3.887,0,0,1.632,74.12,53.08739015024,0,11,AutoTakeoff,
2200,2023-07-20 18:32:41,0,0,0,,,53.08739015024,0,0,0,0,15,2,15.735,53.08739015024,0,0,0,0,0,-0.447388,278.6, -2, 1.3,0,0,1024,1024,1684,1024,0,0,100,0,277.2,0,0,57,3.884,3.89,3.889,3.887,0,0,1.632,74.12,53.08739015024,0,11,AutoTakeoff,
2400,2023-07-20 18:32:41,0,0,0.328084,,,53.41547415024,0.328084,0,0,0,15,2,15.516,53.41547415024,0.328084,0,0,0,0,-1.342164,278.3, 0.7, 0.1,0,0,1024,1024,1684,1024,0,0,100,0,277.3,0,0,57,3.91,3.918,3.919,3.918,0,0,5.009,74.12,53.41547415024,0.328084,11,AutoTakeoff,
2600,2023-07-20 18:32:42,0,0,0.984252,,,54.07164215024,0.656168,0,0,0,14,2,15.516,54.07164215024,0.984252,0,0,0,0,-2.460634,278, 1.9, -0.2,0,0,1024,1024,1684,1024,0,0,100,0,277.3,0,0,57,3.91,3.918,3.919,3.918,0,0,5.009,74.12,54.07164215024,0.984252,11,AutoTakeoff,
2800,2023-07-20 18:32:42,0,0,1.968504,,,55.05589415024,1.968504,0.223694,0,0,14,2,15.516,55.05589415024,1.968504,0.223694,0,-0.223694,0,-4.026492,276.6, 0.1, -0.3,0,0,1024,1024,1684,1024,0,0,100,0,277.4,0,0,57,3.91,3.918,3.919,3.918,0,0,5.009,74.12,55.05589415024,1.968504,11,AutoTakeoff,
3000,2023-07-20 18:32:42,0,0,3.28084,,,56.36823015024,3.608924,0.223694,0,0,14,2,15.516,56.36823015024,3.28084,0.223694,0,-0.223694,0,-5.816044,276.3, -2, 3.6,0,0,1024,1024,1684,1024,0,0,100,0,277.4,0,0,57,3.91,3.918,3.919,3.918,0,0,5.009,74.12,56.36823015024,3.28084,11,AutoTakeoff,
3200,2023-07-20 18:32:42,0,0,5.577428,,,58.66481815024,5.577428,0,0,0,14,2,15.516,58.66481815024,5.577428,0.223694,0,0,0,-7.82929,281, -1.5, 3.4,0,0,1024,1024,1684,1024,0,0,100,0,277.4,0,0,57,3.91,3.918,3.919,3.918,0,0,5.009,74.12,58.66481815024,5.577428,6,P-GPS,
3400,2023-07-20 18:32:42,0,0,8.858268,,,61.94565815024,8.530184,0,0,0,15,2,15.502,61.94565815024,8.858268,0.223694,0,0,0,-10.06623,283.3, -1.7, 1,0,0,1024,1024,1684,1024,0,0,100,0,277.4,0,0,57,3.813,3.815,3.813,3.81,0,0,4.034,73.94,61.94565815024,8.858268,6,P-GPS,"No GPS. Fly with caution GPS signal weak. Hovering unstable. Fly with caution (Code: 30002)"
3600,2023-07-20 18:32:43,0,0,12.795276,,,65.88266615024,11.811024,0,0,0,15,2,15.502,65.88266615024,12.795276,0.223694,0,0,0,-11.855782,282.4, -1, 0.4,0,0,1024,1024,1684,1024,0,0,100,0,277.4,0,0,57,3.813,3.815,3.813,3.81,0,0,4.034,73.94,65.88266615024,12.795276,6,P-GPS,
3800,2023-07-20 18:32:43,0,0,17.388452,,,70.47584215024,15.419948,0.447388,0,0,15,2,15.502,70.47584215024,17.388452,0.447388,0,-0.447388,0,-13.197946,280.3, -1.1, 6,0,0,1024,1024,1684,1024,0,0,100,0,277.4,0,0,57,3.813,3.815,3.813,3.81,0,0,4.034,73.94,70.47584215024,17.388452,6,P-GPS,
4000,2023-07-20 18:32:43,0,0,22.309712,,,75.39710215024,19.68504,0.7158208,0,0,14,2,15.502,75.39710215024,22.309712,0.7158208,0,-0.671082,-0.223694,-13.645334,279.3, -0.5, 10,0,0,1684,1024,1684,1024,100,0,100,0,277.4,0,0,57,3.813,3.815,3.813,3.81,0,0,4.034,73.94,75.39710215024,22.309712,6,P-GPS,
4200,2023-07-20 18:32:43,0,0,26.574804,,,79.66219415024,23.622048,0.7158208,0,0,15,2,15.502,79.66219415024,26.574804,0.7158208,0,-0.671082,-0.223694,-13.42164,279.1, -5.8, 6.9,0,0,1684,1024,1684,1024,100,0,100,0,277.4,0,0,57,3.813,3.815,3.813,3.81,0,0,4.034,73.94,79.66219415024,26.574804,6,P-GPS,
4400,2023-07-20 18:32:43,0,0,31.496064,,,84.58345415024,27.559056,1.4092722,0,0,15,2,15.043,84.58345415024,31.496064,1.4092722,0,-0.447388,-1.342164,-13.197946,277.6, -26.4, 7.3,0,0,1684,1024,985,1024,100,0,-6,0,277.4,0,0,57,3.716,3.718,3.72,3.713,0,0,12.362,73.76,84.58345415024,31.496064,6,P-GPS,
4600,2023-07-20 18:32:44,0,0,35.761156,,,88.84854615024,31.496064,3.579104,0,0,15,2,15.043,88.84854615024,35.761156,3.579104,0,0,-3.579104,-12.974252,280.5, -27.9, 6.7,0,0,1684,1024,1024,1024,100,0,0,0,277.4,0,0,57,3.716,3.718,3.72,3.713,0,0,12.362,73.76,88.84854615024,35.761156,6,P-GPS,
4800,2023-07-20 18:32:44,0,0,39.37008,,,92.45747015024,35.433072,4.7870516,0,0,15,2,15.043,92.45747015024,39.37008,4.7870516,0,0.894776,-4.697574,-11.632088,288.9, -29.6, 5.8,0,0,1684,1024,1024,1024,100,0,0,0,277.4,0,0,57,3.716,3.718,3.72,3.713,0,0,12.362,73.76,92.45747015024,39.37008,6,P-GPS,
5000,2023-07-20 18:32:44,0,0,42.65092,,,95.73831015024,38.385828,5.7265664,0,0,15,2,15.043,95.73831015024,42.65092,5.7265664,0,2.013246,-5.368656,-9.395148,295.4, -29.8, 4,0,0,1684,1024,1024,1024,100,0,0,0,277.4,-0.1,0,57,3.716,3.718,3.72,3.713,0,0,12.362,73.76,95.73831015024,42.65092,6,P-GPS,
5200,2023-07-20 18:32:44,0,0,44.947508,,,98.03489815024,39.37008,6.5094954,0,0,15,2,15.043,98.03489815024,44.947508,6.5094954,0,2.908022,-5.816044,-6.934514,298.9, -30.1, 2.9,0,0,1684,1024,1024,1024,100,0,0,0,277.4,-1.9,0,57,3.716,3.718,3.72,3.713,0,0,12.362,73.76,98.03489815024,44.947508,6,P-GPS,
5400,2023-07-20 18:32:44,0,0,45.93176,,,99.01915015024,41.338584,7.4042714,0,0,15,2,15.033,99.01915015024,45.93176,7.4042714,0,3.579104,-6.487126,-4.697574,302.1, -30, 2.8,0,0,1684,1024,1024,1024,100,0,0,0,277.4,-4.6,0,57,3.74,3.739,3.741,3.737,0,0,15.437,73.94,99.01915015024,45.93176,6,P-GPS,
5600,2023-07-20 18:32:45,0,0,46.587928,,,99.67531815024,43.307088,8.3661556,0,0,15,2,15.033,99.67531815024,46.587928,8.3661556,0,4.697574,-6.934514,-2.23694,305.7, -30.1, 2.6,0,0,1684,1024,1024,1024,100,0,0,0,277.4,-7.5,0,57,3.74,3.739,3.741,3.737,0,0,15.437,73.94,99.67531815024,46.587928,6,P-GPS,
5800,2023-07-20 18:32:45,0,0,46.587928,,,99.67531815024,44.947508,9.5741032,0,0,15,2,15.033,99.67531815024,46.587928,9.5741032,0,5.816044,-7.605596,-0.447388,308.5, -29.4, 1.7,0,0,1684,1024,1024,1024,100,0,0,0,277.4,-10.4,0,57,3.74,3.739,3.741,3.737,0,0,15.437,73.94,99.67531815024,46.587928,6,P-GPS,
6000,2023-07-20 18:32:45,0,0,46.587928,,,99.67531815024,46.587928,11.4307634,0,0,15,2,15.033,99.67531815024,46.587928,11.4307634,0,7.381902,-8.724066,0,310.7, -28.2, 1.4,0,0,1684,1024,1024,1024,100,0,0,0,277.4,-13.3,0,57,3.74,3.739,3.741,3.737,0,0,15.437,73.94,99.67531815024,46.587928,6,P-GPS,
6200,2023-07-20 18:32:45,0,0,46.587928,,,99.67531815024,46.916012,13.4663788,0,0,15,2,15.033,99.67531815024,46.587928,13.4663788,0,8.94776,-10.06623,0,312, -28.8, 1.7,0,0,1684,1024,1024,1024,100,0,0,0,277.5,-16.2,0,57,3.74,3.739,3.741,3.737,0,0,15.437,73.94,99.67531815024,46.587928,6,P-GPS,
6400,2023-07-20 18:32:45,0,0,46.587928,,,99.67531815024,53.477692,14.875651,0,0,15,2,15.285,99.67531815024,46.587928,14.875651,0,10.737312,-10.289924,0,313.2, -28.7, -3.9,0,0,1684,1024,1024,1024,100,0,0,0,277.5,-19.1,0,57,3.843,3.851,3.852,3.854,0,0,10.639,74.3,99.67531815024,46.587928,6,P-GPS,
6600,2023-07-20 18:32:46,0,0,46.259844,,,99.34723415024,52.821524,16.4638784,0,0,16,2,15.285,99.67531815024,46.587928,16.4638784,0,11.1847,-12.079476,0,309.5, -28.9, -6.1,0,0,1684,1024,1024,1024,100,0,0,0,277.5,-22.1,0,57,3.843,3.851,3.852,3.854,0,0,10.639,74.3,99.34723415024,46.259844,6,P-GPS,
6800,2023-07-20 18:32:46,0,0,46.259844,,,99.34723415024,52.821524,18.0297364,0,0,16,2,15.285,99.67531815024,46.587928,18.0297364,0,10.961006,-14.316416,0,305.4, -29.2, -5.2,0,0,1684,1024,1024,1024,100,0,0,0,277.5,-25,0,57,3.843,3.851,3.852,3.854,0,0,10.639,74.3,99.34723415024,46.259844,6,P-GPS,
7000,2023-07-20 18:32:46,0,0,46.259844,,,99.34723415024,48.884516,19.5508556,0,0,16,2,15.285,99.67531815024,46.587928,19.5508556,0,10.737312,-16.329662,0,302.1, -29.4, -3.8,0,0,1399,1024,1024,1024,57,0,0,0,277.5,-27.9,0,57,3.843,3.851,3.852,3.854,0,0,10.639,74.3,99.34723415024,46.259844,6,P-GPS,
7200,2023-07-20 18:32:46,0,0,45.93176,,,99.01915015024,49.540684,21.027236,0,0,16,2,15.285,99.67531815024,46.587928,21.027236,0,10.289924,-18.342908,0,299.3, -28.9, -2.7,0,0,1024,1024,1024,1024,0,0,0,0,277.5,-30.8,0,57,3.843,3.851,3.852,3.854,0,0,10.639,74.3,99.01915015024,45.93176,6,P-GPS,
7400,2023-07-20 18:32:47,0,0,45.93176,,,99.01915015024,50.196852,21.810165,0,0,16,2,15.188,99.67531815024,46.587928,21.810165,0,9.842536,-19.461378,-0.447388,296.6, -1.1, -1.6,0,0,1024,1024,1024,1024,0,0,0,0,277.5,-33.3,0,57,3.769,3.771,3.767,3.768,0,0,7.975,74.3,99.01915015024,45.93176,6,P-GPS,
7600,2023-07-20 18:32:47,0,0,45.603676,,,98.69106615024,51.181104,19.9311354,0,0,16,2,15.188,99.67531815024,46.587928,21.810165,0,8.276678,-18.119214,-1.11847,295.3, 22.2, -0.1,0,0,1024,1024,1024,1024,0,0,0,0,277.5,-35,0,57,3.769,3.771,3.767,3.768,0,0,7.975,74.3,98.69106615024,45.603676,6,P-GPS,
7800,2023-07-20 18:32:47,0,0,45.275592,,,98.36298215024,51.837272,17.448132,0,0,15,2,15.188,99.67531815024,46.587928,21.810165,0,6.71082,-16.105968,-0.223694,294, 27.2, 0.7,0,0,1024,1024,1024,1024,0,0,0,0,277.5,-37.5,0,57,3.769,3.771,3.767,3.768,0,0,7.975,74.3,98.36298215024,45.275592,6,P-GPS,
8000,2023-07-20 18:32:47,0,0,44.947508,,,98.03489815024,37.073492,14.6743264,0,0,15,2,15.188,99.67531815024,46.587928,21.810165,0,5.368656,-13.645334,0,294.3, 29.1, 2.6,0,0,1024,1024,1024,1024,0,0,0,0,277.5,-40.4,0,57,3.769,3.771,3.767,3.768,0,0,7.975,74.3,98.03489815024,44.947508,6,P-GPS,
8200,2023-07-20 18:32:47,0,0,44.619424,,,97.70681415024,37.401576,12.0571066,0,0,16,2,15.188,99.67531815024,46.587928,21.810165,0,4.47388,-11.1847,0,294.6, 29.8, 3,0,0,1024,1024,1024,1024,0,0,0,0,277.5,-43.3,0,57,3.769,3.771,3.767,3.768,0,0,7.975,74.3,97.70681415024,44.619424,6,P-GPS,
8400,2023-07-20 18:32:47,0,0,44.29134,,,97.37873015024,43.307088,9.1490846,0,0,16,2,15.042,99.67531815024,46.587928,21.810165,0,3.35541,-8.500372,0,294.8, 30.3, 3.6,0,0,1024,1024,1024,1024,0,0,0,0,277.5,-46.2,0,57,3.823,3.84,3.842,3.839,0,0,12.253,74.3,97.37873015024,44.29134,6,P-GPS,
8600,2023-07-20 18:32:48,0,0,43.963256,,,97.05064615024,43.307088,6.4423872,0,0,16,2,15.042,99.67531815024,46.587928,21.810165,0,2.23694,-6.039738,0,294.6, 29.7, 3.6,0,0,1024,1024,1024,1024,0,0,0,0,277.5,-49.1,0,57,3.823,3.84,3.842,3.839,0,0,12.253,74.3,97.05064615024,43.963256,6,P-GPS,
8800,2023-07-20 18:32:48,0,0,43.635172,,,96.72256215024,49.540684,3.8251674,0,0,16,2,15.042,99.67531815024,46.587928,21.810165,0,1.342164,-3.579104,0,294.3, 27.5, 3.3,0,0,1024,1024,1024,1024,0,0,0,0,277.4,-52,0,57,3.823,3.84,3.842,3.839,0,0,12.253,74.3,96.72256215024,43.635172,6,P-GPS,
9000,2023-07-20 18:32:48,0,0,43.307088,,,96.39447815024,49.540684,1.901399,0,0,16,2,15.042,99.67531815024,46.587928,21.810165,0,0.671082,-1.789552,0.223694,294.7, 14.4, 4,0,0,1024,1024,1024,1024,0,0,0,0,277.4,-54.9,0,57,3.823,3.84,3.842,3.839,0,0,12.253,74.3,96.39447815024,43.307088,6,P-GPS,
9200,2023-07-20 18:32:48,0,0,43.307088,,,96.39447815024,49.2126,0.7158208,0,0,16,2,15.042,99.67531815024,46.587928,21.810165,0,0.223694,-0.671082,0,293.7, 3.6, 2.8,0,0,1024,1024,1024,1024,0,0,0,0,277.4,-57.9,0,57,3.823,3.84,3.842,3.839,0,0,12.253,74.3,96.39447815024,43.307088,6,P-GPS,
9400,2023-07-20 18:32:49,0,0,43.307088,,,96.39447815024,44.619424,0.223694,0,0,16,2,15.348,99.67531815024,46.587928,21.810165,0,0,-0.223694,0,293.5, -1, 2.4,0,0,1024,1024,1024,1024,0,0,0,0,277.4,-60.8,0,57,3.819,3.829,3.83,3.831,0,0,6.899,74.66,96.39447815024,43.307088,6,P-GPS,
9600,2023-07-20 18:32:49,0,0,43.307088,,,96.39447815024,43.635172,0,0,0,16,2,15.348,99.67531815024,46.587928,21.810165,0,0,0,0,293.3, -2.8, 2.3,0,0,1024,1024,1024,1024,0,0,0,0,277.4,-63.7,0,57,3.819,3.829,3.83,3.831,0,0,6.899,74.66,96.39447815024,43.307088,6,P-GPS,
9800,2023-07-20 18:32:49,0,0,43.307088,,,96.39447815024,42.65092,0,0,0,16,2,15.348,99.67531815024,46.587928,21.810165,0,0,0,0,293.3, -3.3, 2.6,0,0,1024,1024,1024,1024,0,0,0,0,277.4,-66.6,0,57,3.819,3.829,3.83,3.831,0,0,6.899,74.66,96.39447815024,43.307088,6,P-GPS,
10000,2023-07-20 18:32:49,0,0,43.307088,,,96.39447815024,41.666668,0,0,0,16,2,15.348,99.67531815024,46.587928,21.810165,0,0,0,0,293.2, -3.2, 3.4,0,0,1024,1024,1024,1024,0,0,0,0,277.4,-69.5,0,57,3.819,3.829,3.83,3.831,0,0,6.899,74.66,96.39447815024,43.307088,6,P-GPS,
10200,2023-07-20 18:32:49,0,0,43.307088,,,96.39447815024,41.338584,0,0,0,16,2,15.348,99.67531815024,46.587928,21.810165,0,0,0,0,293.4, -3, 3.7,0,0,1024,1024,1024,1024,0,0,0,0,277.4,-72.4,0,57,3.819,3.829,3.83,3.831,0,0,6.899,74.66,96.39447815024,43.307088,6,P-GPS,
10400,2023-07-20 18:32:49,0,0,43.307088,,,96.39447815024,40.682416,0,0,0,16,2,15.254,99.67531815024,46.587928,21.810165,0,0,0,0,293.5, -2.7, 3.7,0,0,1024,1024,1024,1024,0,0,0,0,277.4,-74.9,0,57,3.804,3.811,3.809,3.81,0,0,7.347,74.84,96.39447815024,43.307088,6,P-GPS,
10600,2023-07-20 18:32:50,0,0,43.307088,,,96.39447815024,40.682416,0,0,0,16,2,15.254,99.67531815024,46.587928,21.810165,0,0,0,0,293.3, -3, 3.1,0,0,1024,1024,885,1024,0,0,-21,0,277.4,-75.9,0,57,3.804,3.811,3.809,3.81,0,0,7.347,74.84,96.39447815024,43.307088,6,P-GPS,
10800,2023-07-20 18:32:50,0,0,43.307088,,,96.39447815024,40.354332,0,0,0,16,2,15.254,99.67531815024,46.587928,21.810165,0,0,0,0,293.4, -3.1, 3.4,0,0,1024,1024,364,1024,0,0,-100,0,277.4,-75.9,0,57,3.804,3.811,3.809,3.81,0,0,7.347,74.84,96.39447815024,43.307088,6,P-GPS,
11000,2023-07-20 18:32:50,0,0,42.979004,,,96.06639415024,40.354332,0,0,0,16,2,15.254,99.67531815024,46.587928,21.810165,0,0,0,0.894776,293.4, -4.3, 3.8,0,0,1024,1024,369,1024,0,0,-99,0,277.4,-75.9,0,57,3.804,3.811,3.809,3.81,0,0,7.347,74.84,96.06639415024,42.979004,6,P-GPS,
11200,2023-07-20 18:32:50,0,0,42.322836,,,95.41022615024,39.698164,0,0,0,15,2,15.254,99.67531815024,46.587928,21.810165,0,0,0,2.908022,293.6, -4.3, 3.8,0,0,1024,1024,1024,1024,0,0,0,0,277.4,-75.9,0,57,3.804,3.811,3.809,3.81,0,0,7.347,74.84,95.41022615024,42.322836,6,P-GPS,
11400,2023-07-20 18:32:50,0,0,41.0105,,,94.09789015024,38.713912,0,0,0,14,2,15.239,99.67531815024,46.587928,21.810165,0,0,0,3.579104,294, -1.6, 1.9,0,0,1024,1024,459,1024,0,0,-86,0,277.4,-75.9,0,57,3.805,3.812,3.812,3.811,0,0,8.07,74.84,94.09789015024,41.0105,6,P-GPS,
11600,2023-07-20 18:32:51,0,0,40.354332,,,93.44172215024,38.057744,0,0,0,14,2,15.239,99.67531815024,46.587928,21.810165,0,0,0,1.789552,293.8, -3, 1.3,0,0,1024,1024,364,1024,0,0,-100,0,277.4,-75.9,0,57,3.805,3.812,3.812,3.811,0,0,8.07,74.84,93.44172215024,40.354332,6,P-GPS,
11800,2023-07-20 18:32:51,0,0,39.698164,,,92.78555415024,37.401576,0,0,0,15,2,15.239,99.67531815024,46.587928,21.810165,0,0,0,2.460634,293.1, -6.9, 3.4,0,0,1024,1024,1024,1024,0,0,0,0,277.4,-75.9,0,57,3.805,3.812,3.812,3.811,0,0,8.07,74.84,92.78555415024,39.698164,6,P-GPS,
12000,2023-07-20 18:32:51,0,0,38.713912,,,91.80130215024,36.417324,0,0,0,15,2,15.239,99.67531815024,46.587928,21.810165,0,0,0,3.802798,293.6, -3.5, 3.9,0,0,1024,1024,1024,1024,0,0,0,0,277.4,-75.9,0,57,3.805,3.812,3.812,3.811,0,0,8.07,74.84,91.80130215024,38.713912,6,P-GPS,
12200,2023-07-20 18:32:51,0,0,37.72966,,,90.81705015024,35.761156,0,0,0,15,2,15.239,99.67531815024,46.587928,21.810165,0,0,0,2.460634,294, -1, 1.7,0,0,1024,1024,1024,1024,0,0,0,0,277.4,-75.9,0,57,3.805,3.812,3.812,3.811,0,0,8.07,74.84,90.81705015024,37.72966,6,P-GPS,
12400,2023-07-20 18:32:51,0,0,37.401576,,,90.48896615024,35.433072,0,0,0,14,2,15.421,99.67531815024,46.587928,21.810165,0,0,0,0.671082,293.3, -3.4, 2.4,0,0,1024,1024,1024,1024,0,0,0,0,277.4,-75.9,0,57,3.764,3.77,3.768,3.765,0,0,6.439,75.02,90.48896615024,37.401576,6,P-GPS,
12600,2023-07-20 18:32:52,0,0,37.073492,,,90.16088215024,35.761156,0,0,0,15,2,15.421,99.67531815024,46.587928,21.810165,0,0,0,0,293.2, -2.7, 3.8,0,0,1024,1024,1024,1024,0,0,0,0,277.4,-76,0,57,3.764,3.77,3.768,3.765,0,0,6.439,75.02,90.16088215024,37.073492,6,P-GPS,
12800,2023-07-20 18:32:52,0,0,37.073492,,,90.16088215024,36.08924,0,0,0,16,2,15.421,99.67531815024,46.587928,21.810165,0,0,0,0,293.3, -1.6, 4.1,0,0,1024,1024,1024,1024,0,0,0,0,277.4,-77.3,0,57,3.764,3.77,3.768,3.765,0,0,6.439,75.02,90.16088215024,37.073492,6,P-GPS,
13000,2023-07-20 18:32:52,0,0,37.401576,,,90.48896615024,36.08924,0,0,0,16,2,15.421,99.67531815024,46.587928,21.810165,0,0,0,0,293.3, -1.5, 3.8,0,0,1024,1024,1024,1024,0,0,0,0,277.4,-80,0,57,3.764,3.77,3.768,3.765,0,0,6.439,75.02,90.48896615024,37.401576,6,P-GPS,
13200,2023-07-20 18:32:52,0,0,37.401576,,,90.48896615024,36.08924,0,0,0,16,2,15.421,99.67531815024,46.587928,21.810165,0,0,0,0,293.4, -1.8, 3.2,0,0,1024,1024,1024,1024,0,0,0,0,277.4,-82.8,0,57,3.764,3.77,3.768,3.765,0,0,6.439,75.02,90.48896615024,37.401576,6,P-GPS,
13400,2023-07-20 18:32:52,0,0,37.401576,,,90.48896615024,36.08924,0,0,0,16,2,15.054,99.67531815024,46.587928,21.810165,0,0,0,0,293.5, -2.2, 2.9,0,0,1024,1024,1024,1024,0,0,0,0,277.4,-85.7,0,57,3.781,3.791,3.793,3.796,0,0,9.262,74.84,90.48896615024,37.401576,6,P-GPS,
13600,2023-07-20 18:32:53,0,0,37.401576,,,90.48896615024,36.08924,0,0,0,16,2,15.054,99.67531815024,46.587928,21.810165,0,0,0,0,293.5, -2.8, 2.5,0,0,1024,1024,1024,1024,0,0,0,0,277.4,-88.6,0,57,3.781,3.791,3.793,3.796,0,0,9.262,74.84,90.48896615024,37.401576,6,P-GPS,
13800,2023-07-20 18:32:53,0,0,37.073492,,,90.16088215024,36.417324,0,0,0,16,2,15.054,99.67531815024,46.587928,21.810165,0,0,0,0,293.5, -2.9, 2.2,0,0,1024,1024,1024,1024,0,0,0,0,277.4,-89.9,0,57,3.781,3.791,3.793,3.796,0,0,9.262,74.84,90.16088215024,37.073492,6,P-GPS,
14000,2023-07-20 18:32:53,0,0,37.073492,,,90.16088215024,36.417324,0,0,0,16,2,15.054,99.67531815024,46.587928,21.810165,0,0,0,0,293.5, -2.7, 2.3,0,0,1024,1024,1024,1024,0,0,0,0,277.4,-89.9,0,57,3.781,3.791,3.793,3.796,0,0,9.262,74.84,90.16088215024,37.073492,6,P-GPS,
14200,2023-07-20 18:32:53,0,0,37.073492,,,90.16088215024,36.417324,0,0,0,16,2,15.054,99.67531815024,46.587928,21.810165,0,0,0,0,293.3, -2.5, 2.2,0,0,1054,1024,1024,1024,5,0,0,0,277.4,-90,0,57,3.781,3.791,3.793,3.796,0,0,9.262,74.84,90.16088215024,37.073492,6,P-GPS,
14400,2023-07-20 18:32:53,0,0,37.073492,,,90.16088215024,36.417324,0,0,0,16,2,15.229,99.67531815024,46.587928,21.810165,0,0,0,0,293.5, -2.5, 2.8,0,0,1512,937,1024,1024,74,-13,0,0,277.4,-90,0,57,3.803,3.808,3.809,3.809,0,0,8.587,75.02,90.16088215024,37.073492,6,P-GPS,
14600,2023-07-20 18:32:54,0,0,37.073492,,,90.16088215024,36.417324,0,0,0,16,2,15.229,99.67531815024,46.587928,21.810165,0,0,0,0,293.5, -1.2, 0,0,0,1684,1024,1024,1024,100,0,0,0,277.4,-89.9,0,57,3.803,3.808,3.809,3.809,0,0,8.587,75.02,90.16088215024,37.073492,6,P-GPS,
14800,2023-07-20 18:32:54,0,0,37.073492,,,90.16088215024,36.08924,0.223694,0,0,16,2,15.229,99.67531815024,46.587928,21.810165,0,0,-0.223694,0,293.1, -11.6, 1.4,0,0,1684,1024,1024,1024,100,0,0,0,277.4,-89.9,0,57,3.803,3.808,3.809,3.809,0,0,8.587,75.02,90.16088215024,37.073492,6,P-GPS,
15000,2023-07-20 18:32:54,0,0,37.073492,,,90.16088215024,36.08924,1.11847,0,0,16,2,15.229,99.67531815024,46.587928,21.810165,0,0,-1.11847,0,293, -17, 2.9,0,0,1684,1024,1024,1024,100,0,0,0,277.4,-89.9,0,57,3.803,3.808,3.809,3.809,0,0,8.587,75.02,90.16088215024,37.073492,6,P-GPS,
15200,2023-07-20 18:32:54,0,0,37.073492,,,90.16088215024,35.761156,2.2816788,0,0,16,2,15.229,99.67531815024,46.587928,21.810165,0,0.447388,-2.23694,0,292.7, -23.8, 3.5,0,0,1684,1024,1024,1024,100,0,0,0,277.4,-90,0,57,3.803,3.808,3.809,3.809,0,0,8.587,75.02,90.16088215024,37.073492,6,P-GPS,
15400,2023-07-20 18:32:54,0,0,37.073492,,,90.16088215024,35.104988,4.250186,0,0,18,2,15.224,99.67531815024,46.587928,21.810165,0,1.342164,-4.026492,0,292.7, -28.3, 3.9,0,0,1684,1024,1024,1024,100,0,0,0,277.4,-89.9,0,57,3.799,3.808,3.803,3.803,0,0,7.753,75.02,90.16088215024,37.073492,6,P-GPS,
15600,2023-07-20 18:32:55,0,0,37.073492,,,90.16088215024,34.120736,6.2410626,0,0,19,2,15.224,99.67531815024,46.587928,21.810165,0,2.23694,-5.816044,0,293, -29, 2.6,0,0,1598,1024,1024,1024,87,0,0,0,277.4,-89.9,0,57,3.799,3.808,3.803,3.803,0,0,7.753,75.02,90.16088215024,37.073492,6,P-GPS,
15800,2023-07-20 18:32:55,0,0,37.073492,,,90.16088215024,33.464568,8.3437862,0,0,18,2,15.224,99.67531815024,46.587928,21.810165,0,2.908022,-7.82929,0,293, -28.7, 2.5,0,0,1024,1024,1024,1024,0,0,0,0,277.4,-89.9,0,57,3.799,3.808,3.803,3.803,0,0,7.753,75.02,90.16088215024,37.073492,6,P-GPS,
16000,2023-07-20 18:32:55,0,0,37.073492,,,90.16088215024,33.464568,9.842536,0,0,19,2,15.224,99.67531815024,46.587928,21.810165,0,3.579104,-9.171454,-0.223694,292.9, -1.3, 3,0,0,1024,1024,1024,1024,0,0,0,0,277.4,-89.9,0,57,3.799,3.808,3.803,3.803,0,0,7.753,75.02,90.16088215024,37.073492,6,P-GPS,
16200,2023-07-20 18:32:55,0,0,37.073492,,,90.16088215024,34.120736,8.4332638,0,0,19,2,15.224,99.67531815024,46.587928,21.810165,0,3.131716,-7.82929,-0.223694,294.7, 27.9, 4,0,0,1019,1024,1024,1024,-1,0,0,0,277.4,-90,0,57,3.799,3.808,3.803,3.803,0,0,7.753,75.02,90.16088215024,37.073492,6,P-GPS,
16400,2023-07-20 18:32:55,0,0,37.073492,,,90.16088215024,33.792652,5.816044,0,0,18,2,15.173,99.67531815024,46.587928,21.810165,0,2.23694,-5.368656,0,294.1, 29, 2.3,0,0,364,1088,1024,1024,-100,10,0,0,277.4,-90,0,56,3.771,3.778,3.779,3.775,0,0,8.35,75.2,90.16088215024,37.073492,6,P-GPS,
16600,2023-07-20 18:32:56,0,0,37.073492,,,90.16088215024,33.464568,3.3330406,0,0,18,2,15.173,99.67531815024,46.587928,21.810165,0,1.11847,-3.131716,0,294.6, 30.2, 2.2,0,0,1024,1024,1024,1024,0,0,0,0,277.4,-90,0,56,3.771,3.778,3.779,3.775,0,0,8.35,75.2,90.16088215024,37.073492,6,P-GPS,
16800,2023-07-20 18:32:56,0,0,36.745408,,,89.83279815024,33.464568,0.671082,0,0,18,2,15.173,99.67531815024,46.587928,21.810165,0,0,-0.671082,0.223694,295.1, 31, 2.4,0,0,1024,1024,1024,1024,0,0,0,0,277.4,-90,0,56,3.771,3.778,3.779,3.775,0,0,8.35,75.2,89.83279815024,36.745408,6,P-GPS,
17000,2023-07-20 18:32:56,0,0,36.745408,,,89.83279815024,32.8084,1.11847,0,0,20,2,15.173,99.67531815024,46.587928,21.810165,0,-0.671082,0.894776,0,293.5, -5, 4.3,0,0,451,1024,1024,1024,-87,0,0,0,277.4,-89.9,0,56,3.771,3.778,3.779,3.775,0,0,8.35,75.2,89.83279815024,36.745408,6,P-GPS,
17200,2023-07-20 18:32:56,52.206406757998,0.086291772515362,36.745408,36.745408,53.08739015024,89.83279815024,32.480316,0.3131716,0,0,20,2,15.173,99.67531815024,46.587928,21.810165,0,-0.223694,0.223694,0,292.6, -8.6, 3.3,0,0,364,1194,1024,1024,-100,26,0,0,277.4,-90,0,56,3.771,3.778,3.779,3.775,0,0,8.35,75.2,89.83279815024,36.745408,6,P-GPS,"No GPS. Fly with caution GPS signal weak. Hovering unstable. Fly with caution (Code: 30002)"
17400,2023-07-20 18:32:56,52.2064048191043,0.0862990268772466,36.745408,36.7782164,53.05458175024,89.83279815024,32.480316,0.6263432,1.76952761568,1.76952761568,19,2,15.237,99.67531815024,46.587928,21.810165,1.76952761568,-0.447388,0.447388,0,293.9, 15.2, 2.7,0,0,364,1103,1024,1024,-100,12,0,0,277.4,-90,0,56,3.807,3.813,3.812,3.798,0,0,9.099,75.2,89.83279815024,36.745408,6,P-GPS,
17600,2023-07-20 18:32:57,52.2064024945291,0.0863075963674231,37.073492,37.1391088,53.02177335024,90.16088215024,32.8084,1.9908766,3.8648623284,3.8648623284,18,2,15.237,99.67531815024,46.587928,21.810165,3.8648623284,-0.894776,1.789552,0,294.2, 20, 3.8,0,0,1024,1024,1024,1024,0,0,0,0,277.4,-90,0,56,3.807,3.813,3.812,3.798,0,0,9.099,75.2,90.16088215024,37.073492,6,P-GPS,
17800,2023-07-20 18:32:57,52.2063998282274,0.0863178074499827,37.073492,37.1719172,52.98896495024,90.16088215024,36.745408,3.7133204,6.3464240876,6.3465553212,19,2,15.237,99.67531815024,46.587928,21.810165,6.3464240876,-1.565858,3.35541,0,293.8, 13.1, 2.7,0,0,1024,1024,1024,1024,0,0,0,0,277.4,-89.9,0,56,3.807,3.813,3.812,3.798,0,0,9.099,75.2,90.16088215024,37.073492,6,P-GPS,
18000,2023-07-20 18:32:57,52.2063971784245,0.0863284082924751,37.073492,37.2047256,52.95615655024,90.16088215024,36.745408,3.5119958,8.9057745632,8.906332306,19,2,15.237,99.67531815024,46.587928,21.810165,8.9057745632,-1.565858,3.131716,0,292.3, -26.6, 4.6,0,0,1024,1024,1024,1024,0,0,0,0,277.4,-89.9,0,56,3.807,3.813,3.812,3.798,0,0,9.099,75.2,90.16088215024,37.073492,6,P-GPS,
18200,2023-07-20 18:32:57,52.2063956885398,0.0863360317455495,37.073492,37.2047256,52.95615655024,90.16088215024,36.745408,1.2079476,10.6881893184,10.6954071664,19,5,15.237,99.67531815024,46.587928,21.810165,10.6881893184,-0.447388,1.11847,0,292.2, -20.5, 5.7,0,0,1024,1024,1024,1024,0,0,0,0,277.4,-89.9,0,56,3.807,3.813,3.812,3.798,0,0,9.099,75.2,90.16088215024,37.073492,6,P-GPS,
18400,2023-07-20 18:32:57,52.20639578379,0.0863402161769863,37.073492,37.2047256,52.95615655024,90.16088215024,29.52756,0.223694,11.5477037816,11.6316604772,19,5,15.14,99.67531815024,46.587928,21.810165,11.5477037816,0,0.223694,0,293.1, -9.6, 4.9,0,0,1024,1024,1024,1024,0,0,0,0,277.4,-89.9,0,56,3.784,3.797,3.798,3.791,0,0,8.756,75.2,90.16088215024,37.073492,6,P-GPS,
18600,2023-07-20 18:32:58,52.2063971953506,0.0863418517546742,37.073492,37.2047256,52.95615655024,90.16088215024,29.52756,0,11.728018748,12.263287794,18,5,15.14,99.67531815024,46.587928,21.810165,11.728018748,0,0,0,293.3, -4.6, 3.8,0,0,1024,1024,1024,1024,0,0,0,0,277.4,-90,0,56,3.784,3.797,3.798,3.791,0,0,8.756,75.2,90.16088215024,37.073492,6,P-GPS,
18800,2023-07-20 18:32:58,52.2063996578838,0.0863414936968329,37.073492,37.1719172,52.98896495024,90.16088215024,35.433072,0.3131716,11.4147969532,13.1652891352,17,5,15.14,99.67531815024,46.587928,21.810165,11.728018748,0.223694,-0.223694,0,293.6, -1.2, 3.2,0,0,1024,1024,1024,1024,0,0,0,0,277.4,-90,0,56,3.784,3.797,3.798,3.791,0,0,8.756,75.2,90.16088215024,37.073492,6,P-GPS,"Setting new Maximum Flight Altitude to 120m (394 ft)"
19000,2023-07-20 18:32:58,52.206402679144,0.0863397659940063,37.073492,37.1391088,53.02177335024,90.16088215024,35.761156,0.223694,10.8333992968,14.333333792,17,5,15.14,99.67531815024,46.587928,21.810165,11.728018748,0.223694,0,0,293.6, 0.3, 2.7,0,0,1024,1024,1024,1024,0,0,0,0,277.4,-90,0,56,3.784,3.797,3.798,3.791,0,0,8.756,75.2,90.16088215024,37.073492,6,P-GPS,
19200,2023-07-20 18:32:58,52.2064058120922,0.0863372431911218,37.073492,37.1063004,53.05458175024,90.16088215024,35.761156,0,10.1724740788,15.6079729404,17,5,15.14,99.67531815024,46.587928,21.810165,11.728018748,0,0,0,293.5, 0, 2.3,0,0,1024,1024,1024,1024,0,0,0,0,277.4,-90,0,56,3.784,3.797,3.798,3.791,0,0,8.756,75.2,90.16088215024,37.073492,6,P-GPS,
19400,2023-07-20 18:32:58,52.2064088090532,0.0863343272487518,37.073492,37.073492,53.08739015024,90.16088215024,36.08924,0,9.5440619852,16.8810372856,17,5,15.095,99.67531815024,46.587928,21.810165,11.728018748,0,0,0,293.5, -0.9, 2.2,0,0,1024,1024,1024,1024,0,0,0,0,277.4,-89.9,0,56,3.787,3.791,3.79,3.791,0,0,8.95,75.38,90.16088215024,37.073492,6,P-GPS,
19600,2023-07-20 18:32:59,52.2064115733173,0.0863313026609271,37.073492,37.0406836,53.12019855024,90.16088215024,36.08924,0,9.011319186,18.095308978,17,5,15.095,99.67531815024,46.587928,21.810165,11.728018748,0,0,0,293.4, -1.3, 2.6,0,0,1024,1024,1024,1024,0,0,0,0,277.4,-90,0,56,3.787,3.791,3.79,3.791,0,0,8.95,75.38,90.16088215024,37.073492,6,P-GPS,
19800,2023-07-20 18:32:59,52.2064140249019,0.0863283637781394,37.073492,37.0078752,53.15300695024,90.16088215024,36.08924,0,8.6001971256,19.2051843416,17,5,15.095,99.67531815024,46.587928,21.810165,11.728018748,0,0,0,293.3, -1.5, 2.1,0,0,1024,1024,1024,1024,0,0,0,0,277.4,-90,0,56,3.787,3.791,3.79,3.791,0,0,8.95,75.38,90.16088215024,37.073492,6,P-GPS,"Home Point updated (Code: 3000001)"
20000,2023-07-20 18:32:59,52.2064161360552,0.0863256124762532,37.073492,36.9750668,53.18581535024,90.16088215024,36.417324,0,8.3038388484,20.190945528,18,5,15.095,99.67531815024,46.587928,21.810165,11.728018748,0,0,0,293.4, -2, 2.4,0,0,1024,1024,1024,1024,0,0,0,0,277.4,-89.9,0,56,3.787,3.791,3.79,3.791,0,0,8.95,75.38,90.16088215024,37.073492,6,P-GPS,
20200,2023-07-20 18:32:59,52.2064179714158,0.0863230638321974,37.073492,36.9750668,53.18581535024,90.16088215024,36.417324,0,8.1047246688,21.070210648,18,5,15.095,99.67531815024,46.587928,21.810165,11.728018748,0,0,0,293.6, -1.8, 2.9,0,0,1024,1024,1024,1648,0,0,0,95,277.4,-90,0,56,3.787,3.791,3.79,3.791,0,0,8.95,75.38,90.16088215024,37.073492,6,P-GPS,
20400,2023-07-20 18:32:59,52.2064195872728,0.0863208056304649,37.073492,36.9422584,53.21862375024,90.16088215024,36.417324,0,8.0029858204,21.8464245836,18,5,15.182,99.67531815024,46.587928,21.810165,11.728018748,0,0,0,293.7, -1.4, 3.1,0,0,1024,1024,1024,1024,0,0,0,0,278.1,-90,0,56,3.789,3.796,3.795,3.794,0,0,7.818,75.38,90.16088215024,37.073492,6,P-GPS,
20600,2023-07-20 18:33:00,52.2064210456613,0.0863188577674295,37.073492,36.90945,53.25143215024,90.16088215024,36.417324,0,7.99048582,22.5340230308,18,5,15.182,99.67531815024,46.587928,21.810165,11.728018748,0,0,0,296.4, -1.2, 2.5,0,0,1024,1024,1024,1024,0,0,0,0,285.1,-90,0,56,3.789,3.796,3.795,3.794,0,0,7.818,75.38,90.16088215024,37.073492,6,P-GPS,
20800,2023-07-20 18:33:00,52.206422332403,0.0863173327014641,37.073492,36.90945,53.25143215024,90.16088215024,36.417324,0,8.0590881844,23.1142395848,18,5,15.182,99.67531815024,46.587928,21.810165,11.728018748,0,0,0,303.1, -1.3, 3.6,0,0,1024,1024,1012,990,0,0,-2,-5,285.8,-89.9,0,56,3.789,3.796,3.795,3.794,0,0,7.818,75.38,90.16088215024,37.073492,6,P-GPS,
21000,2023-07-20 18:33:00,52.2064236504193,0.0863161352004784,37.073492,36.8766416,53.28424055024,90.16088215024,36.08924,0,8.2253611556,23.6646333032,18,5,15.182,99.67531815024,46.587928,21.810165,11.728018748,0,0,0,301.8, -1.9, 2.7,0,0,1024,1024,1002,364,0,0,-3,-100,285.8,-90,0,56,3.789,3.796,3.795,3.794,0,0,7.818,75.38,90.16088215024,37.073492,6,P-GPS,
21200,2023-07-20 18:33:00,52.2064249132571,0.0863152832281753,37.073492,36.8766416,53.28424055024,90.16088215024,36.08924,0,8.4562994832,24.163222558,19,5,15.182,99.67531815024,46.587928,21.810165,11.728018748,0,0,0,301, -1.9, 2.3,0,0,1024,1024,1024,1024,0,0,0,0,279.1,-90,0,56,3.789,3.796,3.795,3.794,0,0,7.818,75.38,90.16088215024,37.073492,6,P-GPS,
21400,2023-07-20 18:33:01,52.206426102941,0.086314674863257,37.073492,36.8766416,53.28424055024,90.16088215024,36.08924,0,8.7198821688,24.6180782156,18,5,15.179,99.67531815024,46.587928,21.810165,11.728018748,0,0,0,292.2, -2.2, 1.4,0,0,1024,1024,1024,1024,0,0,0,0,276.9,-89.9,0,56,3.79,3.795,3.794,3.795,0,0,7.878,75.56,90.16088215024,37.073492,6,P-GPS,
21600,2023-07-20 18:33:01,52.2064272411151,0.0863142342772281,37.073492,36.8438332,53.31704895024,90.16088215024,36.08924,0,9.0039701044,25.0448826912,18,5,15.179,99.67531815024,46.587928,21.810165,11.728018748,0,0,0,292.9, -2, 2.2,0,0,1024,1024,1024,1478,0,0,0,69,276.9,-90,0,56,3.79,3.795,3.794,3.795,0,0,7.878,75.56,90.16088215024,37.073492,6,P-GPS,
21800,2023-07-20 18:33:01,52.2064282543772,0.0863138744544704,37.073492,36.8438332,53.31704895024,90.16088215024,36.08924,0,9.2699478032,25.42322916,18,5,15.179,99.67531815024,46.587928,21.810165,11.728018748,0,0,0,293.4, -1.2, 3.9,0,0,1024,1024,1024,1024,0,0,0,0,280.8,-89.9,0,56,3.79,3.795,3.794,3.795,0,0,7.878,75.56,90.16088215024,37.073492,6,P-GPS,
22000,2023-07-20 18:33:01,52.206429217858,0.0863137472267183,37.073492,36.8438332,53.31704895024,90.16088215024,36.08924,0,9.5545278648,25.7758866516,18,5,15.179,99.67531815024,46.587928,21.810165,11.728018748,0,0,0,298.8, -0.9, 4.3,0,0,1024,1024,1024,1024,0,0,0,0,282.3,-89.9,0,56,3.79,3.795,3.794,3.795,0,0,7.878,75.56,90.16088215024,37.073492,6,P-GPS,
22200,2023-07-20 18:33:01,52.2064302165402,0.0863138904016255,37.073492,36.8110248,53.34985735024,90.16088215024,36.08924,0,9.8848100276,26.1416675032,18,5,15.179,99.67531815024,46.587928,21.810165,11.728018748,0,0,0,298.4, -1.3, 3.8,0,0,1024,1024,1024,1024,0,0,0,0,282.3,-90,0,56,3.79,3.795,3.794,3.795,0,0,7.878,75.56,90.16088215024,37.073492,6,P-GPS,
22400,2023-07-20 18:33:01,52.2064312280814,0.0863141961026117,37.401576,37.1391088,53.34985735024,90.48896615024,36.08924,0,10.2393047896,26.5169955992,18,5,15.176,99.67531815024,46.587928,21.810165,11.728018748,0,0,0,298.2, -1.6, 2.8,0,0,1024,1024,1024,1024,0,0,0,0,282.3,-90,0,56,3.787,3.793,3.791,3.791,0,0,7.82,75.74,90.48896615024,37.401576,6,P-GPS,
22600,2023-07-20 18:33:02,52.2064322018767,0.0863145338446932,37.401576,37.1063004,53.38266575024,90.48896615024,36.08924,0,10.586614512,26.8802173956,20,5,15.176,99.67531815024,46.587928,21.810165,11.728018748,0,0,0,298.3, -1.1, 3.3,0,0,1024,1024,544,1024,0,0,-73,0,282.3,-89.9,0,56,3.787,3.793,3.791,3.791,0,0,7.82,75.74,90.48896615024,37.401576,6,P-GPS,
22800,2023-07-20 18:33:02,52.2064331367011,0.0863149300002635,37.401576,37.1063004,53.38266575024,90.48896615024,36.08924,0,10.9286092736,27.23261242,20,5,15.176,99.67531815024,46.587928,21.810165,11.728018748,0,0,0,298.2, -0.9, 3.6,0,0,1024,1024,845,1024,0,0,-27,0,282.3,-90,0,56,3.787,3.793,3.791,3.791,0,0,7.82,75.74,90.48896615024,37.401576,6,P-GPS,
23000,2023-07-20 18:33:02,52.2064341214921,0.0863154063144901,37.073492,36.7782164,53.38266575024,90.16088215024,35.761156,0,11.295768078,27.6073499648,20,5,15.176,99.67531815024,46.587928,21.810165,11.728018748,0,0,1.11847,298.3, -1.9, 5.1,0,0,1024,1024,1024,1024,0,0,0,0,282.3,-89.9,0,56,3.787,3.793,3.791,3.791,0,0,7.82,75.74,90.16088215024,37.073492,6,P-GPS,
23200,2023-07-20 18:33:02,52.2064351843341,0.0863159723703444,36.745408,36.417324,53.41547415024,89.83279815024,35.104988,0,11.6979006368,28.015256802,19,5,15.176,99.67531815024,46.587928,21.810165,11.728018748,0,0,1.565858,298.7, 1, 2.8,0,0,1024,1024,1024,1024,0,0,0,0,282.3,-90,0,56,3.787,3.793,3.791,3.791,0,0,7.82,75.74,89.83279815024,36.745408,6,P-GPS,
23400,2023-07-20 18:33:02,52.2064362725021,0.086316749276037,36.417324,36.08924,53.41547415024,89.50471415024,34.776904,0,12.1302825404,28.4486229576,19,5,15.165,99.67531815024,46.587928,21.810165,12.1302825404,0,0,0.223694,298.3, -1.1, 2.3,0,0,1024,1024,364,1024,0,0,-100,0,282.3,-90,0,56,3.786,3.791,3.791,3.791,0,0,8.005,75.74,89.50471415024,36.417324,6,P-GPS,
23600,2023-07-20 18:33:03,52.2064375881775,0.0863176497049047,36.417324,36.0564316,53.44828255024,89.50471415024,34.776904,0,12.6491473864,28.969161032,18,5,15.165,99.67531815024,46.587928,21.810165,12.6491473864,0,0,0,298.1, -2, 3.4,0,0,1024,1024,553,1024,0,0,-71,0,282.3,-90,0,56,3.786,3.791,3.791,3.791,0,0,8.005,75.74,89.50471415024,36.417324,6,P-GPS,
23800,2023-07-20 18:33:03,52.2064388640638,0.0863185372481357,36.08924,35.7283476,53.44828255024,89.17663015024,34.44882,0,13.1539374288,29.4751977936,18,5,15.165,99.67531815024,46.587928,21.810165,13.1539374288,0,0,2.013246,298.3, -2.2, 4.3,0,0,1024,1024,1024,1024,0,0,0,0,282.3,-90,0,56,3.786,3.791,3.791,3.791,0,0,8.005,75.74,89.17663015024,36.08924,6,P-GPS,
24000,2023-07-20 18:33:03,52.2064400683864,0.0863192983709328,35.433072,35.0721796,53.44828255024,88.52046215024,33.792652,0,13.6227366564,29.9463920344,18,5,15.165,99.67531815024,46.587928,21.810165,13.6227366564,0,0,2.684328,298.6, -0.1, 2,0,0,1024,1024,1024,1024,0,0,0,0,282.3,-90,0,56,3.786,3.791,3.791,3.791,0,0,8.005,75.74,88.52046215024,35.433072,6,P-GPS,
24200,2023-07-20 18:33:03,52.206441108873,0.0863200602346452,34.776904,34.3832032,53.48109095024,87.86429415024,33.464568,0,14.038386276,30.3624681632,18,5,15.165,99.67531815024,46.587928,21.810165,14.038386276,0,0,0.894776,298.1, -1, 1.6,0,0,1024,1024,364,1005,0,0,-100,-3,282.3,-89.9,0,56,3.786,3.791,3.791,3.791,0,0,8.005,75.74,87.86429415024,34.776904,6,P-GPS,
24400,2023-07-20 18:33:03,52.2064419815466,0.0863207628740557,34.776904,34.3832032,53.48109095024,87.86429415024,33.464568,0,14.3934059724,30.717520668,18,5,15.014,99.67531815024,46.587928,21.810165,14.3934059724,0,0,0.671082,298.1, -3.4, 3.6,0,0,1024,1024,801,1024,0,0,-34,0,282.3,-90,0,56,3.806,3.827,3.829,3.829,0,0,8.202,75.74,87.86429415024,34.776904,6,P-GPS,
24600,2023-07-20 18:33:04,52.2064428215673,0.0863213536107799,34.120736,33.7270352,53.48109095024,87.20812615024,33.136484,0,14.726542466,31.0512477128,18,5,15.014,99.67531815024,46.587928,21.810165,14.726542466,0,0,2.460634,298.3, -2.8, 4.5,0,0,1024,1024,1024,1024,0,0,0,0,282.3,-89.9,0,56,3.806,3.827,3.829,3.829,0,0,8.202,75.74,87.20812615024,34.120736,6,P-GPS,
24800,2023-07-20 18:33:04,52.2064436449897,0.0863218592226179,33.136484,32.7099748,53.51389935024,86.22387415024,32.480316,0,15.045768198,31.3722450984,19,5,15.014,99.67531815024,46.587928,21.810165,15.045768198,0,0,2.908022,298.5, -0.1, 2.1,0,0,1024,1024,1024,1024,0,0,0,0,282.3,-90,0,56,3.806,3.827,3.829,3.829,0,0,8.202,75.74,86.22387415024,33.136484,6,P-GPS,
25000,2023-07-20 18:33:04,52.2064444462429,0.0863223564816834,32.8084,32.3818908,53.51389935024,85.89579015024,31.824148,0,15.3570214888,31.6850075756,20,5,15.014,99.67531815024,46.587928,21.810165,15.3570214888,0,0,1.11847,298.2, -1.2, 1.7,0,0,1024,1024,1024,1024,0,0,0,0,282.3,-90,0,56,3.806,3.827,3.829,3.829,0,0,8.202,75.74,85.89579015024,32.8084,6,P-GPS,
25200,2023-07-20 18:33:04,52.2064450395857,0.0863227555065534,32.480316,32.0538068,53.51389935024,85.56770615024,31.496064,0,15.5905844884,31.9191611264,20,5,15.014,99.67531815024,46.587928,21.810165,15.5905844884,0,0,0,298.1, -2.3, 3.8,0,0,1024,1024,1024,1024,0,0,0,0,282.3,-90,0,56,3.806,3.827,3.829,3.829,0,0,8.202,75.74,85.56770615024,32.480316,6,P-GPS,
25400,2023-07-20 18:33:04,52.2064456887483,0.0863231113835872,32.480316,32.0209984,53.54670775024,85.56770615024,31.824148,0,15.8381566748,32.1689970924,19,5,14.998,99.67531815024,46.587928,21.810165,15.8381566748,0,0,0,298.3, -1.7, 2.8,0,0,1024,1024,1024,1024,0,0,0,0,282.3,-89.9,0,56,3.822,3.838,3.835,3.784,0,0,8.758,75.74,85.56770615024,32.480316,6,P-GPS,
25600,2023-07-20 18:33:05,52.2064463933174,0.086323419174514,32.480316,32.0209984,53.54670775024,85.56770615024,31.824148,0,16.0992131136,32.4351060248,18,5,14.998,99.67531815024,46.587928,21.810165,16.0992131136,0,0,0,298.3, -1.4, 1.9,0,0,963,1024,1024,1024,-9,0,0,0,282.3,-90,0,56,3.822,3.838,3.835,3.784,0,0,8.758,75.74,85.56770615024,32.480316,6,P-GPS,
25800,2023-07-20 18:33:05,52.2064469672539,0.0863236292799419,32.480316,32.0209984,53.54670775024,85.56770615024,32.152232,0,16.3080385796,32.6497385776,17,5,14.998,99.67531815024,46.587928,21.810165,16.3080385796,0,0,0,298.3, -1, 1.8,0,0,364,1095,1024,1024,-100,11,0,0,282.3,-90,0,56,3.822,3.838,3.835,3.784,0,0,8.758,75.74,85.56770615024,32.480316,6,P-GPS,
26000,2023-07-20 18:33:05,52.206447346398,0.0863237651645214,32.480316,32.0209984,53.54670775024,85.56770615024,32.152232,0,16.4457682428,32.791339632,17,5,14.998,99.67531815024,46.587928,21.810165,16.4457682428,0,0,0,298.4, 5.9, 0.3,0,0,395,1024,1024,1024,-95,0,0,0,282.3,-89.9,0,56,3.822,3.838,3.835,3.784,0,0,8.758,75.74,85.56770615024,32.480316,6,P-GPS,
26200,2023-07-20 18:33:05,52.2064472840329,0.0863243584385312,32.480316,32.0209984,53.54670775024,85.56770615024,32.152232,1.006623,16.4834979028,32.925854072,17,5,14.998,99.67531815024,46.587928,21.810165,16.4834979028,-0.447388,0.894776,0,298.7, 20.7, 1.1,0,0,1024,1024,1024,1024,0,0,0,0,282.3,-90,0,56,3.822,3.838,3.835,3.784,0,0,8.758,75.74,85.56770615024,32.480316,6,P-GPS,
26400,2023-07-20 18:33:05,52.2064464767528,0.0863266287080977,32.480316,32.0209984,53.54670775024,85.56770615024,32.480316,2.6172198,16.454068768,33.512796348,18,5,15.056,99.67531815024,46.587928,21.810165,16.4834979028,-1.342164,2.23694,0,298.7, 14.8, 1.8,0,0,1024,1024,1024,1024,0,0,0,0,282.3,-89.9,0,56,3.78,3.785,3.786,3.785,0,0,8.709,75.74,85.56770615024,32.480316,6,P-GPS,
26600,2023-07-20 18:33:06,52.2064451569803,0.0863301367816506,32.480316,32.0538068,53.51389935024,85.56770615024,32.480316,2.908022,16.4271986884,34.433071968,18,5,15.056,99.67531815024,46.587928,21.810165,16.4834979028,-1.565858,2.460634,0,297.8, -22.4, 3.2,0,0,1024,1024,1024,1024,0,0,0,0,282.3,-89.9,0,56,3.78,3.785,3.786,3.785,0,0,8.709,75.74,85.56770615024,32.480316,6,P-GPS,
26800,2023-07-20 18:33:06,52.2064443365864,0.0863324316866534,32.480316,32.0538068,53.51389935024,85.56770615024,30.183728,1.006623,16.4505910776,35.027232092,19,5,15.056,99.67531815024,46.587928,21.810165,16.4834979028,-0.447388,0.894776,0,297.8, -18, 3,0,0,1023,1024,1024,1024,-0,0,0,0,282.3,-90,0,56,3.78,3.785,3.786,3.785,0,0,8.709,75.74,85.56770615024,32.480316,6,P-GPS,
27000,2023-07-20 18:33:06,52.2064442481779,0.0863331895172698,32.480316,32.0538068,53.51389935024,85.56770615024,29.855644,0.223694,16.5181107648,35.199804276,19,5,15.056,99.67531815024,46.587928,21.810165,16.5181107648,0,0.223694,0,298.2, -7.3, 2,0,0,1024,1024,1024,1024,0,0,0,0,282.3,-90,0,56,3.78,3.785,3.786,3.785,0,0,8.709,75.74,85.56770615024,32.480316,6,P-GPS,
27200,2023-07-20 18:33:06,52.2064444415119,0.0863332372713629,32.480316,32.0538068,53.51389935024,85.56770615024,30.511812,0,16.5825464624,35.270998504,19,5,15.056,99.67531815024,46.587928,21.810165,16.5825464624,0,0,0,298.2, -3.5, 1.7,0,0,364,1024,1024,1024,-100,0,0,0,282.3,-90,0,56,3.78,3.785,3.786,3.785,0,0,8.709,75.74,85.56770615024,32.480316,6,P-GPS,
27400,2023-07-20 18:33:06,52.2064447426691,0.0863330865859503,32.480316,32.0538068,53.51389935024,85.56770615024,31.16798,0,16.6550530264,35.385827904,19,5,15.096,99.67531815024,46.587928,21.810165,16.6550530264,0,0,0,298.3, 5.1, 0.1,0,0,883,1024,1024,1024,-21,0,0,0,282.3,-89.9,0,56,3.773,3.762,3.773,3.772,0,0,8.318,75.74,85.56770615024,32.480316,6,P-GPS,
27600,2023-07-20 18:33:07,52.2064448119133,0.0863334300910953,32.480316,32.0538068,53.51389935024,85.56770615024,31.496064,0.6263432,16.7187341308,35.466864652,19,5,15.096,99.67531815024,46.587928,21.810165,16.7187341308,-0.447388,0.447388,0,298.7, 20.2, 1.2,0,0,1024,1024,1024,1024,0,0,0,0,282.3,-89.9,0,56,3.773,3.762,3.773,3.772,0,0,8.318,75.74,85.56770615024,32.480316,6,P-GPS,
27800,2023-07-20 18:33:07,52.2064443136592,0.0863352970790233,32.480316,32.0538068,53.51389935024,85.56770615024,31.496064,1.9237684,16.8062997504,35.922245244,17,5,15.096,99.67531815024,46.587928,21.810165,16.8062997504,-1.11847,1.565858,0,298.6, -6.6, 2,0,0,1024,1024,1024,1024,0,0,0,0,282.3,-90,0,56,3.773,3.762,3.773,3.772,0,0,8.318,75.74,85.56770615024,32.480316,6,P-GPS,
28000,2023-07-20 18:33:07,52.2064438989046,0.0863371668768378,32.480316,32.0538068,53.51389935024,85.56770615024,31.824148,0.8052984,16.9304139276,36.366799064,18,5,15.096,99.67531815024,46.587928,21.810165,16.9304139276,-0.447388,0.671082,0,297.6, -14.8, 3.8,0,0,1024,1024,1601,1024,0,0,87,0,282.3,-90,0,56,3.773,3.762,3.773,3.772,0,0,8.318,75.74,85.56770615024,32.480316,6,P-GPS,
28200,2023-07-20 18:33:07,52.20644399585,0.0863379938712059,32.480316,32.0538068,53.51389935024,85.56770615024,31.824148,0,17.070046478,36.55511928,18,5,15.096,99.67531815024,46.587928,21.810165,17.070046478,0,0,0,298.2, -6.3, 3.2,0,0,1024,1024,1396,1024,0,0,56,0,282.3,-90,0,56,3.773,3.762,3.773,3.772,0,0,8.318,75.74,85.56770615024,32.480316,6,P-GPS,
28400,2023-07-20 18:33:07,52.2064443242479,0.086338280346836,32.8084,32.3818908,53.51389935024,85.89579015024,32.152232,0,17.2042000256,36.690946056,19,5,15.13,99.67531815024,46.587928,21.810165,17.2042000256,0,0,-1.11847,298.5, -2.7, 1.7,0,0,1024,1024,1024,1024,0,0,0,0,282.3,-89.9,0,56,3.768,3.773,3.771,3.768,0,0,8.709,75.92,85.89579015024,32.8084,6,P-GPS,
28600,2023-07-20 18:33:08,52.2064448096238,0.0863383638326217,33.136484,32.7099748,53.51389935024,86.22387415024,32.8084,0,17.356791894,36.868767584,19,5,15.13,99.67531815024,46.587928,21.810165,17.356791894,0,0,-1.342164,298.2, -2.1, 1.8,0,0,1024,1024,1024,1024,0,0,0,0,282.3,-90,0,56,3.768,3.773,3.771,3.768,0,0,8.709,75.92,86.22387415024,33.136484,6,P-GPS,
28800,2023-07-20 18:33:08,52.2064452600767,0.0863383826211173,33.464568,33.0380588,53.51389935024,86.55195815024,33.136484,0,17.4910438668,37.033137668,18,5,15.13,99.67531815024,46.587928,21.810165,17.4910438668,0,0,-0.447388,298.3, 0, 1.6,0,0,1024,1024,1024,1024,0,0,0,0,282.3,-90,0,56,3.768,3.773,3.771,3.768,0,0,8.709,75.92,86.55195815024,33.464568,6,P-GPS,
29000,2023-07-20 18:33:08,52.2064455984744,0.0863384009482883,33.464568,33.0052504,53.54670775024,86.55195815024,33.136484,0,17.5927827152,37.156825336,19,5,15.13,99.67531815024,46.587928,21.810165,17.5927827152,0,0,0,298.5, 0.7, 1.7,0,0,1024,1024,1024,1024,0,0,0,0,282.3,-90,0,56,3.768,3.773,3.771,3.768,0,0,8.709,75.92,86.55195815024,33.464568,6,P-GPS,
29200,2023-07-20 18:33:08,52.2064457976103,0.0863384707620883,33.464568,33.0052504,53.54670775024,86.55195815024,33.136484,0,17.6605648696,37.231300404,19,5,15.13,99.67531815024,46.587928,21.810165,17.6605648696,0,0,0,298.5, 0.2, 1.5,0,0,1024,1024,1024,1024,0,0,0,0,282.3,-90,0,56,3.768,3.773,3.771,3.768,0,0,8.709,75.92,86.55195815024,33.464568,6,P-GPS,
29400,2023-07-20 18:33:09,52.2064459894364,0.0863387307534885,33.464568,33.0052504,53.54670775024,86.55195815024,33.464568,0,17.7513785208,37.322179672,20,5,15.119,99.67531815024,46.587928,21.810165,17.7513785208,0,0,0,298.5, -0.5, 1.9,0,0,1024,1024,1024,1024,0,0,0,0,282.3,-89.9,0,56,3.797,3.793,3.786,3.783,0,0,9.038,75.92,86.55195815024,33.464568,6,P-GPS,
29600,2023-07-20 18:33:09,52.2064462198223,0.0863390595451724,33.464568,33.0052504,53.54670775024,86.55195815024,33.464568,0,17.8626646136,37.433728232,20,5,15.119,99.67531815024,46.587928,21.810165,17.8626646136,0,0,0,298.5, -0.8, 2.3,0,0,1024,1024,1024,1024,0,0,0,0,282.3,-90,0,56,3.797,3.793,3.786,3.783,0,0,9.038,75.92,86.55195815024,33.464568,6,P-GPS,
29800,2023-07-20 18:33:09,52.2064465096476,0.086339412961808,33.464568,33.0052504,53.54670775024,86.55195815024,31.824148,0,17.9946528068,37.565946084,20,5,15.119,99.67531815024,46.587928,21.810165,17.9946528068,0,0,0,298.4, -0.6, 2,0,0,1024,1024,1024,1024,0,0,0,0,282.3,-89.9,0,56,3.797,3.793,3.786,3.783,0,0,9.038,75.92,86.55195815024,33.464568,6,P-GPS,
30000,2023-07-20 18:33:09,52.20644681599,0.0863397410684946,33.464568,33.0052504,53.54670775024,86.55195815024,31.824148,0,18.1281501864,37.699476272,19,5,15.119,99.67531815024,46.587928,21.810165,18.1281501864,0,0,0,298.4, -0.5, 1.6,0,0,1024,1024,1024,1024,0,0,0,0,282.3,-89.9,0,56,3.797,3.793,3.786,3.783,0,0,9.038,75.92,86.55195815024,33.464568,6,P-GPS,
30200,2023-07-20 18:33:09,52.2064470894204,0.0863400802190143,33.792652,33.3333344,53.54670775024,86.88004215024,31.824148,0,18.253445466,37.82480436,19,5,15.119,99.67531815024,46.587928,21.810165,18.253445466,0,0,0,298.3, -0.6, 1.4,0,0,1024,1024,1024,1024,0,0,0,0,282.3,-89.9,0,56,3.797,3.793,3.786,3.783,0,0,9.038,75.92,86.88004215024,33.792652,6,P-GPS,
30400,2023-07-20 18:33:09,52.2064473454727,0.0863403902781207,33.792652,33.3333344,53.54670775024,86.88004215024,31.824148,0,18.3697840524,37.94127418,19,5,15.137,99.67531815024,46.587928,21.810165,18.3697840524,0,0,0,298.4, -0.5, 1.1,0,0,1024,1024,1024,1024,0,0,0,0,282.3,-89.9,0,56,3.78,3.784,3.785,3.785,0,0,7.852,75.92,86.88004215024,33.792652,6,P-GPS,
30600,2023-07-20 18:33:10,52.2064475488643,0.0863406680654695,33.792652,33.3333344,53.54670775024,86.88004215024,31.824148,0,18.466371982,38.03805896,19,5,15.137,99.67531815024,46.587928,21.810165,18.466371982,0,0,0,298.4, -0.4, 1.4,0,0,1024,1024,1024,1024,0,0,0,0,282.3,-89.9,0,56,3.78,3.784,3.785,3.785,0,0,7.852,75.92,86.88004215024,33.792652,6,P-GPS,
30800,2023-07-20 18:33:10,52.2064477065555,0.0863409849465892,33.792652,33.3333344,53.54670775024,86.88004215024,31.824148,0,18.5546921948,38.129266312,19,5,15.137,99.67531815024,46.587928,21.810165,18.5546921948,0,0,0,298.3, -0.5, 1.5,0,0,1024,1024,1024,1024,0,0,0,0,282.3,-90,0,56,3.78,3.784,3.785,3.785,0,0,7.852,75.92,86.88004215024,33.792652,6,P-GPS,
31000,2023-07-20 18:33:10,52.206447861831,0.0863413115085372,33.792652,33.3333344,53.54670775024,86.88004215024,31.824148,0,18.6436029588,38.221457916,19,5,15.137,99.67531815024,46.587928,21.810165,18.6436029588,0,0,0,298.4, -0.4, 1.6,0,0,1024,1024,1024,1024,0,0,0,0,282.3,-90,0,56,3.78,3.784,3.785,3.785,0,0,7.852,75.92,86.88004215024,33.792652,6,P-GPS,
31200,2023-07-20 18:33:10,52.206447978159,0.0863416329469854,33.792652,33.3333344,53.54670775024,86.88004215024,32.152232,0,18.72047304,38.305119336,20,5,15.137,99.67531815024,46.587928,21.810165,18.72047304,0,0,0,298.3, -0.4, 1.5,0,0,1024,1024,1024,1024,0,0,0,0,282.3,-90,0,56,3.78,3.784,3.785,3.785,0,0,7.852,75.92,86.88004215024,33.792652,6,P-GPS,
31400,2023-07-20 18:33:10,52.2064480612496,0.086341967917624,33.792652,33.3333344,53.54670775024,86.88004215024,32.152232,0,18.7895019136,38.385828,20,5,15.136,99.67531815024,46.587928,21.810165,18.7895019136,0,0,0,298.3, -0.6, 1.6,0,0,1024,1024,1024,1024,0,0,0,0,282.3,-89.9,0,56,3.779,3.784,3.784,3.785,0,0,7.804,76.1,86.88004215024,33.792652,6,P-GPS,
31600,2023-07-20 18:33:11,52.2064481721805,0.0863422993584299,33.792652,33.3333344,53.54670775024,86.88004215024,32.152232,0,18.8662407612,38.470145588,20,5,15.136,99.67531815024,46.587928,21.810165,18.8662407612,0,0,0,298.3, -0.7, 1.9,0,0,1024,1024,1024,1024,0,0,0,0,282.3,-89.9,0,56,3.779,3.784,3.784,3.785,0,0,7.804,76.1,86.88004215024,33.792652,6,P-GPS,
31800,2023-07-20 18:33:11,52.2064483028817,0.0863426541939883,33.792652,33.3333344,53.54670775024,86.88004215024,31.824148,0,18.9519691104,38.56299336,20,5,15.136,99.67531815024,46.587928,21.810165,18.9519691104,0,0,0,298.2, -0.7, 1.8,0,0,1024,1024,1024,1024,0,0,0,0,282.3,-90,0,56,3.779,3.784,3.784,3.785,0,0,7.804,76.1,86.88004215024,33.792652,6,P-GPS,
32000,2023-07-20 18:33:11,52.2064484110262,0.086342963372384,33.792652,33.3333344,53.54670775024,86.88004215024,31.824148,0,19.0250662256,38.642389688,20,5,15.136,99.67531815024,46.587928,21.810165,19.0250662256,0,0,0,298.4, -0.9, 2.4,0,0,1024,1024,1024,1024,0,0,0,0,282.3,-89.9,0,56,3.779,3.784,3.784,3.785,0,0,7.804,76.1,86.88004215024,33.792652,6,P-GPS,
32200,2023-07-20 18:33:11,52.2064485505813,0.0863432657707049,33.792652,33.300526,53.57951615024,86.88004215024,31.824148,0,19.1064310576,38.72703536,20,5,15.136,99.67531815024,46.587928,21.810165,19.1064310576,0,0,0,298.4, -1.1, 2.9,0,0,1024,1024,1024,1024,0,0,0,0,282.3,-89.9,0,56,3.779,3.784,3.784,3.785,0,0,7.804,76.1,86.88004215024,33.792652,6,P-GPS,
32400,2023-07-20 18:33:11,52.2064487626511,0.0863435669667859,33.792652,33.300526,53.57951615024,86.88004215024,31.824148,0,19.2087604572,38.829725652,20,5,15.13,99.67531815024,46.587928,21.810165,19.2087604572,0,0,0,298.3, -1.1, 2.6,0,0,1024,1024,1024,1024,0,0,0,0,282.3,-89.9,0,56,3.777,3.783,3.784,3.782,0,0,7.839,76.1,86.88004215024,33.792652,6,P-GPS,
32600,2023-07-20 18:33:12,52.2064490359787,0.0863438778576746,33.792652,33.300526,53.57951615024,86.88004215024,31.824148,0,19.330217154,38.951116732,20,5,15.13,99.67531815024,46.587928,21.810165,19.330217154,0,0,0,298.2, -1.1, 2.4,0,0,1024,1024,1024,1024,0,0,0,0,282.3,-89.9,0,56,3.777,3.783,3.784,3.782,0,0,7.839,76.1,86.88004215024,33.792652,6,P-GPS,
32800,2023-07-20 18:33:12,52.206449342139,0.0863441665280918,33.792652,33.300526,53.57951615024,86.88004215024,31.824148,0,19.4582683392,39.080381828,20,5,15.13,99.67531815024,46.587928,21.810165,19.4582683392,0,0,0,298.3, -1.2, 1.8,0,0,1024,1024,1024,1024,0,0,0,0,282.3,-90,0,56,3.777,3.783,3.784,3.782,0,0,7.839,76.1,86.88004215024,33.792652,6,P-GPS,
33000,2023-07-20 18:33:12,52.2064496659129,0.0863443801423831,33.792652,33.300526,53.57951615024,86.88004215024,32.152232,0,19.581365456,39.20767842,20,5,15.13,99.67531815024,46.587928,21.810165,19.581365456,0,0,0,298.3, -0.9, 1.7,0,0,1024,1024,1024,1024,0,0,0,0,282.3,-90,0,56,3.777,3.783,3.784,3.782,0,0,7.839,76.1,86.88004215024,33.792652,6,P-GPS,
33200,2023-07-20 18:33:12,52.2064500159358,0.0863445597165057,33.792652,33.300526,53.57951615024,86.88004215024,32.152232,0,19.7076121792,39.341536692,20,5,15.13,99.67531815024,46.587928,21.810165,19.7076121792,0,0,0,298.4, -0.8, 1.9,0,0,1024,1024,1024,1024,0,0,0,0,282.3,-90,0,56,3.777,3.783,3.784,3.782,0,0,7.839,76.1,86.88004215024,33.792652,6,P-GPS,
33400,2023-07-20 18:33:12,52.2064503965383,0.0863447309238763,33.792652,33.300526,53.57951615024,86.88004215024,32.152232,0,19.8418313436,39.485565568,22,5,15.127,99.67531815024,46.587928,21.810165,19.8418313436,0,0,0,298.4, -0.3, 2.1,0,0,1024,1024,1024,1024,0,0,0,0,282.3,-89.9,0,56,3.777,3.784,3.783,3.783,0,0,7.85,76.1,86.88004215024,33.792652,6,P-GPS,
33600,2023-07-20 18:33:13,52.2064507679785,0.0863449523037996,33.464568,32.972442,53.57951615024,86.55195815024,31.824148,0,19.980151558,39.629922528,22,5,15.127,99.67531815024,46.587928,21.810165,19.980151558,0,0,0,298.3, -0.1, 1.6,0,0,1024,1024,1024,1024,0,0,0,0,282.3,-89.9,0,56,3.777,3.784,3.783,3.783,0,0,7.85,76.1,86.55195815024,33.464568,6,P-GPS,
33800,2023-07-20 18:33:13,52.2064511766891,0.0863452246461194,33.464568,32.972442,53.57951615024,86.55195815024,31.824148,0,20.1362539252,39.791011772,22,5,15.127,99.67531815024,46.587928,21.810165,20.1362539252,0,0,0,298.1, -0.4, 1.1,0,0,1024,1024,1024,1024,0,0,0,0,282.3,-90,0,56,3.777,3.784,3.783,3.783,0,0,7.85,76.1,86.55195815024,33.464568,6,P-GPS,
34000,2023-07-20 18:33:13,52.206451566137,0.0863455267718394,33.792652,33.2677176,53.61232455024,86.88004215024,31.824148,0,20.2907486808,39.948164008,22,5,15.127,99.67531815024,46.587928,21.810165,20.2907486808,0,0,0,298.3, -1.2, 1.6,0,0,1024,1024,1024,1024,0,0,0,0,282.3,-89.9,0,56,3.777,3.784,3.783,3.783,0,0,7.85,76.1,86.88004215024,33.792652,6,P-GPS,
34200,2023-07-20 18:33:13,52.2064519516099,0.0863457852324805,33.792652,33.2677176,53.61232455024,86.88004215024,31.824148,0,20.438320864,40.100394984,22,5,15.127,99.67531815024,46.587928,21.810165,20.438320864,0,0,0,298.3, -1.3, 1.7,0,0,1024,1024,1024,1024,0,0,0,0,282.3,-90,0,56,3.777,3.784,3.783,3.783,0,0,7.85,76.1,86.88004215024,33.792652,6,P-GPS,
34400,2023-07-20 18:33:13,52.2064523589583,0.0863460062489358,33.792652,33.2677176,53.61232455024,86.88004215024,31.824148,0,20.5874678504,40.256891052,22,5,15.125,99.67531815024,46.587928,21.810165,20.5874678504,0,0,0,298.4, -1.1, 1.3,0,0,1024,1024,1024,1024,0,0,0,0,282.3,-90,0,56,3.777,3.782,3.782,3.781,0,0,7.827,76.28,86.88004215024,33.792652,6,P-GPS,
34600,2023-07-20 18:33:14,52.2064527713099,0.0863462115733627,33.792652,33.2677176,53.61232455024,86.88004215024,31.824148,0,20.7361555192,40.414043288,22,5,15.125,99.67531815024,46.587928,21.810165,20.7361555192,0,0,0,298.4, -1.2, 1,0,0,1024,1024,1024,1024,0,0,0,0,282.3,-89.9,0,56,3.777,3.782,3.782,3.781,0,0,7.827,76.28,86.88004215024,33.792652,6,P-GPS,
34800,2023-07-20 18:33:14,52.2064531405312,0.086346357512723,33.792652,33.2677176,53.61232455024,86.88004215024,31.824148,0,20.8644363632,40.55282282,22,5,15.125,99.67531815024,46.587928,21.810165,20.8644363632,0,0,0,298.5, -1.2, 1.2,0,0,1024,1024,1024,1024,0,0,0,0,282.3,-89.9,0,56,3.777,3.782,3.782,3.781,0,0,7.827,76.28,86.88004215024,33.792652,6,P-GPS,
35000,2023-07-20 18:33:14,52.2064534536436,0.0863464385171411,33.792652,33.2677176,53.61232455024,86.88004215024,31.824148,0,20.9677500148,40.668636472,22,5,15.125,99.67531815024,46.587928,21.810165,20.9677500148,0,0,0,298.3, -0.8, 1.7,0,0,1024,1024,1024,1024,0,0,0,0,282.3,-90,0,56,3.777,3.782,3.782,3.781,0,0,7.827,76.28,86.88004215024,33.792652,6,P-GPS,
35200,2023-07-20 18:33:14,52.2064537643401,0.0863465440766133,33.792652,33.2677176,53.61232455024,86.88004215024,31.824148,0,21.07365553,40.78412204,22,5,15.125,99.67531815024,46.587928,21.810165,21.07365553,0,0,0,298.5, -0.9, 2.2,0,0,1024,1024,1024,1024,0,0,0,0,282.3,-90,0,56,3.777,3.782,3.782,3.781,0,0,7.827,76.28,86.88004215024,33.792652,6,P-GPS,
35400,2023-07-20 18:33:14,52.2064540685471,0.0863466713393142,33.464568,32.9396336,53.61232455024,86.55195815024,31.824148,0,21.1805781056,40.89895144,21,5,15.122,99.67531815024,46.587928,21.810165,21.1805781056,0,0,0,298.5, -1, 1.7,0,0,1024,1024,1024,1024,0,0,0,0,282.3,-90,0,56,3.78,3.785,3.782,3.781,0,0,7.847,76.28,86.55195815024,33.464568,6,P-GPS,
35600,2023-07-20 18:33:15,52.2064543690746,0.0863468349138584,33.464568,32.9396336,53.61232455024,86.55195815024,31.824148,0,21.2911424136,41.014437008,21,5,15.122,99.67531815024,46.587928,21.810165,21.2911424136,0,0,0,298.3, -1.2, 2.2,0,0,1024,1024,1024,1024,0,0,0,0,282.3,-89.9,0,56,3.78,3.785,3.782,3.781,0,0,7.847,76.28,86.55195815024,33.464568,6,P-GPS,
35800,2023-07-20 18:33:15,52.2064546683,0.0863470136282395,33.464568,32.9068252,53.64513295024,86.55195815024,31.824148,0,21.4033471416,41.130578744,21,5,15.122,99.67531815024,46.587928,21.810165,21.4033471416,0,0,0,298.1, -1, 1.5,0,0,1024,1024,1024,1024,0,0,0,0,282.3,-90,0,56,3.78,3.785,3.782,3.781,0,0,7.847,76.28,86.55195815024,33.464568,6,P-GPS,
36000,2023-07-20 18:33:15,52.2064549012388,0.0863471691365918,33.464568,32.9068252,53.64513295024,86.55195815024,31.824148,0,21.4928156484,41.222442264,21,5,15.122,99.67531815024,46.587928,21.810165,21.4928156484,0,0,0,298.3, -1, 2,0,0,1024,1024,1024,1024,0,0,0,0,282.3,-90,0,56,3.78,3.785,3.782,3.781,0,0,7.847,76.28,86.55195815024,33.464568,6,P-GPS,
36200,2023-07-20 18:33:15,52.2064550978839,0.0863473673384454,33.464568,32.9068252,53.64513295024,86.55195815024,31.824148,0,21.5770020028,41.306759852,21,5,15.122,99.67531815024,46.587928,21.810165,21.5770020028,0,0,0,298.2, -1.2, 2,0,0,1024,1024,1024,1024,0,0,0,0,282.3,-89.9,0,56,3.78,3.785,3.782,3.781,0,0,7.847,76.28,86.55195815024,33.464568,6,P-GPS,
36400,2023-07-20 18:33:15,52.2064552638294,0.0863475511972955,33.464568,32.9068252,53.64513295024,86.55195815024,31.824148,0,21.6501647348,41.379922584,21,5,15.126,99.67531815024,46.587928,21.810165,21.6501647348,0,0,0,298.3, -1.5, 2.4,0,0,1024,1024,1024,1024,0,0,0,0,282.3,-90,0,55,3.777,3.783,3.781,3.78,0,0,7.735,76.46,86.55195815024,33.464568,6,P-GPS,
