time(millisecond),datetime(utc),latitude,longitude,height_above_takeoff(feet),height_above_ground_at_drone_location(feet),ground_elevation_at_drone_location(feet),altitude_above_seaLevel(feet),height_sonar(feet),speed(mph),distance(feet),mileage(feet),satellites,gpslevel,voltage(v),max_altitude(feet),max_ascent(feet),max_speed(mph),max_distance(feet), xSpeed(mph), ySpeed(mph), zSpeed(mph), compass_heading(degrees), pitch(degrees), roll(degrees),isPhoto,isVideo,rc_elevator,rc_aileron,rc_throttle,rc_rudder,rc_elevator(percent),rc_aileron(percent),rc_throttle(percent),rc_rudder(percent),gimbal_heading(degrees),gimbal_pitch(degrees),gimbal_roll(degrees),battery_percent,voltageCell1,voltageCell2,voltageCell3,voltageCell4,voltageCell5,voltageCell6,current(A),battery_temperature(f),altitude(feet),ascent(feet),flycStateRaw,flycState,message
100,2023-07-05 17:49:36,52.2063698181321,0.0867251329826318,0,0,53.750575538916,53.750575538916,0,0,0,0,9,0,0,53.750575538916,0,0,0,0,0,0,278.6, 5, -0.2,0,0,1024,1024,1024,1024,0,0,0,0,278.6,0,0,100,4.344,4.342,4.342,4.338,0,0,0,71.06,53.750575538916,0,41,Motors_Started,"No GPS signal. Aircraft unable to hover. Fly with caution (Code: 30008). GPS signal weak. Hovering unstable. Fly with caution (Code: 30002)"
300,2023-07-05 17:49:37,52.2063698204682,0.0867251317588795,0,0,53.750575538916,53.750575538916,0,0,0.00089518703652,0.00089518703652,9,0,0,53.750575538916,0,0,0.00089518703652,0,0,0,278.6, 5, -0.2,0,0,1024,1024,1024,1024,0,0,0,0,278.6,0,0,100,4.344,4.342,4.342,4.338,0,0,0,71.06,53.750575538916,0,41,Motors_Started,"Setting new Return-To-Home altitude to 26m (85 ft). Data Recorder File Index is 51. Setting new Maximum Flight Altitude to 30m (98 ft)"
500,2023-07-05 17:49:37,52.2063698263169,0.0867251287782972,0,0,53.750575538916,53.750575538916,0,0,0.00313068579572,0.00313070548076,9,0,0,53.750575538916,0,0,0.00313068579572,0,0,0,278.6, 5, -0.2,0,0,1024,1024,1024,1024,0,0,0,0,278.6,0,0,100,4.344,4.342,4.342,4.338,0,0,0,71.06,53.750575538916,0,41,Motors_Started,
700,2023-07-05 17:49:37,52.2063698446045,0.0867251233423468,0,0,53.750575538916,53.750575538916,0,0,0.0098960305004,0.009912729976,9,2,0,53.750575538916,0,0,0.0098960305004,0,0,0,278.6, 5, -0.2,0,0,1024,1024,1024,1024,0,0,0,0,278.6,0,0,100,4.344,4.342,4.342,4.338,0,0,0,71.06,53.750575538916,0,41,Motors_Started,
900,2023-07-05 17:49:37,52.2063698855986,0.086725106205555,0,0,53.750575538916,53.750575538916,0,0,0.0253327435928,0.0253523958244,10,2,17.362,53.750575538916,0,0,0.0253327435928,0,0,0,278.1, 5, -0.2,0,0,1024,1024,1024,1024,0,0,0,0,278.6,0,0,100,4.344,4.342,4.342,4.338,0,0,1.107,71.06,53.750575538916,0,41,Motors_Started,
1100,2023-07-05 17:49:37,52.2063699817291,0.0867250642163797,0,0,53.750575538916,53.750575538916,0,0,0.061636812996,0.061660435044,10,3,17.362,53.750575538916,0,0,0.061636812996,0,0,0,277.8, 5, -0.2,0,0,1024,1024,1024,1024,0,0,0,0,278.6,0,0,100,4.344,4.342,4.342,4.338,0,0,1.107,71.06,53.750575538916,0,41,Motors_Started,
1300,2023-07-05 17:49:38,52.2063700977024,0.0867250134955322,0,0,53.750575538916,53.750575538916,0,0,0.105441604424,0.105466538808,10,3,17.362,53.750575538916,0,0,0.105441604424,0,0,0,277.8, 5, -0.2,0,0,1024,1024,1024,1024,0,0,0,0,278.6,0,0,100,4.344,4.342,4.342,4.338,0,0,1.107,71.06,53.750575538916,0,41,Motors_Started,"Setting new Maximum Flight Altitude to 120m (394 ft)"
1500,2023-07-05 17:49:38,52.2063702512332,0.0867249304051528,0,0,53.750575538916,53.750575538916,0,0,0.16437992652,0.164482288728,10,3,17.362,53.750575538916,0,0,0.16437992652,0,0,0,277.7, 5, -0.2,0,0,1024,1024,1024,1024,0,0,0,0,278.5,0,0,100,4.344,4.342,4.342,4.338,0,0,1.107,71.06,53.750575538916,0,41,Motors_Started,
1700,2023-07-05 17:49:38,52.2063704152849,0.0867248207365768,0,0,53.750575538916,53.750575538916,0,0,0.228783143804,0.229164377412,11,3,17.362,53.750575538916,0,0,0.228783143804,0,0,0,277.8, 5, -0.2,0,0,1024,1024,1024,1024,0,0,0,0,278.5,0,0,100,4.344,4.342,4.342,4.338,0,0,1.107,71.06,53.750575538916,0,11,AutoTakeoff,
1900,2023-07-05 17:49:38,52.2063705592191,0.0867247045241205,0,0,53.750575538916,53.750575538916,0,0,0.286854339888,0.287755586636,11,3,17.146,53.750575538916,0,0,0.286854339888,0,0,0,278, 4.7, -0.2,0,0,1024,1024,1024,1024,0,0,0,0,278.5,0,0,100,4.284,4.284,4.283,4.279,0,0,3.292,70.88,53.750575538916,0,11,AutoTakeoff,
2100,2023-07-05 17:49:38,52.2063706710605,0.086724741902409,0,0,53.750575538916,53.750575538916,0,0,0.323241808244,0.32940617852,11,3,17.146,53.750575538916,0,0,0.323241808244,0,0,-0.223694,277.4, -1, -0.4,0,0,1024,1024,1024,1024,0,0,0,0,278.4,0,0,100,4.284,4.284,4.283,4.279,0,0,3.292,70.88,53.750575538916,0,11,AutoTakeoff,
2300,2023-07-05 17:49:39,52.2063707371951,0.0867248093247725,0.328084,0.328084,53.750575538916,54.078659538916,0.328084,0,0.34303806872,0.357857623,11,3,17.146,54.078659538916,0.328084,0,0.34303806872,0,0,-0.894776,277.6, -0.7, 0.3,0,0,1024,1024,1024,1024,0,0,0,0,278.4,0,0,100,4.284,4.284,4.283,4.279,0,0,3.292,70.88,54.078659538916,0.328084,11,AutoTakeoff,
2500,2023-07-05 17:49:39,52.2063707919366,0.0867248333611028,0.656168,0.656168,53.750575538916,54.406743538916,0.328084,0,0.36155184884,0.3785433192,12,3,17.146,54.406743538916,0.656168,0,0.36155184884,0,0,-0.894776,277.6, -0.8, 0.3,0,0,1024,1024,1024,1024,0,0,0,0,278.3,0,0,100,4.284,4.284,4.283,4.279,0,0,3.292,70.88,54.406743538916,0.656168,11,AutoTakeoff,
2700,2023-07-05 17:49:39,52.2063708331117,0.0867248521658782,0.656168,0.656168,53.750575538916,54.406743538916,0.984252,0,0.37560040572,0.39414043256,12,3,17.146,54.406743538916,0.656168,0,0.37560040572,0,0,-0.894776,277.4, -0.8, 0.2,0,0,1024,1024,1024,1024,0,0,0,0,278.3,0,0,100,4.284,4.284,4.283,4.279,0,0,3.292,70.88,54.406743538916,0.656168,11,AutoTakeoff,
2900,2023-07-05 17:49:39,52.2063709305913,0.086724883139863,0.984252,0.984252,53.750575538916,54.734827538916,1.312336,0,0.40970473752,0.43037402952,12,3,17.269,54.734827538916,0.984252,0,0.40970473752,0,0,-0.894776,277.4, -1.3, -0.1,0,0,1024,1024,1024,1024,0,0,0,0,278.3,0,0,100,4.294,4.291,4.287,4.279,0,0,3.359,71.06,54.734827538916,0.984252,11,AutoTakeoff,
3100,2023-07-05 17:49:39,52.2063710122688,0.0867248445346003,1.312336,1.312336,53.750575538916,55.062911538916,1.312336,0,0.44042652328,0.4614009334,12,3,17.269,55.062911538916,1.312336,0,0.44042652328,0,0,-0.894776,277.4, -1.2, 0,0,0,1024,1024,1024,1024,0,0,0,0,278.2,0,0,100,4.294,4.291,4.287,4.279,0,0,3.359,71.06,55.062911538916,1.312336,11,AutoTakeoff,
3300,2023-07-05 17:49:40,52.2063710425245,0.086724732372158,1.64042,1.64042,53.750575538916,55.390995538916,1.968504,0,0.4556102508,0.48879922824,13,3,17.269,55.390995538916,1.64042,0,0.4556102508,0,0,-0.894776,277.6, -1.2, -1.7,0,0,1024,1024,1024,1024,0,0,0,0,278.2,0,0,100,4.294,4.291,4.287,4.279,0,0,3.359,71.06,55.390995538916,1.64042,11,AutoTakeoff,
3500,2023-07-05 17:49:40,52.2063710985712,0.0867245787915155,1.968504,1.968504,53.750575538916,55.719079538916,2.296588,0,0.48332022544,0.52876642112,13,3,17.269,55.719079538916,1.968504,0,0.48332022544,0,0,-1.11847,277.5, -0.5, -2.2,0,0,1024,1024,1034,1024,0,0,2,0,278.2,0,0,100,4.294,4.291,4.287,4.279,0,0,3.359,71.06,55.719079538916,1.968504,11,AutoTakeoff,
3700,2023-07-05 17:49:40,52.2063711143576,0.0867244586111748,2.296588,2.296588,53.750575538916,56.047163538916,2.624672,0,0.49638124948,0.55624673696,13,3,17.269,56.047163538916,2.296588,0,0.49638124948,0,0,-1.11847,277.8, -0.3, -1.9,0,0,1024,1024,1147,1024,0,0,19,0,278.2,0,0,100,4.294,4.291,4.287,4.279,0,0,3.359,71.06,56.047163538916,2.296588,11,AutoTakeoff,
3900,2023-07-05 17:49:40,52.2063710247062,0.0867244047876292,2.952756,2.952756,53.750575538916,56.703331538916,2.952756,0,0.46936025124,0.59109910028,13,3,16.961,56.703331538916,2.952756,0,0.49638124948,0,0,-1.11847,277.6, -0.8, -2.2,0,0,1024,1024,1595,1024,0,0,87,0,278.1,0,0,100,4.235,4.236,4.236,4.231,0,0,6.583,70.88,56.703331538916,2.952756,11,AutoTakeoff,
4100,2023-07-05 17:49:40,52.2063708313925,0.0867243571450567,3.28084,3.28084,53.750575538916,57.031415538916,3.28084,0,0.40836287396,0.66243112356,14,3,16.961,57.031415538916,3.28084,0,0.49638124948,0,0,-1.789552,277.5, -1.2, -1,0,0,1024,1024,1684,1024,0,0,100,0,278.1,0,0,100,4.235,4.236,4.236,4.231,0,0,6.583,70.88,57.031415538916,3.28084,11,AutoTakeoff,
4300,2023-07-05 17:49:41,52.2063706342087,0.0867241850041025,4.265092,4.265092,53.750575538916,58.015667538916,4.265092,0,0.36548229516,0.74402233352,14,4,16.961,58.015667538916,4.265092,0,0.49638124948,0,0,-3.802798,277.4, -1.3, -0.3,0,0,1024,1024,1684,1024,0,0,100,0,278.1,0,0,100,4.235,4.236,4.236,4.231,0,0,6.583,70.88,58.015667538916,4.265092,6,P-GPS,
4500,2023-07-05 17:49:41,52.2063705334475,0.0867239921953315,5.905512,5.905512,53.750575538916,59.656087538916,5.905512,0,0.36492455236,0.80067587864,14,4,16.961,59.656087538916,5.905512,0,0.49638124948,0,0,-6.263432,277.8, -0.9, -1.2,0,0,1024,1024,1667,1024,0,0,97,0,278.1,0,0,100,4.235,4.236,4.236,4.231,0,0,6.583,70.88,59.656087538916,5.905512,6,P-GPS,
4700,2023-07-05 17:49:41,52.2063704473396,0.086723869732851,8.2021,8.2021,53.750575538916,61.952675538916,8.2021,0,0.36397310876,0.84235238916,14,4,16.961,61.952675538916,8.2021,0,0.49638124948,0,0,-8.500372,278.2, -1.5, -0.6,0,0,1024,1024,1663,1024,0,0,97,0,278.1,0,0,100,4.235,4.236,4.236,4.231,0,0,6.583,70.88,61.952675538916,8.2021,6,P-GPS,
4900,2023-07-05 17:49:41,52.2063704131615,0.0867236803886888,11.811024,11.811024,53.750575538916,65.561599538916,11.154856,0,0.39065618048,0.886482968,14,4,16.944,65.561599538916,11.811024,0,0.49638124948,0,0,-10.961006,278.1, -1.1, -1.1,0,0,1024,1024,1669,1024,0,0,98,0,278.1,0,0,100,4.234,4.237,4.236,4.229,0,0,7.159,70.88,65.561599538916,11.811024,6,P-GPS,
5100,2023-07-05 17:49:41,52.2063704310406,0.086723455559177,15.748032,15.748032,53.750575538916,69.498607538916,14.435696,0,0.43665683812,0.93717522684,15,4,16.944,69.498607538916,15.748032,0,0.49638124948,0,0,-12.30317,278.1, -0.7, -2.1,0,0,1024,1024,1684,1024,0,0,100,0,278.1,0,0,100,4.234,4.237,4.236,4.229,0,0,7.159,70.88,69.498607538916,15.748032,6,P-GPS,"Home Point updated (Code: 3000001)"
5300,2023-07-05 17:49:42,52.2063703846331,0.0867232627362217,20.013124,20.013124,53.750575538916,73.763699538916,18.372704,0,0.466453427,0.98349412596,15,4,16.944,73.763699538916,20.013124,0,0.49638124948,0,0,-12.974252,278.1, -1, -0.8,0,0,1024,1024,1684,1024,0,0,100,0,278.1,0,0,100,4.234,4.237,4.236,4.229,0,0,7.159,70.88,73.763699538916,20.013124,6,P-GPS,
5500,2023-07-05 17:49:42,52.2063703300452,0.0867231173868835,23.950132,23.950132,53.750575538916,77.700707538916,22.309712,0,0.48783138044,1.02160764424,15,4,16.944,77.700707538916,23.950132,0,0.49638124948,0,0,-13.197946,278.1, -0.5, -1.3,0,0,1024,1024,1683,1024,0,0,100,0,278.1,0,0,100,4.234,4.237,4.236,4.229,0,0,7.159,70.88,77.700707538916,23.950132,6,P-GPS,
5700,2023-07-05 17:49:42,52.2063702318771,0.0867230784918738,28.215224,28.215224,53.750575538916,81.965799538916,26.24672,0,0.48352363752,1.0584646008,14,4,16.944,81.965799538916,28.215224,0,0.49638124948,0,0,-13.42164,278.2, -0.3, -0.8,0,0,1024,1024,1024,1024,0,0,0,0,278.1,0,0,100,4.234,4.237,4.236,4.229,0,0,7.159,70.88,81.965799538916,28.215224,6,P-GPS,
5900,2023-07-05 17:49:42,52.2063701092898,0.086723243191461,32.152232,32.152232,53.750575538916,85.902807538916,30.183728,0,0.43568242864,1.11640095436,14,4,16.491,85.902807538916,32.152232,0,0.49638124948,0,0,-11.855782,278.3, -3.2, -0.4,0,0,1024,1024,1024,1024,0,0,0,0,278.1,0,0,100,4.106,4.105,4.109,4.113,0,0,12.344,70.88,85.902807538916,32.152232,6,P-GPS,
6100,2023-07-05 17:49:42,52.2063700571604,0.0867234823214005,35.104988,35.104988,53.750575538916,88.855563538916,33.792652,0,0.37922901476,1.17314964384,14,4,16.491,88.855563538916,35.104988,0,0.49638124948,0,0,-9.842536,278.2, -4.3, -1.4,0,0,1024,1024,1024,1024,0,0,0,0,278.1,0,0,100,4.106,4.105,4.109,4.113,0,0,12.344,70.88,88.855563538916,35.104988,6,P-GPS,
6300,2023-07-05 17:49:43,52.2063700814725,0.086723713202616,37.401576,37.401576,53.750575538916,91.152151538916,36.745408,0,0.33166667728,1.22552825444,14,4,16.491,91.152151538916,37.401576,0,0.49638124948,0,0,-7.381902,278.2, -4, -2.4,0,0,1024,1024,1024,1024,0,0,0,0,278.1,0,0,100,4.106,4.105,4.109,4.113,0,0,12.344,70.88,91.152151538916,37.401576,6,P-GPS,
6500,2023-07-05 17:49:43,52.2063701356868,0.086723955378066,38.713912,38.713912,53.750575538916,92.464487538916,38.385828,0,0.28766077036,1.28317589408,15,4,16.491,92.464487538916,38.713912,0,0.49638124948,0,0,-4.921268,278.2, -4.7, -3.8,0,0,1024,1024,1024,1024,0,0,0,0,278.1,0,0,100,4.106,4.105,4.109,4.113,0,0,12.344,70.88,92.464487538916,38.713912,6,P-GPS,
6700,2023-07-05 17:49:43,52.2063701996134,0.086724184676946,39.37008,39.37008,53.750575538916,93.120655538916,38.385828,0,0.253629929376,1.33949807436,15,4,16.491,93.120655538916,39.37008,0,0.49638124948,0,0,-2.460634,277.9, -5.2, -4.6,0,0,1024,1024,1024,1024,0,0,0,0,278.1,-0.3,0,100,4.106,4.105,4.109,4.113,0,0,12.344,70.88,93.120655538916,39.37008,6,P-GPS,
6900,2023-07-05 17:49:43,52.2063702466441,0.0867243476527169,39.37008,39.37008,53.750575538916,93.120655538916,38.385828,0,0.235105322484,1.37977694704,16,4,16.676,93.120655538916,39.37008,0,0.49638124948,0,0,-0.447388,277.8, -5.2, -4.6,0,0,1024,1024,1024,1024,0,0,0,0,278.1,-2.2,0,100,4.242,4.241,4.24,4.238,0,0,11.423,71.06,93.120655538916,39.37008,6,P-GPS,
7100,2023-07-05 17:49:43,52.2063702441886,0.086724325112903,39.37008,39.37008,53.750575538916,93.120655538916,38.057744,0,0.238307422324,1.38489505744,15,4,16.676,93.120655538916,39.37008,0,0.49638124948,0,0,0,277.9, -4, -3.9,0,0,1024,1024,1024,1024,0,0,0,0,278.1,-4.9,0,100,4.242,4.241,4.24,4.238,0,0,11.423,71.06,93.120655538916,39.37008,6,P-GPS,
7300,2023-07-05 17:49:44,52.2063702126573,0.0867240809771012,39.37008,39.37008,53.750575538916,93.120655538916,37.72966,0,0.275763132184,1.44067917996,15,4,16.676,93.120655538916,39.37008,0,0.49638124948,0,0,0,277.7, -3.5, -3.4,0,0,1024,1024,1024,1024,0,0,0,0,278.1,-7.7,0,100,4.242,4.241,4.24,4.238,0,0,11.423,71.06,93.120655538916,39.37008,6,P-GPS,
7500,2023-07-05 17:49:44,52.2063702014523,0.086723726076807,39.37008,39.37008,53.750575538916,93.120655538916,37.72966,0.223694,0.34425526036,1.52013456308,15,5,16.676,93.120655538916,39.37008,0.223694,0.49638124948,0,-0.223694,0,277.7, -2.4, -3.6,0,0,1024,1024,1024,1024,0,0,0,0,278.1,-10.7,0,100,4.242,4.241,4.24,4.238,0,0,11.423,71.06,93.120655538916,39.37008,6,P-GPS,
7700,2023-07-05 17:49:44,52.2063702213707,0.086723317789895,39.37008,39.37008,53.750575538916,93.120655538916,37.72966,0.223694,0.43169620804,1.61171265,15,5,16.676,93.120655538916,39.37008,0.223694,0.49638124948,0,-0.223694,0,278.6, -1.8, -4.1,0,0,1024,1024,1024,1024,0,0,0,0,278.1,-13.6,0,100,4.242,4.241,4.24,4.238,0,0,11.423,71.06,93.120655538916,39.37008,6,P-GPS,
7900,2023-07-05 17:49:44,52.2063702359072,0.0867229768603635,39.041996,39.041996,53.750575538916,92.792571538916,37.72966,0,0.50560369072,1.6881234136,17,5,17.153,93.120655538916,39.37008,0.223694,0.50560369072,0,0,0,279.2, -1.9, -2.8,0,0,1024,1024,1024,1024,0,0,0,0,278.1,-16.5,0,100,4.267,4.258,4.256,4.25,0,0,3.619,71.06,92.792571538916,39.041996,6,P-GPS,
8100,2023-07-05 17:49:44,52.2063703045679,0.0867227136500802,39.041996,39.041996,53.750575538916,92.792571538916,37.72966,0,0.56930119932,1.7520833894,17,5,17.153,93.120655538916,39.37008,0.223694,0.56930119932,0,0,0,280, -1.7, -3.6,0,0,1024,1024,1024,1024,0,0,0,0,278.1,-19.4,0,100,4.267,4.258,4.256,4.25,0,0,3.619,71.06,92.792571538916,39.041996,6,P-GPS,
8300,2023-07-05 17:49:45,52.2063704144612,0.0867224719638581,39.37008,39.37008,53.750575538916,93.120655538916,37.72966,0,0.63350067644,1.81937013696,17,5,17.153,93.120655538916,39.37008,0.223694,0.63350067644,0,0,0,280.9, -1.5, -3.7,0,0,1024,1024,1024,1024,0,0,0,0,278.1,-22.3,0,100,4.267,4.258,4.256,4.25,0,0,3.619,71.06,93.120655538916,39.37008,6,P-GPS,
8500,2023-07-05 17:49:45,52.2063705035382,0.0867222584701371,39.37008,39.37008,53.750575538916,93.120655538916,37.72966,0,0.68963912968,1.87711948264,17,5,17.153,93.120655538916,39.37008,0.223694,0.68963912968,0,0,0,279.2, -1.1, -2.7,0,0,1024,1024,1024,1024,0,0,0,0,278.1,-25.3,0,100,4.267,4.258,4.256,4.25,0,0,3.619,71.06,93.120655538916,39.37008,6,P-GPS,
8700,2023-07-05 17:49:45,52.2063706004865,0.0867221576023662,39.041996,39.041996,53.750575538916,92.792571538916,37.72966,0,0.72390750348,1.91906830288,17,5,17.153,93.120655538916,39.37008,0.223694,0.72390750348,0,0,0,278.2, -1.4, -2.6,0,0,1024,1024,1024,1024,0,0,0,0,278.1,-28.2,0,100,4.267,4.258,4.256,4.25,0,0,3.619,71.06,92.792571538916,39.041996,6,P-GPS,
8900,2023-07-05 17:49:45,52.2063707403927,0.086722102627546,39.041996,39.041996,53.750575538916,92.792571538916,37.72966,0,0.75649936804,1.9715715854,18,5,16.924,93.120655538916,39.37008,0.223694,0.75649936804,0,0,0,278.1, -2.2, -2.5,0,0,1024,1024,1024,1024,0,0,0,0,278.1,-31.1,0,100,4.225,4.225,4.229,4.226,0,0,6.427,71.06,92.792571538916,39.041996,6,P-GPS,
9100,2023-07-05 17:49:45,52.2063709302242,0.0867220205565233,39.041996,39.041996,53.750575538916,92.792571538916,37.72966,0,0.8055446452,2.04322185016,18,5,16.924,93.120655538916,39.37008,0.223694,0.8055446452,0,0,0,278.1, -2.8, -2.3,0,0,1024,1024,1024,1024,0,0,0,0,278.1,-34,0,100,4.225,4.225,4.229,4.226,0,0,6.427,71.06,92.792571538916,39.041996,6,P-GPS,
9300,2023-07-05 17:49:46,52.2063711634259,0.0867219540514553,39.041996,39.041996,53.750575538916,92.792571538916,38.057744,0,0.86377299352,2.12959652484,18,5,16.924,93.120655538916,39.37008,0.223694,0.86377299352,0,0,0,278.1, -2.9, -2.9,0,0,1024,1024,1024,1024,0,0,0,0,278.1,-36.9,0,100,4.225,4.225,4.229,4.226,0,0,6.427,71.06,92.792571538916,39.041996,6,P-GPS,
9500,2023-07-05 17:49:46,52.2063713904549,0.0867218715721875,39.041996,39.041996,53.750575538916,92.792571538916,38.057744,0,0.92780842864,2.21445545144,18,5,16.924,93.120655538916,39.37008,0.223694,0.92780842864,0,0,0,278.1, -3, -3.2,0,0,1024,1024,1024,1024,0,0,0,0,278.1,-39.9,0,100,4.225,4.225,4.229,4.226,0,0,6.427,71.06,92.792571538916,39.041996,6,P-GPS,
9700,2023-07-05 17:49:46,52.2063715874352,0.0867217619172088,39.041996,39.041996,53.750575538916,92.792571538916,38.057744,0,0.99237535984,2.29039049324,18,5,16.924,93.120655538916,39.37008,0.223694,0.99237535984,0,0,0,278.2, -2.8, -3.2,0,0,1024,1024,1024,1024,0,0,0,0,278.1,-42.8,0,100,4.225,4.225,4.229,4.226,0,0,6.427,71.06,92.792571538916,39.041996,6,P-GPS,
9900,2023-07-05 17:49:46,52.2063717284173,0.0867216223661958,39.041996,39.041996,53.750575538916,92.792571538916,38.057744,0,1.04970147716,2.35055125632,18,5,16.903,93.120655538916,39.37008,0.223694,1.04970147716,0,0,0,278.1, -2.6, -2.8,0,0,1024,1024,1024,1024,0,0,0,0,278.1,-45.7,0,100,4.228,4.227,4.229,4.225,0,0,6.678,71.42,92.792571538916,39.041996,6,P-GPS,
10100,2023-07-05 17:49:46,52.2063718249832,0.0867214883794607,39.041996,39.041996,53.750575538916,92.792571538916,38.057744,0,1.09551512692,2.39679797696,18,5,16.903,93.120655538916,39.37008,0.223694,1.09551512692,0,0,0,278.1, -2.8, -2.1,0,0,1024,1024,1024,1024,0,0,0,0,278.1,-48.6,0,100,4.228,4.227,4.229,4.225,0,0,6.678,71.42,92.792571538916,39.041996,6,P-GPS,
10300,2023-07-05 17:49:47,52.2063719307541,0.0867213427696451,39.041996,39.041996,53.750575538916,92.792571538916,38.057744,0,1.14554465608,2.44728682372,18,5,16.903,93.120655538916,39.37008,0.223694,1.14554465608,0,0,0,278.1, -2.8, -1.4,0,0,1024,1024,1024,1024,0,0,0,0,278.1,-51.5,0,100,4.228,4.227,4.229,4.225,0,0,6.678,71.42,92.792571538916,39.041996,6,P-GPS,
10500,2023-07-05 17:49:47,52.2063720498762,0.0867211806568114,39.041996,39.041996,53.750575538916,92.792571538916,38.057744,0,1.20162733504,2.50387803288,18,5,16.903,93.120655538916,39.37008,0.223694,1.20162733504,0,0,0,278, -2.5, -1.6,0,0,1024,1024,1024,1024,0,0,0,0,278.1,-54.4,0,100,4.228,4.227,4.229,4.225,0,0,6.678,71.42,92.792571538916,39.041996,6,P-GPS,
10700,2023-07-05 17:49:47,52.2063721643,0.0867210573065098,38.713912,38.713912,53.750575538916,92.464487538916,38.057744,0,1.25025594552,2.55391412372,18,5,16.903,93.120655538916,39.37008,0.223694,1.25025594552,0,0,0,278.1, -2.6, -1.9,0,0,1024,1024,1024,1024,0,0,0,0,278.1,-57.4,0,100,4.228,4.227,4.229,4.225,0,0,6.678,71.42,92.464487538916,38.713912,6,P-GPS,
10900,2023-07-05 17:49:47,52.20637224367,0.0867209559463984,38.713912,38.713912,53.750575538916,92.464487538916,38.057744,0,1.2866142144,2.59068577844,18,5,16.898,93.120655538916,39.37008,0.223694,1.2866142144,0,0,0,278.1, -2.6, -1.9,0,0,1024,1024,1024,1024,0,0,0,0,278.1,-60.3,0,99,4.227,4.227,4.227,4.225,0,0,6.733,71.42,92.464487538916,38.713912,6,P-GPS,
11100,2023-07-05 17:49:47,52.2063723214254,0.0867208744411086,38.713912,38.713912,53.750575538916,92.464487538916,38.057744,0,1.31937668264,2.62440297112,19,5,16.898,93.120655538916,39.37008,0.223694,1.31937668264,0,0,0,278, -2.8, -2,0,0,1024,1024,1024,1024,0,0,0,0,278.1,-63.2,0,99,4.227,4.227,4.227,4.225,0,0,6.733,71.42,92.464487538916,38.713912,6,P-GPS,
11300,2023-07-05 17:49:48,52.2063724115889,0.0867208273706035,38.713912,38.713912,53.750575538916,92.464487538916,38.057744,0,1.34984584372,2.6589403738,19,5,16.898,93.120655538916,39.37008,0.223694,1.34984584372,0,0,0,278.1, -2.9, -2.1,0,0,1024,1024,1024,1024,0,0,0,0,278.1,-66.1,0,99,4.227,4.227,4.227,4.225,0,0,6.733,71.42,92.464487538916,38.713912,6,P-GPS,
11500,2023-07-05 17:49:48,52.2063725016589,0.0867207548344734,38.713912,38.713912,53.750575538916,92.464487538916,38.057744,0,1.38450135664,2.6955873566,19,5,16.898,93.120655538916,39.37008,0.223694,1.38450135664,0,0,0,278, -2.2, -2.3,0,0,1024,1024,1024,1024,0,0,0,0,278.1,-69,0,99,4.227,4.227,4.227,4.225,0,0,6.733,71.42,92.464487538916,38.713912,6,P-GPS,
11700,2023-07-05 17:49:48,52.2063726136088,0.0867206724050076,38.713912,38.713912,53.750575538916,92.464487538916,38.057744,0,1.42650267032,2.74039706932,19,5,16.898,93.120655538916,39.37008,0.223694,1.42650267032,0,0,0,278.2, -1.6, -2.8,0,0,1024,1024,1024,1024,0,0,0,0,278.1,-72,0,99,4.227,4.227,4.227,4.225,0,0,6.733,71.42,92.464487538916,38.713912,6,P-GPS,
11900,2023-07-05 17:49:48,52.206372764989,0.0867206252047552,38.713912,38.713912,53.750575538916,92.464487538916,38.057744,0,1.47369755372,2.79662738608,19,5,16.901,93.120655538916,39.37008,0.223694,1.47369755372,0,0,0,278.1, -1.3, -3.5,0,0,1024,1024,1024,1024,0,0,0,0,278.1,-74.9,0,99,4.225,4.227,4.228,4.225,0,0,6.614,71.42,92.464487538916,38.713912,6,P-GPS,
12100,2023-07-05 17:49:48,52.2063728912952,0.0867206701717825,38.713912,38.713912,53.750575538916,92.464487538916,38.057744,0,1.50094492992,2.84379602276,19,5,16.901,93.120655538916,39.37008,0.223694,1.50094492992,0,0,0,278.2, -1.5, -3.2,0,0,1024,1024,1024,1024,0,0,0,0,278.1,-77.8,0,99,4.225,4.227,4.228,4.225,0,0,6.614,71.42,92.464487538916,38.713912,6,P-GPS,
12300,2023-07-05 17:49:49,52.2063729938635,0.0867208272873818,38.713912,38.713912,53.750575538916,92.464487538916,38.057744,0,1.5064140902,2.89512148372,19,5,16.901,93.120655538916,39.37008,0.223694,1.5064140902,0,0,0,278.2, -2.2, -3.3,0,0,1024,1024,1024,1024,0,0,0,0,278.1,-80.7,0,99,4.225,4.227,4.228,4.225,0,0,6.614,71.42,92.464487538916,38.713912,6,P-GPS,
12500,2023-07-05 17:49:49,52.2063730707528,0.0867210305604501,38.713912,38.713912,53.750575538916,92.464487538916,38.057744,0,1.49987865692,2.94853027808,19,5,16.901,93.120655538916,39.37008,0.223694,1.5064140902,0,0,0,278.2, -2.8, -3.2,0,0,1024,1024,1024,1024,0,0,0,0,278.1,-83.6,0,99,4.225,4.227,4.228,4.225,0,0,6.614,71.42,92.464487538916,38.713912,6,P-GPS,
12700,2023-07-05 17:49:49,52.2063731250727,0.0867212140236934,38.713912,38.713912,53.750575538916,92.464487538916,38.057744,0,1.49114178,2.99408802232,19,5,16.901,93.120655538916,39.37008,0.223694,1.5064140902,0,0,0,278.1, -3.2, -3.2,0,0,1024,1024,1024,1024,0,0,0,0,278.1,-86.5,0,99,4.225,4.227,4.228,4.225,0,0,6.614,71.42,92.464487538916,38.713912,6,P-GPS,
12900,2023-07-05 17:49:49,52.2063731697274,0.0867213442556222,38.713912,38.713912,53.750575538916,92.464487538916,38.057744,0,1.4875820686,3.02745416512,19,5,16.897,93.120655538916,39.37008,0.223694,1.5064140902,0,0,0,278.1, -3.1, -2.9,0,0,1024,1024,1024,1024,0,0,0,0,278.1,-89.5,0,99,4.223,4.223,4.224,4.221,0,0,6.62,71.6,92.464487538916,38.713912,6,P-GPS,
13100,2023-07-05 17:49:49,52.206373199658,0.086721392773224,38.713912,38.713912,53.750575538916,92.464487538916,38.057744,0,1.49045936528,3.0428478664,20,5,16.897,93.120655538916,39.37008,0.223694,1.5064140902,0,0,0,278.1, -3.2, -2.7,0,0,1024,1024,1024,1024,0,0,0,0,278.1,-89.9,0,99,4.223,4.223,4.224,4.221,0,0,6.62,71.6,92.464487538916,38.713912,6,P-GPS,
13300,2023-07-05 17:49:50,52.2063732269217,0.0867213479601897,38.713912,38.713912,53.750575538916,92.464487538916,38.057744,0,1.50431763344,3.05696532092,20,5,16.897,93.120655538916,39.37008,0.223694,1.5064140902,0,0,0,278.1, -2.9, -2.4,0,0,1024,1024,1024,1024,0,0,0,0,278.1,-90,0,99,4.223,4.223,4.224,4.221,0,0,6.62,71.6,92.464487538916,38.713912,6,P-GPS,
13500,2023-07-05 17:49:50,52.2063732753027,0.0867212151861762,39.041996,39.041996,53.750575538916,92.792571538916,38.057744,0,1.535679183,3.0915027236,20,5,16.897,93.120655538916,39.37008,0.223694,1.535679183,0,0,0,278, -2.6, -2.5,0,0,1024,1024,1684,1024,0,0,100,0,278.1,-90,0,99,4.223,4.223,4.224,4.221,0,0,6.62,71.6,92.792571538916,39.041996,6,P-GPS,
13700,2023-07-05 17:49:50,52.2063733551613,0.0867210006773032,39.041996,39.041996,53.750575538916,92.792571538916,38.057744,0,1.58713259672,3.1476214918,20,5,16.897,93.120655538916,39.37008,0.223694,1.58713259672,0,0,0,278.1, -2, -2.6,0,0,1024,1024,1684,1024,0,0,100,0,278.1,-90,0,99,4.223,4.223,4.224,4.221,0,0,6.62,71.6,92.792571538916,39.041996,6,P-GPS,
13900,2023-07-05 17:49:50,52.206373452729,0.0867207537021339,39.37008,39.37008,53.750575538916,93.120655538916,38.385828,0,1.64839900288,3.2133203128,20,5,16.881,93.120655538916,39.37008,0.223694,1.64839900288,0,0,-1.565858,278.1, -1.1, -2.2,0,0,1024,1024,1684,1024,0,0,100,0,278.1,-89.9,0,99,4.22,4.22,4.221,4.219,0,0,6.78,71.6,93.120655538916,39.37008,6,P-GPS,
14100,2023-07-05 17:49:50,52.2063735697516,0.0867205632663966,40.354332,40.354332,53.750575538916,94.104907538916,39.37008,0,1.70806107828,3.27361887116,20,5,16.881,94.104907538916,40.354332,0.223694,1.70806107828,0,0,-4.026492,278.4, -2.4, -2.4,0,0,1024,1024,1684,1024,0,0,100,0,278.1,-89.9,0,99,4.22,4.22,4.221,4.219,0,0,6.78,71.6,94.104907538916,40.354332,6,P-GPS,
14300,2023-07-05 17:49:51,52.2063736775942,0.0867203434003172,41.994752,41.994752,53.750575538916,95.745327538916,41.0105,0,1.76906829808,3.3365814716,20,5,16.881,95.745327538916,41.994752,0.223694,1.76906829808,0,0,-6.487126,278.4, -2.1, -3.1,0,0,1024,1024,1684,1024,0,0,100,0,278.1,-90,0,99,4.22,4.22,4.221,4.219,0,0,6.78,71.6,95.745327538916,41.994752,6,P-GPS,
14500,2023-07-05 17:49:51,52.2063736814351,0.0867199958184005,44.947508,44.947508,53.750575538916,98.698083538916,43.307088,0,1.81825137052,3.4143045712,21,5,16.881,98.698083538916,44.947508,0.223694,1.81825137052,0,0,-8.94776,278.2, -1.6, -1.6,0,0,1024,1024,1678,1024,0,0,99,0,278.1,-90,0,99,4.22,4.22,4.221,4.219,0,0,6.78,71.6,98.698083538916,44.947508,6,P-GPS,
14700,2023-07-05 17:49:51,52.206373627138,0.0867197025551412,48.556432,48.556432,53.750575538916,102.30700753892,46.259844,0,1.84540360236,3.4828085104,20,5,16.881,102.30700753892,48.556432,0.223694,1.84540360236,0,0,-11.408394,277.5, -1.5, -1.2,0,0,1024,1024,1644,1024,0,0,94,0,278.1,-89.9,0,99,4.22,4.22,4.221,4.219,0,0,6.78,71.6,102.30700753892,48.556432,6,P-GPS,
14900,2023-07-05 17:49:51,52.2063736072666,0.0867195205433632,52.821524,52.821524,53.750575538916,106.57209953892,49.868768,0,1.86705714636,3.5241470944,20,5,16.875,106.57209953892,52.821524,0.223694,1.86705714636,0,0,-12.526864,275.3, -1.5, -1.5,0,0,1024,1024,1620,1024,0,0,90,0,278.1,-89.9,0,99,4.149,4.155,4.16,4.151,0,0,6.748,71.6,106.57209953892,52.821524,6,P-GPS,
15100,2023-07-05 17:49:51,52.2063735630137,0.0867194115731615,56.758532,56.758532,53.750575538916,110.50910753892,53.149608,0,1.87169953496,3.5533793788,21,5,16.875,110.50910753892,56.758532,0.223694,1.87169953496,0,0,-12.079476,274.4, -1.9, -1.5,0,0,1024,1024,1684,1024,0,0,100,0,278.1,-89.9,0,99,4.149,4.155,4.16,4.151,0,0,6.748,71.6,110.50910753892,56.758532,6,P-GPS,
15300,2023-07-05 17:49:52,52.2063734986438,0.0867193812206092,60.039372,60.039372,53.750575538916,113.78994753892,56.430448,0,1.85931108312,3.5778216368,21,5,16.875,113.78994753892,60.039372,0.223694,1.87169953496,0,0,-11.1847,274.3, -2.5, -1.4,0,0,1024,1024,1684,1024,0,0,100,0,278.1,-90,0,99,4.149,4.155,4.16,4.151,0,0,6.748,71.6,113.78994753892,60.039372,6,P-GPS,
15500,2023-07-05 17:49:52,52.2063734271476,0.0867193739853443,63.320212,63.320212,53.750575538916,117.07078753892,59.711288,0,1.84169297232,3.6039699316,21,5,16.875,117.07078753892,63.320212,0.223694,1.87169953496,0,0,-11.855782,274.4, -0.9, -1.4,0,0,1024,1024,1684,1024,0,0,100,0,278.1,-89.9,0,99,4.149,4.155,4.16,4.151,0,0,6.748,71.6,117.07078753892,63.320212,6,P-GPS,
15700,2023-07-05 17:49:52,52.2063733015343,0.0867195564802888,66.929136,66.929136,53.750575538916,120.67971153892,63.320212,0.3131716,1.78040031944,3.6653216396,21,5,16.875,120.67971153892,66.929136,0.3131716,1.87169953496,-0.223694,0.223694,-12.974252,274.1, -6.2, 2.5,0,0,1024,1024,1684,1024,0,0,100,0,278.1,-89.9,0,99,4.149,4.155,4.16,4.151,0,0,6.748,71.6,120.67971153892,66.929136,6,P-GPS,
15900,2023-07-05 17:49:52,52.2063734176943,0.0867194265644277,71.194228,71.194228,53.750575538916,124.94480353892,67.25722,0,1.83101711896,3.716699594,21,5,16.42,124.94480353892,71.194228,0.3131716,1.87169953496,0,0,-13.42164,274, -7.2, 3.4,0,0,1024,1024,1684,1024,0,0,100,0,278.1,-90,0,99,4.135,4.147,4.153,4.15,0,0,12.699,71.6,124.94480353892,71.194228,6,P-GPS,
16100,2023-07-05 17:49:52,52.2063738564144,0.0867188375015036,75.131236,75.131236,53.750575538916,128.88181153892,70.53806,0.223694,2.03767066888,3.9239830652,21,5,16.42,128.88181153892,75.131236,0.3131716,2.03767066888,0.223694,0,-13.42164,274.2, -6, 2.7,0,0,1024,1024,1684,1024,0,0,100,0,278.1,-89.9,0,99,4.135,4.147,4.153,4.15,0,0,12.699,71.6,128.88181153892,75.131236,6,P-GPS,
16300,2023-07-05 17:49:53,52.2063745197052,0.0867179794275681,79.068244,79.068244,53.750575538916,132.81881953892,74.146984,0.4921268,2.34535440576,4.2328085344,21,5,16.42,132.81881953892,79.068244,0.4921268,2.34535440576,0.447388,-0.223694,-13.42164,274.3, -4.4, 0.4,0,0,1024,1024,1684,1024,0,0,100,0,278.1,-89.9,0,99,4.135,4.147,4.153,4.15,0,0,12.699,71.6,132.81881953892,79.068244,6,P-GPS,
16500,2023-07-05 17:49:53,52.2063754425056,0.0867171362833017,83.005252,83.005252,53.750575538916,136.75582753892,78.083992,0.447388,2.72170612384,4.6186681268,21,5,16.42,136.75582753892,83.005252,0.4921268,2.72170612384,0.447388,0,-13.42164,280.4, -4.3, -1.8,0,0,1024,1024,1684,1024,0,0,100,0,278.1,-89.9,0,99,4.135,4.147,4.153,4.15,0,0,12.699,71.6,136.75582753892,83.005252,6,P-GPS,
16700,2023-07-05 17:49:53,52.2063763246538,0.0867162138840081,86.94226,86.94226,53.750575538916,140.69283553892,82.021,0.4921268,3.10035442992,5.0009516036,21,5,16.42,140.69283553892,86.94226,0.4921268,3.10035442992,0.447388,-0.223694,-13.197946,281.1, -3.7, -3.2,0,0,1024,1024,1684,1024,0,0,100,0,278.1,-89.9,0,99,4.135,4.147,4.153,4.15,0,0,12.699,71.6,140.69283553892,86.94226,6,P-GPS,
16900,2023-07-05 17:49:53,52.2063772295022,0.0867151966237599,90.551184,90.551184,53.750575538916,144.30175953892,83.66142,0.4921268,3.4996392196,5.4018374432,21,5,16.475,144.30175953892,90.551184,0.4921268,3.4996392196,0.447388,-0.223694,-13.42164,281.4, -2.7, -4.7,0,0,1024,1024,1684,1024,0,0,100,0,278.1,-90,0,99,4.126,4.13,4.134,4.129,0,0,11.651,71.6,144.30175953892,90.551184,6,P-GPS,
17100,2023-07-05 17:49:53,52.2063779712228,0.0867142607923512,94.160108,94.160108,53.750575538916,147.91068353892,83.66142,0.3131716,3.8415683644,5.7438978216,21,5,16.475,147.91068353892,94.160108,0.4921268,3.8415683644,0.223694,-0.223694,-13.42164,281.5, -1.2, -6.1,0,0,1024,1024,1684,1024,0,0,100,0,278.1,-90,0,99,4.126,4.13,4.134,4.129,0,0,11.651,71.6,147.91068353892,94.160108,6,P-GPS,
17300,2023-07-05 17:49:54,52.2063784502188,0.0867135159156687,97.769032,97.769032,53.750575538916,151.51960753892,83.66142,0,4.0823164036,5.9853020288,21,5,16.475,151.51960753892,97.769032,0.4921268,4.0823164036,0,0,-13.42164,281.4, -1.1, -4.6,0,0,1024,1024,1684,1024,0,0,100,0,278.1,-89.9,0,99,4.126,4.13,4.134,4.129,0,0,11.651,71.6,151.51960753892,97.769032,6,P-GPS,
17500,2023-07-05 17:49:54,52.2063787849562,0.0867129254434362,101.377956,101.377956,53.750575538916,155.12853153892,83.66142,0,4.2606300576,6.1651576776,21,5,16.475,155.12853153892,101.377956,0.4921268,4.2606300576,0,0,-13.42164,281.4, -1.7, -3.6,0,0,1024,1024,1684,1024,0,0,100,0,278.1,-89.9,0,99,4.126,4.13,4.134,4.129,0,0,11.651,71.6,155.12853153892,101.377956,6,P-GPS,
17700,2023-07-05 17:49:54,52.2063790154108,0.0867125132744826,104.98688,104.98688,53.750575538916,158.73745553892,83.66142,0,4.3842521088,6.2899280228,21,5,16.475,158.73745553892,104.98688,0.4921268,4.3842521088,0,0,-13.197946,281.4, -2.1, -3,0,0,1024,1024,1684,1024,0,0,100,0,278.1,-89.9,0,99,4.126,4.13,4.134,4.129,0,0,11.651,71.6,158.73745553892,104.98688,6,P-GPS,
17900,2023-07-05 17:49:54,52.206379245685,0.0867121808472174,108.923888,108.923888,53.750575538916,162.67446353892,83.66142,0,4.49639122,6.4020999424,21,5,16.554,162.67446353892,108.923888,0.4921268,4.49639122,0,0,-13.42164,281.6, -1.8, -4.6,0,0,1024,1024,1684,1024,0,0,100,0,278.1,-90,0,99,4.142,4.148,4.153,4.144,0,0,11.315,71.78,162.67446353892,108.923888,6,P-GPS,
18100,2023-07-05 17:49:54,52.2063793744606,0.0867119156665891,112.532812,112.532812,53.750575538916,166.28338753892,83.66142,0.223694,4.570538204,6.4777233044,21,5,16.554,166.28338753892,112.532812,0.4921268,4.570538204,-0.223694,0,-13.197946,281.4, -1.1, -5.3,0,0,1024,1024,1684,1024,0,0,100,0,278.1,-90,0,99,4.142,4.148,4.153,4.144,0,0,11.315,71.78,166.28338753892,112.532812,6,P-GPS,
18300,2023-07-05 17:49:55,52.2063793217088,0.0867116841328696,116.46982,116.46982,53.750575538916,170.22039553892,83.66142,0.223694,4.5896326928,6.53297265,21,5,16.554,170.22039553892,116.46982,0.4921268,4.5896326928,-0.223694,0,-13.197946,281.4, -1.5, -3.3,0,0,1024,1024,1684,1024,0,0,100,0,278.1,-90,0,99,4.142,4.148,4.153,4.144,0,0,11.315,71.78,170.22039553892,116.46982,6,P-GPS,
18500,2023-07-05 17:49:55,52.2063792045499,0.0867114555217393,120.406828,120.406828,53.750575538916,174.15740353892,83.66142,0.223694,4.5913059212,6.5996065104,21,5,16.554,174.15740353892,120.406828,0.4921268,4.5913059212,-0.223694,0,-13.197946,281.2, -1.3, -2,0,0,1024,1024,1135,1024,0,0,17,0,278.1,-89.9,0,99,4.142,4.148,4.153,4.144,0,0,11.315,71.78,174.15740353892,120.406828,6,P-GPS,
18700,2023-07-05 17:49:55,52.2063791182212,0.0867113144886809,124.343836,124.343836,53.750575538916,178.09441153892,83.66142,0.223694,4.5890421416,6.6441603176,21,5,16.554,178.09441153892,124.343836,0.4921268,4.5913059212,-0.223694,0,-13.197946,281.4, -1.5, -2.6,0,0,1024,1024,1024,1024,0,0,0,0,278.1,-89.9,0,99,4.142,4.148,4.153,4.144,0,0,11.315,71.78,178.09441153892,124.343836,6,P-GPS,
18900,2023-07-05 17:49:55,52.2063790563135,0.0867112681684817,127.95276,127.95276,53.750575538916,181.70333553892,83.66142,0.223694,4.5793636636,6.6690290848,20,5,16.611,181.70333553892,127.95276,0.4921268,4.5913059212,-0.223694,0,-11.855782,281.3, -3, -3.4,0,0,1024,1024,1024,1024,0,0,0,0,278.1,-89.9,0,99,4.151,4.153,4.152,4.144,0,0,10.511,71.96,181.70333553892,127.95276,6,P-GPS,
19100,2023-07-05 17:49:55,52.2063790348791,0.0867112731259619,130.905516,130.905516,53.750575538916,184.65609153892,83.66142,0.223694,4.5728676004,6.6769031008,20,5,16.611,184.65609153892,130.905516,0.4921268,4.5913059212,0,0.223694,-9.618842,281.4, -3.1, -4,0,0,1024,1024,1024,1024,0,0,0,0,278.1,-90,0,99,4.151,4.153,4.152,4.144,0,0,10.511,71.96,184.65609153892,130.905516,6,P-GPS,
19300,2023-07-05 17:49:56,52.2063790068482,0.0867113256574276,133.202104,133.202104,53.750575538916,186.95267953892,83.66142,0.223694,4.5573820356,6.6924870908,21,5,16.611,186.95267953892,133.202104,0.4921268,4.5913059212,0,0.223694,-7.158208,281.4, -3.5, -3.9,0,0,1024,1024,1024,1024,0,0,0,0,278.1,-90,0,99,4.151,4.153,4.152,4.144,0,0,10.511,71.96,186.95267953892,133.202104,6,P-GPS,
19500,2023-07-05 17:49:56,52.2063789865093,0.086711412242955,134.51444,134.51444,53.750575538916,188.26501553892,83.66142,0.223694,4.5388124812,6.7132219996,21,5,16.611,188.26501553892,134.51444,0.4921268,4.5913059212,0,0.223694,-4.697574,281.4, -3.6, -4.8,0,0,1684,1024,1024,1024,100,0,0,0,278.1,-90,0,99,4.151,4.153,4.152,4.144,0,0,10.511,71.96,188.26501553892,134.51444,6,P-GPS,
19700,2023-07-05 17:49:56,52.2063790019073,0.0867115463465501,135.498692,135.498692,53.750575538916,189.24926753892,83.66142,0.223694,4.5227691736,6.7437338116,21,5,16.611,189.24926753892,135.498692,0.4921268,4.5913059212,0,0.223694,-2.23694,281.3, -9.9, -2,0,0,1684,1024,1024,1024,100,0,0,0,278.1,-89.9,0,99,4.151,4.153,4.152,4.144,0,0,10.511,71.96,189.24926753892,135.498692,6,P-GPS,
19900,2023-07-05 17:49:56,52.2063791708788,0.0867113346811948,135.826776,135.826776,53.750575538916,189.57735153892,83.66142,0.6263432,4.600229806,6.8214569112,20,5,16.544,189.57735153892,135.826776,0.6263432,4.600229806,0.447388,-0.447388,-0.223694,281.7, -27.4, -4.2,0,0,1684,1024,1024,1024,100,0,0,0,278.1,-89.9,0,99,4.206,4.206,4.209,4.208,0,0,10.889,71.96,189.57735153892,135.826776,6,P-GPS,
20100,2023-07-05 17:49:56,52.2063796187427,0.086709314430273,135.826776,135.826776,53.750575538916,189.57735153892,83.66142,2.7066974,5.0294292948,7.3018046956,21,5,16.544,189.57735153892,135.826776,2.7066974,5.0294292948,1.11847,-2.460634,0,282.1, -27.2, -6.7,0,0,1684,1024,1024,1024,100,0,0,0,278.1,-89.9,0,99,4.206,4.206,4.209,4.208,0,0,10.889,71.96,189.57735153892,135.826776,6,P-GPS,
20300,2023-07-05 17:49:57,52.2063802577568,0.0867047347338763,135.826776,135.826776,53.750575538916,189.57735153892,83.66142,4.6752046,5.942093366,8.3519687712,21,5,16.544,189.57735153892,135.826776,4.6752046,5.942093366,1.342164,-4.47388,0,281.9, -27.4, -9.8,0,0,1684,1024,1024,1024,100,0,0,0,278.1,-90,0,99,4.206,4.206,4.209,4.208,0,0,10.889,71.96,189.57735153892,135.826776,6,P-GPS,
20500,2023-07-05 17:49:57,52.2063813386037,0.0866977324548034,136.15486,136.15486,53.750575538916,189.90543553892,83.66142,6.7331894,7.4296590304,9.9664701352,21,5,16.544,189.90543553892,136.15486,6.7331894,7.4296590304,1.789552,-6.487126,0,285.4, -27.2, -11.5,0,0,1684,1024,1024,1024,100,0,0,0,278.1,-90,0,99,4.206,4.206,4.209,4.208,0,0,10.889,71.96,189.90543553892,136.15486,6,P-GPS,
20700,2023-07-05 17:49:57,52.2063823592499,0.0866883196171718,136.15486,136.15486,53.750575538916,189.90543553892,83.66142,8.5227414,9.4172903276,12.1037405448,21,5,16.544,189.90543553892,136.15486,8.5227414,9.4172903276,2.013246,-8.276678,0,286.2, -23.2, -12.1,0,0,1684,1024,1024,1024,100,0,0,0,278.1,-89.9,0,99,4.206,4.206,4.209,4.208,0,0,10.889,71.96,189.90543553892,136.15486,6,P-GPS,
20900,2023-07-05 17:49:57,52.2063831307447,0.0866770301505055,136.15486,136.15486,53.750575538916,189.90543553892,83.66142,9.5741032,11.8010502464,14.6435700224,21,5,16.993,189.90543553892,136.15486,9.5741032,11.8010502464,1.789552,-9.395148,0,284.2, -14.9, -9.9,0,0,1684,1024,1024,1024,100,0,0,0,278.1,-89.9,0,99,4.202,4.194,4.181,4.174,0,0,5.143,72.14,189.90543553892,136.15486,6,P-GPS,
21100,2023-07-05 17:49:57,52.206383927014,0.0866647911857218,136.482944,136.482944,53.750575538916,190.23351953892,83.66142,9.9991218,14.440289176,17.3954073808,21,5,16.993,190.23351953892,136.482944,9.9991218,14.440289176,1.789552,-9.842536,0,284.5, -12.9, -8.4,0,0,1679,1024,1024,1024,99,0,0,0,278.1,-90,0,99,4.202,4.194,4.181,4.174,0,0,5.143,72.14,190.23351953892,136.482944,6,P-GPS,
21300,2023-07-05 17:49:58,52.2063847011475,0.086651997580785,136.482944,136.482944,53.750575538916,190.23351953892,83.66142,10.2228158,17.2301186616,20.2698169216,21,5,16.993,190.23351953892,136.482944,10.2228158,17.2301186616,1.789552,-10.06623,0,284, -11.5, -7.2,0,0,1671,1024,1024,1024,98,0,0,0,278.1,-90,0,99,4.202,4.194,4.181,4.174,0,0,5.143,72.14,190.23351953892,136.482944,6,P-GPS,
21500,2023-07-05 17:49:58,52.2063855140515,0.0866388286612249,136.482944,136.482944,53.750575538916,190.23351953892,83.66142,10.4465098,20.1283142924,23.2291017932,21,5,16.993,190.23351953892,136.482944,10.4465098,20.1283142924,1.789552,-10.289924,0,283.6, -11.1, -6.1,0,0,1639,1024,1024,1024,93,0,0,0,278.1,-89.9,0,99,4.202,4.194,4.181,4.174,0,0,5.143,72.14,190.23351953892,136.482944,6,P-GPS,
21700,2023-07-05 17:49:58,52.2063863225994,0.0866253815216579,136.811028,136.811028,53.750575538916,190.56160353892,83.66142,10.625465,23.101706776,26.2501320736,21,5,16.993,190.56160353892,136.811028,10.625465,23.101706776,1.565858,-10.513618,0,283, -10.5, -4.6,0,0,1565,1024,1024,1024,82,0,0,0,278.1,-90,0,99,4.202,4.194,4.181,4.174,0,0,5.143,72.14,190.56160353892,136.811028,6,P-GPS,
21900,2023-07-05 17:49:58,52.2063871928942,0.0866120675018787,136.811028,136.811028,53.750575538916,190.56160353892,83.66142,10.8938978,26.0626320676,29.2438657652,21,5,16.653,190.56160353892,136.811028,10.8938978,26.0626320676,1.789552,-10.737312,0,283, -10.2, -3.1,0,0,1551,1024,1024,1024,80,0,0,0,278.1,-90,0,99,4.18,4.181,4.186,4.18,0,0,8.172,72.32,190.56160353892,136.811028,6,P-GPS,
22100,2023-07-05 17:49:58,52.2063882595372,0.086597864868199,136.482944,136.482944,53.750575538916,190.23351953892,83.66142,10.8938978,29.2400927992,32.4431440828,21,5,16.653,190.56160353892,136.811028,10.8938978,29.2400927992,1.789552,-10.737312,0,282.7, -9.9, -2.6,0,0,1436,1024,1024,1024,62,0,0,0,278.1,-89.9,0,99,4.18,4.181,4.186,4.18,0,0,8.172,72.32,190.23351953892,136.482944,6,P-GPS,
22300,2023-07-05 17:49:59,52.2063894754724,0.0865838633505946,136.482944,136.482944,53.750575538916,190.23351953892,83.66142,11.1399612,32.3900272832,35.604988016,21,5,16.653,190.56160353892,136.811028,11.1399612,32.3900272832,2.013246,-10.961006,0,282.8, -9.5, -2.1,0,0,1418,1087,1024,1024,60,10,0,0,278.1,-90,0,99,4.18,4.181,4.186,4.18,0,0,8.172,72.32,190.23351953892,136.482944,6,P-GPS,
22500,2023-07-05 17:49:59,52.2063909148625,0.0865697345776026,136.482944,136.4501356,53.783383938916,190.23351953892,83.66142,11.1847,35.58727148,38.80741594,21,5,16.653,190.56160353892,136.811028,11.1847,35.58727148,2.23694,-10.961006,0,282.6, -9.6, -0.9,0,0,1327,1481,1024,1024,46,69,0,0,278.1,-90,0,99,4.18,4.181,4.186,4.18,0,0,8.172,72.32,190.23351953892,136.482944,6,P-GPS,
22700,2023-07-05 17:49:59,52.2063926135194,0.0865556284793595,136.482944,136.4501356,53.783383938916,190.23351953892,83.66142,11.072853,38.80085426,42.021654888,21,5,16.653,190.56160353892,136.811028,11.1847,38.80085426,2.684328,-10.737312,0,282, -0.7, 7.4,0,0,1299,1577,1024,1024,42,84,0,0,278.1,-89.9,0,99,4.18,4.181,4.186,4.18,0,0,8.172,72.32,190.23351953892,136.482944,6,P-GPS,
22900,2023-07-05 17:49:59,52.2063949265733,0.0865422902191274,136.15486,136.0892432,53.816192338916,189.90543553892,83.66142,10.4688792,41.895014464,45.121064436,23,5,16.79,190.56160353892,136.811028,11.1847,41.895014464,3.579104,-9.842536,0,282.2, 0.1, 14.7,0,0,1263,1617,1024,1024,36,90,0,0,278.1,-89.9,0,99,4.199,4.202,4.203,4.199,0,0,7.764,72.5,189.90543553892,136.15486,6,P-GPS,
23100,2023-07-05 17:49:59,52.2063981784787,0.0865300860318446,136.15486,136.0564348,53.849000738916,189.90543553892,83.66142,10.401771,44.820539492,48.096458232,23,5,16.79,190.56160353892,136.811028,11.1847,44.820539492,4.921268,-9.171454,0.223694,282.3, -0.2, 20.7,0,0,1241,1638,1024,1024,33,93,0,0,278.1,-90,0,99,4.199,4.202,4.203,4.199,0,0,7.764,72.5,189.90543553892,136.15486,6,P-GPS,
23300,2023-07-05 17:50:00,52.2064027382765,0.0865190855074615,135.826776,135.662734,53.914617538916,189.57735153892,83.66142,10.6478344,47.609581576,51.065946516,23,5,16.79,190.56160353892,136.811028,11.1847,47.609581576,6.71082,-8.276678,0.223694,282.4, 0.1, 22.8,0,0,1024,1405,1024,1024,0,58,0,0,278.1,-89.9,0,99,4.199,4.202,4.203,4.199,0,0,7.764,72.5,189.57735153892,135.826776,6,P-GPS,
23500,2023-07-05 17:50:00,52.206408722663,0.086509507550967,135.826776,135.5971172,53.980234338916,189.57735153892,83.66142,11.1175918,50.257219456,54.12401748,23,5,16.79,190.56160353892,136.811028,11.1847,50.257219456,8.500372,-7.158208,0,283.3, -0.2, 20.1,0,0,1024,1554,1024,1024,0,80,0,0,278.1,-89.9,0,99,4.199,4.202,4.203,4.199,0,0,7.764,72.5,189.57735153892,135.826776,6,P-GPS,
23700,2023-07-05 17:50:00,52.2064157549877,0.0865011693803998,135.826776,135.498692,54.078659538916,189.57735153892,83.66142,11.296547,52.805447884,57.295605508,23,5,16.79,190.56160353892,136.811028,11.296547,52.805447884,9.395148,-6.263432,0,284.2, 0.8, 9.1,0,0,1024,1570,1024,1024,0,83,0,0,278.1,-89.9,0,99,4.199,4.202,4.203,4.199,0,0,7.764,72.5,189.57735153892,135.826776,6,P-GPS,
23900,2023-07-05 17:50:00,52.2064232239462,0.0864938103060461,135.826776,135.4330752,54.144276338916,189.57735153892,83.66142,11.2070694,55.269358724,60.47900456,23,5,16.817,190.56160353892,136.811028,11.296547,55.269358724,9.842536,-5.368656,0,284.8, 1.4, 16.1,0,0,1024,1024,1024,1024,0,0,0,0,278.1,-89.9,0,99,4.209,4.209,4.209,4.203,0,0,6.93,72.32,189.57735153892,135.826776,6,P-GPS,
24100,2023-07-05 17:50:00,52.2064311609661,0.0864876546150021,135.826776,135.33465,54.242701538916,189.57735153892,83.66142,11.632088,57.621064836,63.685041408,23,5,16.817,190.56160353892,136.811028,11.632088,57.621064836,10.737312,-4.47388,0,285.5, 1.4, 13.2,0,0,1024,1024,1024,1024,0,0,0,0,278.1,-90,0,99,4.209,4.209,4.209,4.203,0,0,6.93,72.32,189.57735153892,135.826776,6,P-GPS,
24300,2023-07-05 17:50:01,52.206440052061,0.0864823229735383,136.15486,135.5643088,54.341126738916,189.90543553892,83.66142,11.1847,60.03281032,67.141078264,23,5,16.817,190.56160353892,136.811028,11.632088,60.03281032,10.513618,-3.802798,0,282.2, 17.5, -17,0,0,1024,1024,1024,1024,0,0,0,0,278.1,-89.9,0,99,4.209,4.209,4.209,4.203,0,0,6.93,72.32,189.90543553892,136.15486,6,P-GPS,
24500,2023-07-05 17:50:01,52.2064474081676,0.0864788009224174,136.15486,135.4658836,54.439551938916,189.90543553892,83.66142,8.8582824,61.925855,69.938322448,23,5,16.817,190.56160353892,136.811028,11.632088,61.925855,8.500372,-2.460634,0.223694,279.8, 20.8, -23.8,0,0,1024,1024,1024,1024,0,0,0,0,278.1,-90,0,99,4.209,4.209,4.209,4.203,0,0,6.93,72.32,189.90543553892,136.15486,6,P-GPS,
24700,2023-07-05 17:50:01,52.2064532394977,0.0864770544634959,136.15486,135.4002668,54.505168738916,189.90543553892,83.66142,5.8831522,63.269030896,72.10138026,22,5,16.817,190.56160353892,136.811028,11.632088,63.269030896,5.816044,-0.894776,0.223694,281.3, 13.9, -27.5,0,0,1021,1024,1024,1024,-0,0,0,0,278.1,-90,0,99,4.209,4.209,4.209,4.203,0,0,6.93,72.32,189.90543553892,136.15486,6,P-GPS,
24900,2023-07-05 17:50:01,52.2064569490194,0.086476654202455,136.15486,135.33465,54.570785538916,189.90543553892,83.66142,3.6014734,64.008532232,73.457679516,22,5,16.827,190.56160353892,136.811028,11.632088,64.008532232,3.579104,-0.447388,0.223694,283.8, 5.5, -27.6,0,0,834,1024,1024,1024,-29,0,0,0,278.1,-90,0,99,4.204,4.203,4.202,4.199,0,0,6.814,72.68,189.90543553892,136.15486,6,P-GPS,
25100,2023-07-05 17:50:01,52.2064588929189,0.0864765924130655,136.482944,135.662734,54.570785538916,190.23351953892,83.66142,1.8119214,64.375658228,74.166997124,23,5,16.827,190.56160353892,136.811028,11.632088,64.375658228,1.789552,-0.223694,0,284.1, 6.1, -15.1,0,0,1024,1024,1024,1024,0,0,0,0,278.1,-90,0,99,4.204,4.203,4.202,4.199,0,0,6.814,72.68,190.23351953892,136.482944,6,P-GPS,
25300,2023-07-05 17:50:02,52.2064597594186,0.0864769648269426,136.482944,135.6299256,54.603593938916,190.23351953892,83.66142,0.894776,64.464240908,74.494096872,23,5,16.827,190.56160353892,136.811028,11.632088,64.464240908,0.894776,0,0,284.2, 7, -9.3,0,0,1024,1024,1024,1024,0,0,0,0,278.1,-89.9,0,99,4.204,4.203,4.202,4.199,0,0,6.814,72.68,190.23351953892,136.482944,6,P-GPS,
25500,2023-07-05 17:50:02,52.2064600865117,0.0864778583406577,136.811028,135.9580096,54.603593938916,190.56160353892,83.66142,0.7158208,64.353348516,74.726708428,23,5,16.827,190.56160353892,136.811028,11.632088,64.464240908,0.671082,0.223694,0.223694,285, -1.3, -8.2,0,0,952,1024,1024,1024,-11,0,0,0,278.1,-89.9,0,99,4.204,4.203,4.202,4.199,0,0,6.814,72.68,190.56160353892,136.811028,6,P-GPS,
25700,2023-07-05 17:50:02,52.2064601330814,0.0864788324601692,136.811028,135.9580096,54.603593938916,190.56160353892,83.66142,0.3131716,64.175198904,74.945212372,23,5,16.827,190.56160353892,136.811028,11.632088,64.464240908,0.223694,0.223694,0.223694,284.9, -3.1, -7.4,0,0,621,1024,1024,1024,-61,0,0,0,278.1,-89.9,0,99,4.204,4.203,4.202,4.199,0,0,6.814,72.68,190.56160353892,136.811028,6,P-GPS,
25900,2023-07-05 17:50:02,52.2064599662837,0.0864795889188674,137.139112,136.2860936,54.603593938916,190.88968753892,83.66142,0.223694,63.998689712,75.125002404,23,5,16.724,190.88968753892,137.139112,11.632088,64.464240908,0,0.223694,0.223694,284.7, 0.5, -3.2,0,0,569,1024,1024,1024,-69,0,0,0,278.1,-89.9,0,99,4.179,4.181,4.182,4.175,0,0,7.383,72.86,190.88968753892,137.139112,6,P-GPS,
26100,2023-07-05 17:50:02,52.2064597559576,0.0864805107270902,137.139112,136.2860936,54.603593938916,190.88968753892,83.66142,0.447388,63.782482356,75.344818684,23,5,16.724,190.88968753892,137.139112,11.632088,64.464240908,0,0.447388,0.223694,284.6, 8.2, -3.1,0,0,1024,1024,1024,1024,0,0,0,0,278.1,-90,0,99,4.179,4.181,4.182,4.175,0,0,7.383,72.86,190.88968753892,137.139112,6,P-GPS,
26300,2023-07-05 17:50:03,52.2064594671929,0.0864822062167551,137.139112,136.318902,54.570785538916,190.88968753892,83.66142,1.11847,63.403217252,75.7381914,23,5,16.724,190.88968753892,137.139112,11.632088,64.464240908,0,1.11847,0.447388,284.4, -2, -2.7,0,0,1024,1024,1024,1024,0,0,0,0,278.1,-89.9,0,99,4.179,4.181,4.182,4.175,0,0,7.383,72.86,190.88968753892,137.139112,6,P-GPS,
26500,2023-07-05 17:50:03,52.2064592054996,0.086484043206918,137.139112,136.318902,54.570785538916,190.88968753892,83.66142,0.894776,63.002298604,76.15977934,23,5,16.724,190.88968753892,137.139112,11.632088,64.464240908,0,0.894776,0.447388,285.5, -10.5, -4.7,0,0,1024,1024,1024,1024,0,0,0,0,278.1,-90,0,99,4.179,4.181,4.182,4.175,0,0,7.383,72.86,190.88968753892,137.139112,6,P-GPS,
26700,2023-07-05 17:50:03,52.2064590428998,0.0864851130860037,137.139112,136.318902,54.570785538916,190.88968753892,83.66142,0.223694,62.767062376,76.406498508,25,5,16.724,190.88968753892,137.139112,11.632088,64.464240908,0,0.223694,0.447388,285.1, -7.5, -5,0,0,1024,1024,1024,1024,0,0,0,0,278.1,-90,0,99,4.179,4.181,4.182,4.175,0,0,7.383,72.86,190.88968753892,137.139112,6,P-GPS,
26900,2023-07-05 17:50:03,52.206458856304,0.0864856168792208,137.139112,136.318902,54.570785538916,190.88968753892,83.66142,0,62.635500692,76.538060192,26,5,16.783,190.88968753892,137.139112,11.632088,64.464240908,0,0,0.447388,285.1, -5.3, -4.6,0,0,1024,1024,1024,1024,0,0,0,0,278.1,-90,0,99,4.207,4.206,4.204,4.196,0,0,7.146,72.68,190.88968753892,137.139112,6,P-GPS,
27100,2023-07-05 17:50:03,52.2064586268223,0.0864858222660332,137.467196,136.646986,54.570785538916,191.21777153892,83.66142,0,62.552823524,76.633532636,26,5,16.783,191.21777153892,137.467196,11.632088,64.464240908,0,0,0.447388,284.9, -3.7, -4,0,0,1024,1024,1024,1024,0,0,0,0,278.1,-90,0,99,4.207,4.206,4.204,4.196,0,0,7.146,72.68,191.21777153892,137.467196,6,P-GPS,
27300,2023-07-05 17:50:04,52.2064583841903,0.086485859675175,137.139112,136.318902,54.570785538916,190.88968753892,83.66142,0,62.499673916,76.7224434,26,5,16.783,191.21777153892,137.467196,11.632088,64.464240908,0,0,0.447388,284.9, -2.9, -3.1,0,0,1024,1024,1024,1024,0,0,0,0,278.1,-90,0,99,4.207,4.206,4.204,4.196,0,0,7.146,72.68,190.88968753892,137.139112,6,P-GPS,
27500,2023-07-05 17:50:04,52.2064581900471,0.0864858012688244,137.467196,136.646986,54.570785538916,191.21777153892,83.66142,0,62.474411448,76.794293796,26,5,16.783,191.21777153892,137.467196,11.632088,64.464240908,0,0,0.447388,285, -2.3, -3.1,0,0,1024,1024,765,1024,0,0,-39,0,278.1,-90,0,99,4.207,4.206,4.204,4.196,0,0,7.146,72.68,191.21777153892,137.467196,6,P-GPS,
27700,2023-07-05 17:50:04,52.2064580884864,0.086485717112235,137.139112,136.318902,54.570785538916,190.88968753892,83.66142,0,62.471458692,76.835960464,26,5,16.783,191.21777153892,137.467196,11.632088,64.464240908,0,0,0.447388,284.9, -1, -3.4,0,0,1024,1024,364,1024,0,0,-100,0,278.1,-90,0,99,4.207,4.206,4.204,4.196,0,0,7.146,72.68,190.88968753892,137.139112,6,P-GPS,
27900,2023-07-05 17:50:04,52.2064580376247,0.086485721921183,137.139112,136.318902,54.570785538916,190.88968753892,83.66142,0,62.460960004,76.854661252,26,5,16.789,191.21777153892,137.467196,11.632088,64.464240908,0,0,0.894776,284.8, -1.8, -4.1,0,0,1024,1024,364,1024,0,0,-100,0,278.1,-89.9,0,99,4.202,4.204,4.202,4.199,0,0,7.056,72.86,190.88968753892,137.139112,6,P-GPS,
28100,2023-07-05 17:50:04,52.2064580419767,0.0864858438503811,136.482944,135.662734,54.570785538916,190.23351953892,83.66142,0,62.438322208,76.881892224,26,5,16.789,191.21777153892,137.467196,11.632088,64.464240908,0,0,3.131716,284.9, -2.4, -4.9,0,0,1024,1024,1024,1024,0,0,0,0,278.1,-89.9,0,99,4.202,4.204,4.202,4.199,0,0,7.056,72.86,190.23351953892,136.482944,6,P-GPS,
28300,2023-07-05 17:50:05,52.2064580702646,0.0864859561057652,135.826776,135.006566,54.570785538916,189.57735153892,83.66142,0,62.422246092,76.909123196,26,5,16.789,191.21777153892,137.467196,11.632088,64.464240908,0,0,3.579104,285.1, -0.7, -3.2,0,0,1024,1024,1024,1024,0,0,0,0,278.1,-89.9,0,99,4.202,4.204,4.202,4.199,0,0,7.056,72.86,189.57735153892,135.826776,6,P-GPS,
28500,2023-07-05 17:50:05,52.2064581158663,0.0864860964040261,135.170608,134.350398,54.570785538916,188.92118353892,83.66142,0,62.403873388,76.944556268,26,5,16.789,191.21777153892,137.467196,11.632088,64.464240908,0,0,1.342164,285, 0.1, -4.3,0,0,1024,1024,1024,1024,0,0,0,0,278.1,-89.9,0,99,4.202,4.204,4.202,4.199,0,0,7.056,72.86,188.92118353892,135.170608,6,P-GPS,
28700,2023-07-05 17:50:05,52.2064581272089,0.0864864575783853,134.842524,134.022314,54.570785538916,188.59309953892,83.66142,0,62.336944252,77.025264932,26,5,16.789,191.21777153892,137.467196,11.632088,64.464240908,0,0,0.223694,284.8, -2.6, -6.3,0,0,1024,1024,858,1024,0,0,-25,0,278.1,-89.9,0,99,4.202,4.204,4.202,4.199,0,0,7.056,72.86,188.59309953892,134.842524,6,P-GPS,
28900,2023-07-05 17:50:05,52.2064580277899,0.0864868277835015,134.842524,134.022314,54.570785538916,188.59309953892,83.66142,0,62.247049236,77.115816116,26,5,16.795,191.21777153892,137.467196,11.632088,64.464240908,0,0,0,285, -4.3, -6,0,0,1024,1024,457,1024,0,0,-86,0,278.1,-89.9,0,99,4.255,4.249,4.246,4.246,0,0,6.107,72.86,188.59309953892,134.842524,6,P-GPS,
29100,2023-07-05 17:50:05,52.2064578528708,0.0864870683706946,134.842524,134.022314,54.570785538916,188.59309953892,83.66142,0,62.168309076,77.199149452,26,5,16.795,191.21777153892,137.467196,11.632088,64.464240908,0,0,1.565858,285, -5.4, -4.4,0,0,1024,1024,1024,1024,0,0,0,0,278.1,-89.9,0,99,4.255,4.249,4.246,4.246,0,0,6.107,72.86,188.59309953892,134.842524,6,P-GPS,
29300,2023-07-05 17:50:06,52.2064577367721,0.0864871826111678,134.186356,133.366146,54.570785538916,187.93693153892,83.66142,0,62.12434582,77.248690136,26,5,16.795,191.21777153892,137.467196,11.632088,64.464240908,0,0,2.013246,285.2, -2.3, -1.7,0,0,1024,1024,1024,1024,0,0,0,0,278.1,-90,0,99,4.255,4.249,4.246,4.246,0,0,6.107,72.86,187.93693153892,134.186356,6,P-GPS,
29500,2023-07-05 17:50:06,52.2064577905894,0.0864873067491268,133.858272,133.038062,54.570785538916,187.60884753892,83.66142,0,62.110894376,77.282810872,26,5,16.795,191.21777153892,137.467196,11.632088,64.464240908,0,0,0.447388,284.7, -1.9, -1.7,0,0,1024,1024,481,1024,0,0,-82,0,278.1,-89.9,0,99,4.255,4.249,4.246,4.246,0,0,6.107,72.86,187.60884753892,133.858272,6,P-GPS,
29700,2023-07-05 17:50:06,52.2064580166444,0.0864876026392215,133.858272,133.038062,54.570785538916,187.60884753892,83.66142,0.223694,62.096786764,77.38845392,26,5,16.795,191.21777153892,137.467196,11.632088,64.464240908,0.223694,0,0,285, -3.5, -5.1,0,0,1024,1024,364,1024,0,0,-100,0,278.1,-89.9,0,99,4.255,4.249,4.246,4.246,0,0,6.107,72.86,187.60884753892,133.858272,6,P-GPS,
29900,2023-07-05 17:50:06,52.2064582418512,0.0864878593307985,133.530188,132.709978,54.570785538916,187.28076353892,83.66142,0,62.090553168,77.48851954,26,5,16.708,191.21777153892,137.467196,11.632088,64.464240908,0,0,1.11847,285, -5, -6.9,0,0,1024,1024,461,1024,0,0,-85,0,278.1,-90,0,99,4.231,4.247,4.247,4.243,0,0,7.829,72.86,187.28076353892,133.530188,6,P-GPS,
30100,2023-07-05 17:50:06,52.2064584260397,0.0864880346337272,132.87402,132.05381,54.570785538916,186.62459553892,83.66142,0,62.091865504,77.566603532,26,5,16.708,191.21777153892,137.467196,11.632088,64.464240908,0,0,3.579104,285, -4.6, -5.6,0,0,1024,1024,1024,1024,0,0,0,0,278.1,-90,0,99,4.231,4.247,4.247,4.243,0,0,7.829,72.86,186.62459553892,132.87402,6,P-GPS,
30300,2023-07-05 17:50:07,52.2064585689271,0.0864880250997083,131.889768,131.069558,54.570785538916,185.64034353892,83.66142,0,62.120736896,77.618768888,26,5,16.708,191.21777153892,137.467196,11.632088,64.464240908,0,0,2.908022,285.4, -1.3, -3.1,0,0,1024,1024,1024,1024,0,0,0,0,278.1,-90,0,99,4.231,4.247,4.247,4.243,0,0,7.829,72.86,185.64034353892,131.889768,6,P-GPS,
30500,2023-07-05 17:50:07,52.2064587636443,0.0864879103000551,131.561684,130.741474,54.570785538916,185.31225953892,83.66142,0.223694,62.179792016,77.694228208,26,5,16.708,191.21777153892,137.467196,11.632088,64.464240908,0.223694,0,0.894776,284.9, -0.6, -4.1,0,0,1024,1024,1024,1024,0,0,0,0,278.1,-89.9,0,99,4.231,4.247,4.247,4.243,0,0,7.829,72.86,185.31225953892,131.561684,6,P-GPS,
30700,2023-07-05 17:50:07,52.2064589859812,0.086487932583378,131.2336,130.41339,54.570785538916,184.98417553892,83.66142,0.223694,62.21784976,77.775264956,26,5,16.708,191.21777153892,137.467196,11.632088,64.464240908,0.223694,0,0,284.9, -1.5, -8.1,0,0,1024,1024,1024,1024,0,0,0,0,278.1,-89.9,0,99,4.231,4.247,4.247,4.243,0,0,7.829,72.86,184.98417553892,131.2336,6,P-GPS,
30900,2023-07-05 17:50:07,52.206458992295,0.0864879383429319,131.2336,130.41339,54.570785538916,184.98417553892,83.66142,0,62.218177844,77.778217712,26,5,16.835,191.21777153892,137.467196,11.632088,64.464240908,0,0,0,284.8, -2.2, -7.2,0,0,1024,1024,1024,1024,0,0,0,0,278.1,-90,0,99,4.245,4.244,4.249,4.254,0,0,6.396,73.04,184.98417553892,131.2336,6,P-GPS,
31100,2023-07-05 17:50:07,52.2064588270394,0.0864878983615622,131.561684,130.741474,54.570785538916,185.31225953892,83.66142,0,62.194227712,77.838913252,26,5,16.835,191.21777153892,137.467196,11.632088,64.464240908,0,0,0,284.7, -2.2, -4.3,0,0,1024,1024,1024,1024,0,0,0,0,278.1,-89.9,0,99,4.245,4.244,4.249,4.254,0,0,6.396,73.04,185.31225953892,131.561684,6,P-GPS,
31300,2023-07-05 17:50:08,52.2064587047811,0.0864878716607174,131.561684,130.741474,54.570785538916,185.31225953892,83.66142,0,62.175855008,77.88386076,26,5,16.835,191.21777153892,137.467196,11.632088,64.464240908,0,0,0,284.8, -2.1, -3,0,0,1024,1024,1024,1024,0,0,0,0,278.1,-90,0,99,4.245,4.244,4.249,4.254,0,0,6.396,73.04,185.31225953892,131.561684,6,P-GPS,
31500,2023-07-05 17:50:08,52.2064587027336,0.0864878987809472,131.561684,130.741474,54.570785538916,185.31225953892,83.66142,0,62.170605664,77.890094356,26,5,16.835,191.21777153892,137.467196,11.632088,64.464240908,0,0,0,284.9, -2, -3.4,0,0,1024,1024,1024,1024,0,0,0,0,278.1,-90,0,99,4.245,4.244,4.249,4.254,0,0,6.396,73.04,185.31225953892,131.561684,6,P-GPS,
31700,2023-07-05 17:50:08,52.2064587841535,0.0864879694892577,131.561684,130.741474,54.570785538916,185.31225953892,83.66142,0,62.172574168,77.923887008,26,5,16.835,191.21777153892,137.467196,11.632088,64.464240908,0,0,0,284.9, -2.3, -4,0,0,1024,1466,1024,1024,0,67,0,0,278.1,-89.9,0,99,4.245,4.244,4.249,4.254,0,0,6.396,73.04,185.31225953892,131.561684,6,P-GPS,
31900,2023-07-05 17:50:08,52.2064589161181,0.0864880074016614,131.561684,130.741474,54.570785538916,185.31225953892,83.66142,0,62.190290704,77.972771524,26,5,16.726,191.21777153892,137.467196,11.632088,64.464240908,0,0,0,284.9, -2.1, -4.6,0,0,1024,1684,1024,1024,0,100,0,0,278.1,-89.9,0,98,4.193,4.194,4.196,4.194,0,0,8.123,73.04,185.31225953892,131.561684,6,P-GPS,
