time(millisecond),datetime(utc),latitude,longitude,height_above_takeoff(feet),height_above_ground_at_drone_location(feet),ground_elevation_at_drone_location(feet),altitude_above_seaLevel(feet),height_sonar(feet),speed(mph),distance(feet),mileage(feet),satellites,gpslevel,voltage(v),max_altitude(feet),max_ascent(feet),max_speed(mph),max_distance(feet), xSpeed(mph), ySpeed(mph), zSpeed(mph), compass_heading(degrees), pitch(degrees), roll(degrees),isPhoto,isVideo,rc_elevator,rc_aileron,rc_throttle,rc_rudder,rc_elevator(percent),rc_aileron(percent),rc_throttle(percent),rc_rudder(percent),gimbal_heading(degrees),gimbal_pitch(degrees),gimbal_roll(degrees),battery_percent,voltageCell1,voltageCell2,voltageCell3,voltageCell4,voltageCell5,voltageCell6,current(A),battery_temperature(f),altitude(feet),ascent(feet),flycStateRaw,flycState,message
100,2023-07-09 18:02:53,52.2063591009245,0.0866987544258859,0,0,53.465355713516,53.465355713516,0.328084,0,0,0,16,5,0,53.465355713516,0,0,0,0,0,0,277.8, 4.7, 0.8,0,0,1024,1024,1024,1024,0,0,0,0,277.7,0,0,71,4,4.006,4,4.007,0,0,0,78.08,53.465355713516,0,41,Motors_Started,
300,2023-07-09 18:02:53,52.2063592304612,0.0866989519740299,0,0,53.465355713516,53.465355713516,0.328084,0,0.064687994196,0.064687994196,16,5,0,53.465355713516,0,0,0.064687994196,0,0,0,277.8, 4.7, 0.8,0,0,1024,1024,1024,1024,0,0,0,0,277.7,0,0,71,4,4.006,4,4.007,0,0,0,78.08,53.465355713516,0,41,Motors_Started,
500,2023-07-09 18:02:53,52.2063593441844,0.0866991175413924,0,0,53.465355713516,53.465355713516,0,0,0.12028543692,0.12029363902,16,5,0,53.465355713516,0,0,0.12028543692,0,0,0,277.8, 4.7, 0.8,0,0,1024,1024,1024,1024,0,0,0,0,277.7,0,0,71,4,4.006,4,4.007,0,0,0,78.08,53.465355713516,0,41,Motors_Started,"Setting new Return-To-Home altitude to 26m (85 ft). Data Recorder File Index is 54. Setting new Maximum Flight Altitude to 120m (394 ft)"
700,2023-07-09 18:02:53,52.2063594266095,0.0866992737874705,0,0,53.465355713516,53.465355713516,0,0,0.166144690356,0.166389112936,16,5,0,53.465355713516,0,0,0.166144690356,0,0,0,277.8, 4.7, 0.8,0,0,1024,1024,1024,1024,0,0,0,0,277.7,0,0,71,4,4.006,4,4.007,0,0,0,78.08,53.465355713516,0,41,Motors_Started,
900,2023-07-09 18:02:53,52.2063594911291,0.0866994144188575,0,0,53.465355713516,53.465355713516,0,0,0.205045610236,0.2056676575,16,5,0,53.465355713516,0,0,0.205045610236,0,0,0,277.8, 4.7, 0.8,0,0,1024,1024,1024,1024,0,0,0,0,277.7,0,0,71,4,4.006,4,4.007,0,0,0,78.08,53.465355713516,0,41,Motors_Started,
1100,2023-07-09 18:02:53,52.2063595540269,0.0866995145305952,0,0,53.465355713516,53.465355713516,0,0,0.2370899026,0.237724417056,16,5,0,53.465355713516,0,0,0.2370899026,0,0,0,277.7, 4.7, 0.8,0,0,1024,1024,1024,1024,0,0,0,0,277.7,0,0,71,4,4.006,4,4.007,0,0,0,78.08,53.465355713516,0,41,Motors_Started,
1300,2023-07-09 18:02:54,52.2063596188924,0.0866995915070949,0,0,53.465355713516,53.465355713516,0,0,0.265974746044,0.266987213268,16,5,0,53.465355713516,0,0,0.265974746044,0,0,0,277.7, 4.7, 0.8,0,0,1024,1024,1024,1024,0,0,0,0,277.7,0,0,71,4,4.006,4,4.007,0,0,0,78.08,53.465355713516,0,41,Motors_Started,
1500,2023-07-09 18:02:54,52.2063596863372,0.0866996446686023,0,0,53.465355713516,53.465355713516,0,0,0.291957358424,0.294314641964,16,5,16.02,53.465355713516,0,0,0.291957358424,0,0,0,277.8, 4.7, 0.8,0,0,1024,1024,1024,1024,0,0,0,0,277.7,0,0,71,4,4.006,4,4.007,0,0,4.555,78.08,53.465355713516,0,41,Motors_Started,
1700,2023-07-09 18:02:54,52.2063597522045,0.0866996832359238,0,0,53.465355713516,53.465355713516,0,0,0.315578094088,0.319846795012,16,5,16.02,53.465355713516,0,0,0.315578094088,0,0,0,278.5, 4.7, 0.8,0,0,1024,1024,1024,1024,0,0,0,0,277.7,0,0,71,4,4.006,4,4.007,0,0,4.555,78.08,53.465355713516,0,11,AutoTakeoff,
1900,2023-07-09 18:02:54,52.2063598225239,0.0866997302639152,0,0,53.465355713516,53.465355713516,0,0,0.34193242564,0.3475721896,16,5,16.02,53.465355713516,0,0,0.34193242564,0,0,0,278.9, 4.7, 0.8,0,0,1024,1024,1024,1024,0,0,0,0,277.8,0,0,71,4,4.006,4,4.007,0,0,4.555,78.08,53.465355713516,0,11,AutoTakeoff,
2100,2023-07-09 18:02:54,52.2063599089492,0.0866998433578249,0,0,53.465355713516,53.465355713516,0,0,0.38234581276,0.3879921384,16,5,16.02,53.465355713516,0,0,0.38234581276,0,0,0,279.1, 1.7, 1,0,0,1024,1024,1024,1024,0,0,0,0,277.9,0,0,71,4,4.006,4,4.007,0,0,4.555,78.08,53.465355713516,0,11,AutoTakeoff,
2300,2023-07-09 18:02:55,52.206360058358,0.0867000513906117,0,0,53.465355713516,53.465355713516,0,0,0.45399935836,0.45965224568,16,5,16.02,53.465355713516,0,0,0.45399935836,0,0,-0.671082,279.2, -1.5, 0,0,0,1024,1024,1024,1024,0,0,0,0,277.9,0,0,71,4,4.006,4,4.007,0,0,4.555,78.08,53.465355713516,0,11,AutoTakeoff,
2500,2023-07-09 18:02:55,52.2063602295899,0.0867000823814682,0.328084,0.328084,53.465355713516,53.793439713516,0.328084,0,0.50767061992,0.52250985924,16,5,16.02,53.793439713516,0.328084,0,0.50767061992,0,0,-0.894776,279.1, 0.2, -0.3,0,0,1024,1024,1024,1024,0,0,0,0,278,0,0,71,3.994,3.996,3.988,3.986,0,0,4.555,78.08,53.793439713516,0.328084,11,AutoTakeoff,
2700,2023-07-09 18:02:55,52.2063604080555,0.0867000622186265,0.656168,0.656168,53.465355713516,54.121523713516,0.656168,0,0.55940946672,0.5877788902,16,5,16.02,54.121523713516,0.656168,0,0.55940946672,0,0,-0.894776,279.1, 0.7, -1,0,0,1024,1024,1024,1024,0,0,0,0,278.1,0,0,71,3.994,3.996,3.988,3.986,0,0,4.555,78.08,54.121523713516,0.656168,11,AutoTakeoff,
2900,2023-07-09 18:02:55,52.2063605658288,0.086700111716625,0.656168,0.656168,53.465355713516,54.121523713516,0.984252,0,0.6146161614,0.64639437764,16,5,16.02,54.121523713516,0.656168,0,0.6146161614,0,0,-0.894776,279.1, 0.7, -2,0,0,1024,1024,1024,1024,0,0,0,0,278.1,0,0,71,3.994,3.996,3.988,3.986,0,0,4.555,78.08,54.121523713516,0.656168,11,AutoTakeoff,
3100,2023-07-09 18:02:55,52.2063606588543,0.0867002420127754,0.984252,0.984252,53.465355713516,54.449607713516,1.312336,0,0.65856957488,0.6911253502,17,5,16.02,54.449607713516,0.984252,0,0.65856957488,0,0,-0.894776,279.1, 0.5, -1.6,0,0,1024,1024,1684,1024,0,0,100,0,278.2,0,0,71,3.994,3.996,3.988,3.986,0,0,4.555,78.08,54.449607713516,0.984252,11,AutoTakeoff,
3300,2023-07-09 18:02:56,52.206360713272,0.0867003862945656,1.312336,1.312336,53.465355713516,54.777691713516,1.64042,0,0.69222771244,0.729002648,17,5,16.02,54.777691713516,1.312336,0,0.69222771244,0,0,-1.342164,279.2, 0.8, -1.2,0,0,1024,1024,1684,1024,0,0,100,0,278.2,0,0,71,3.994,3.996,3.988,3.986,0,0,4.555,78.08,54.777691713516,1.312336,11,AutoTakeoff,
3500,2023-07-09 18:02:56,52.2063607623395,0.086700465430028,1.968504,1.968504,53.465355713516,55.433859713516,2.296588,0,0.71679136152,0.75417325248,17,5,16.058,55.433859713516,1.968504,0,0.71679136152,0,0,-2.684328,279.5, 0, -2.1,0,0,1024,1024,1684,1024,0,0,100,0,278.3,0,0,71,3.96,3.966,3.96,3.963,0,0,3.576,78.08,55.433859713516,1.968504,11,AutoTakeoff,"Home Point updated (Code: 3000001)"
3700,2023-07-09 18:02:56,52.2063607588817,0.086700387492436,3.28084,3.28084,53.465355713516,56.746195713516,3.608924,0,0.7065617024,0.77164700632,17,5,16.058,56.746195713516,3.28084,0,0.71679136152,0,0,-4.697574,279.2, -0.2, -1.4,0,0,1024,1024,1684,1024,0,0,100,0,278.4,0,0,71,3.96,3.966,3.96,3.963,0,0,3.576,78.08,56.746195713516,3.28084,11,AutoTakeoff,
3900,2023-07-09 18:02:56,52.2063607511656,0.0867002238778383,5.249344,5.249344,53.465355713516,58.714699713516,5.249344,0,0.68589897208,0.80833664004,17,5,16.058,58.714699713516,5.249344,0,0.71679136152,0,0,-6.934514,279.2, 0.8, -0.6,0,0,1024,1024,1684,1024,0,0,100,0,278.4,0,0,71,3.96,3.966,3.96,3.963,0,0,3.576,78.08,58.714699713516,5.249344,6,P-GPS,
4100,2023-07-09 18:02:57,52.2063608066487,0.0867001143412805,8.2021,8.2021,53.465355713516,61.667455713516,7.874016,0,0.69264109828,0.8401082946,17,5,16.058,61.667455713516,8.2021,0,0.71679136152,0,0,-9.171454,278.9, 1.5, -1.3,0,0,1024,1024,1684,1024,0,0,100,0,278.4,0,0,71,3.96,3.966,3.96,3.963,0,0,3.576,78.08,61.667455713516,8.2021,6,P-GPS,
4300,2023-07-09 18:02:57,52.206360862768,0.0867001286143742,12.139108,12.139108,53.465355713516,65.604463713516,10.826772,0,0.71246393356,0.86083336088,17,5,16.058,65.604463713516,12.139108,0,0.71679136152,0,0,-11.408394,278.3, 1.1, -1,0,0,1024,1024,1666,1024,0,0,97,0,278.4,0,0,71,3.96,3.966,3.96,3.963,0,0,3.576,78.08,65.604463713516,12.139108,6,P-GPS,
4500,2023-07-09 18:02:57,52.2063609076062,0.0867002120502876,16.732284,16.732284,53.465355713516,70.197639713516,14.435696,0,0.7353346692,0.88564307296,18,5,15.519,70.197639713516,16.732284,0,0.7353346692,0,0,-12.750558,278.5, 0, -1,0,0,1024,1024,1678,1024,0,0,99,0,278.4,0,0,71,3.859,3.866,3.857,3.859,0,0,12.651,77.72,70.197639713516,16.732284,6,P-GPS,
4700,2023-07-09 18:02:57,52.2063609823746,0.0867002768139259,21.653544,21.653544,53.465355713516,75.118899713516,18.372704,0,0.76620409276,0.91652890072,18,5,15.519,75.118899713516,21.653544,0,0.76620409276,0,0,-12.974252,278.9, 0.3, -1.1,0,0,1024,1024,1515,1024,0,0,74,0,278.4,0,0,71,3.859,3.866,3.857,3.859,0,0,12.651,77.72,75.118899713516,21.653544,6,P-GPS,
4900,2023-07-09 18:02:57,52.2063610945097,0.0867003222797055,25.918636,25.918636,53.465355713516,79.383991713516,22.309712,0,0.80742456652,0.95868441388,18,5,15.519,79.383991713516,25.918636,0,0.80742456652,0,0,-12.750558,278.8, 0.2, -2.3,0,0,1024,1024,1024,1024,0,0,0,0,278.4,0,0,71,3.859,3.866,3.857,3.859,0,0,12.651,77.72,79.383991713516,25.918636,6,P-GPS,
5100,2023-07-09 18:02:58,52.2063612730171,0.0867002947872247,29.199476,29.199476,53.465355713516,82.664831713516,25.918636,0,0.86408795416,1.02410108264,18,5,15.519,82.664831713516,29.199476,0,0.86408795416,0,0,-10.737312,278.7, 0.8, -3.4,0,0,1024,1024,1024,1024,0,0,0,0,278.4,0,0,71,3.859,3.866,3.857,3.859,0,0,12.651,77.72,82.664831713516,29.199476,6,P-GPS,
5300,2023-07-09 18:02:58,52.206361518407,0.0867002269122687,31.824148,31.824148,53.465355713516,85.289503713516,28.871392,0.223694,0.94146000388,1.11490817216,18,5,15.519,85.289503713516,31.824148,0.223694,0.94146000388,0.223694,0,-8.724066,278.6, 1.7, -4.5,0,0,1024,1024,1024,1024,0,0,0,0,278.4,0,0,71,3.859,3.866,3.857,3.859,0,0,12.651,77.72,85.289503713516,31.824148,6,P-GPS,
5500,2023-07-09 18:02:58,52.2063617878913,0.0867001507876462,33.464568,33.464568,53.465355713516,86.929923713516,31.16798,0.223694,1.02885173896,1.21469492076,18,5,15.519,86.929923713516,33.464568,0.223694,1.02885173896,0.223694,0,-6.263432,278.2, 2, -5.6,0,0,1024,1024,1024,1024,0,0,0,0,278.4,0,0,71,3.954,3.964,3.967,3.973,0,0,12.651,77.72,86.929923713516,33.464568,6,P-GPS,
5700,2023-07-09 18:02:58,52.206362075128,0.086700087222752,34.120736,34.120736,53.465355713516,87.586091713516,32.8084,0.223694,1.12530843496,1.32044951732,19,5,15.519,87.586091713516,34.120736,0.223694,1.12530843496,0.223694,0,-4.026492,277.1, 3.4, -6.4,0,0,1024,1024,1024,1024,0,0,0,0,278.4,0,0,71,3.954,3.964,3.967,3.973,0,0,12.651,77.72,87.586091713516,34.120736,6,P-GPS,
5900,2023-07-09 18:02:58,52.2063624252458,0.0867001343564636,34.44882,34.44882,53.465355713516,87.914175713516,33.792652,0,1.25150594556,1.44862537444,18,5,15.519,87.914175713516,34.44882,0.223694,1.25150594556,0,0,-1.565858,276.7, 3.1, -7.1,0,0,1024,1024,1024,1024,0,0,0,0,278.4,0,0,71,3.954,3.964,3.967,3.973,0,0,12.651,77.72,87.914175713516,34.44882,6,P-GPS,
6100,2023-07-09 18:02:59,52.2063628215212,0.086700492937362,34.44882,34.44882,53.465355713516,87.914175713516,34.120736,0,1.41201448088,1.61394690204,19,5,15.519,87.914175713516,34.44882,0.223694,1.41201448088,0,0,-0.223694,276.8, 2.1, -6.6,0,0,1024,1024,1024,1024,0,0,0,0,278.4,0,0,71,3.954,3.964,3.967,3.973,0,0,12.651,77.72,87.914175713516,34.44882,6,P-GPS,
6300,2023-07-09 18:02:59,52.2063631678123,0.086701292014799,34.44882,34.44882,53.465355713516,87.914175713516,34.120736,0.223694,1.58857616632,1.83276908752,19,5,15.519,87.914175713516,34.44882,0.223694,1.58857616632,0,0.223694,0,276.6, 0.7, -5.8,0,0,1024,1024,1024,1024,0,0,0,0,278.4,0,0,71,3.954,3.964,3.967,3.973,0,0,12.651,77.72,87.914175713516,34.44882,6,P-GPS,
6500,2023-07-09 18:02:59,52.2063634731658,0.0867023515875539,34.120736,34.120736,53.465355713516,87.586091713516,31.496064,0.223694,1.78649283932,2.09456371532,19,5,15.704,87.914175713516,34.44882,0.223694,1.78649283932,0,0.223694,0,276.7, -0.7, -5.4,0,0,1024,1024,1024,1024,0,0,0,0,278.4,0,0,71,3.971,3.973,3.967,3.969,0,0,12.985,77.9,87.586091713516,34.120736,6,P-GPS,
6700,2023-07-09 18:02:59,52.2063637307507,0.0867034690154414,34.120736,34.120736,53.465355713516,87.586091713516,31.496064,0,1.99111226844,2.36149613856,19,5,15.704,87.914175713516,34.44882,0.223694,1.99111226844,0,0,0,277, -1.2, -4.9,0,0,1024,1024,1024,1024,0,0,0,0,278.4,0,0,71,3.971,3.973,3.967,3.969,0,0,12.985,77.9,87.586091713516,34.120736,6,P-GPS,
6900,2023-07-09 18:02:59,52.2063639505319,0.0867044744594806,34.120736,34.120736,53.465355713516,87.586091713516,31.824148,0,2.18319560792,2.60017396772,19,5,15.704,87.914175713516,34.44882,0.223694,2.18319560792,0,0,0,277.1, -0.9, -4.3,0,0,1024,1024,1024,1024,0,0,0,0,278.4,0,0,71,3.971,3.973,3.967,3.969,0,0,12.985,77.9,87.586091713516,34.120736,6,P-GPS,
7100,2023-07-09 18:03:00,52.2063641682924,0.0867053557269059,34.120736,34.120736,53.465355713516,87.586091713516,31.824148,0,2.36571857964,2.81262804276,19,5,15.704,87.914175713516,34.44882,0.223694,2.36571857964,0,0,0,276.7, -0.7, -4.8,0,0,1024,1024,1024,1024,0,0,0,0,278.4,0,0,71,3.971,3.973,3.967,3.969,0,0,12.985,77.9,87.586091713516,34.120736,6,P-GPS,
7300,2023-07-09 18:03:00,52.2063643235197,0.0867060653633504,34.120736,34.120736,53.465355713516,87.586091713516,31.824148,0.223694,2.51053485724,2.98109917676,19,5,15.704,87.914175713516,34.44882,0.223694,2.51053485724,-0.223694,0,0,276.7, -0.3, -3.8,0,0,1024,1024,1024,1024,0,0,0,0,278.4,0,0,71,3.971,3.973,3.967,3.969,0,0,12.985,77.9,87.586091713516,34.120736,6,P-GPS,
7500,2023-07-09 18:03:00,52.2063644957299,0.0867067092977811,34.120736,34.120736,53.465355713516,87.586091713516,31.824148,0,2.65284785392,3.13818579596,19,5,15.991,87.914175713516,34.44882,0.223694,2.65284785392,0,0,0,276.7, -0.5, -3.4,0,0,1024,1024,1024,1024,0,0,0,0,278.4,0,0,71,3.955,3.959,3.954,3.958,0,0,4.541,78.26,87.586091713516,34.120736,6,P-GPS,
7700,2023-07-09 18:03:00,52.2063647270207,0.0867072912802051,34.120736,34.120736,53.465355713516,87.586091713516,31.824148,0,2.802985654,3.2932743836,19,5,15.991,87.914175713516,34.44882,0.223694,2.802985654,0,0,0,276.9, -0.7, -3.8,0,0,1024,1024,1024,1024,0,0,0,0,278.4,0,0,71,3.955,3.959,3.954,3.958,0,0,4.541,78.26,87.586091713516,34.120736,6,P-GPS,
7900,2023-07-09 18:03:00,52.2063649861338,0.0867078224662824,34.120736,34.120736,53.465355713516,87.586091713516,31.824148,0,2.95317922836,3.4450788504,19,5,15.991,87.914175713516,34.44882,0.223694,2.95317922836,0,0,0,276.8, -1.2, -3.7,0,0,1024,1024,1024,1024,0,0,0,0,278.4,0,0,71,3.955,3.959,3.954,3.958,0,0,4.541,78.26,87.586091713516,34.120736,6,P-GPS,
8100,2023-07-09 18:03:01,52.2063652306027,0.086708280570031,34.120736,34.120736,53.465355713516,87.586091713516,31.824148,0,3.08837936392,3.5809056264,19,5,15.991,87.914175713516,34.44882,0.223694,3.08837936392,0,0,0,276.8, -2.3, -3.8,0,0,1024,1024,1024,1024,0,0,0,0,278.4,0,0,71,3.955,3.959,3.954,3.958,0,0,4.541,78.26,87.586091713516,34.120736,6,P-GPS,
8300,2023-07-09 18:03:01,52.2063654531157,0.0867086010104202,34.120736,34.120736,53.465355713516,87.586091713516,31.824148,0,3.19658146712,3.6891733464,20,5,15.991,87.914175713516,34.44882,0.223694,3.19658146712,0,0,0,277.1, -1.9, -3.7,0,0,1024,1024,1024,1024,0,0,0,0,278.4,0,0,71,3.955,3.959,3.954,3.958,0,0,4.541,78.26,87.586091713516,34.120736,6,P-GPS,
8500,2023-07-09 18:03:01,52.2063656814103,0.0867087910707819,34.120736,34.120736,53.465355713516,87.586091713516,31.824148,0,3.2863518112,3.7826772864,24,5,15.82,87.914175713516,34.44882,0.223694,3.2863518112,0,0,0,277.3, -2.2, -2.2,0,0,1024,1024,1024,1024,0,0,0,0,278.4,0,0,71,3.943,3.951,3.947,3.947,0,0,7.348,78.26,87.586091713516,34.120736,6,P-GPS,
8700,2023-07-09 18:03:01,52.2063660138412,0.0867088748955007,34.120736,34.120736,53.465355713516,87.586091713516,31.824148,0,3.388451552,3.9054135108,24,5,15.82,87.914175713516,34.44882,0.223694,3.388451552,0,0,0,277.2, -1.2, -2.7,0,0,1024,1024,1024,1024,0,0,0,0,278.4,0,0,71,3.943,3.951,3.947,3.947,0,0,7.348,78.26,87.586091713516,34.120736,6,P-GPS,
8900,2023-07-09 18:03:01,52.2063664361017,0.0867089462312626,34.120736,34.120736,53.465355713516,87.586091713516,31.824148,0,3.5149607424,4.0603019672,24,5,15.82,87.914175713516,34.44882,0.223694,3.5149607424,0,0,0,276.9, -0.9, -3.5,0,0,1024,1024,1024,1024,0,0,0,0,278.4,0,0,71,3.943,3.951,3.947,3.947,0,0,7.348,78.26,87.586091713516,34.120736,6,P-GPS,
9100,2023-07-09 18:03:01,52.206366882946,0.0867090265174146,34.120736,34.120736,53.465355713516,87.586091713516,31.824148,0,3.651903004,4.2243111588,24,5,15.82,87.914175713516,34.44882,0.223694,3.651903004,0,0,0,276.8, -1.2, -3.3,0,0,1024,1024,1024,1024,0,0,0,0,278.4,0,0,71,3.943,3.951,3.947,3.947,0,0,7.348,78.26,87.586091713516,34.120736,6,P-GPS,
9300,2023-07-09 18:03:02,52.2063673603163,0.0867090966561797,34.120736,34.120736,53.465355713516,87.586091713516,31.824148,0,3.7984253184,4.3991799308,24,5,15.82,87.914175713516,34.44882,0.223694,3.7984253184,0,0,0,276.8, -0.6, -2.8,0,0,1024,1024,1024,1024,0,0,0,0,278.4,0,0,71,3.943,3.951,3.947,3.947,0,0,7.348,78.26,87.586091713516,34.120736,6,P-GPS,
9500,2023-07-09 18:03:02,52.2063678751081,0.0867092310395934,34.120736,34.120736,53.465355713516,87.586091713516,31.824148,0,3.9667324104,4.589403034,25,5,15.794,87.914175713516,34.44882,0.223694,3.9667324104,0,0,0,276.8, -0.8, -2.2,0,0,1024,1024,1024,1024,0,0,0,0,278.4,0,0,71,3.943,3.947,3.944,3.947,0,0,7.43,78.44,87.586091713516,34.120736,6,P-GPS,
9700,2023-07-09 18:03:02,52.2063684373735,0.0867093768530152,34.120736,34.120736,53.465355713516,87.586091713516,31.824148,0,4.1526248048,4.7971130144,25,5,15.794,87.914175713516,34.44882,0.223694,4.1526248048,0,0,0,276.8, -1.1, -3.2,0,0,1024,1024,1024,1024,0,0,0,0,278.4,0,0,71,3.943,3.947,3.944,3.947,0,0,7.43,78.44,87.586091713516,34.120736,6,P-GPS,
9900,2023-07-09 18:03:02,52.2063689909414,0.0867094811682209,34.120736,34.120736,53.465355713516,87.586091713516,31.824148,0,4.3327101124,5.0004266692,25,5,15.794,87.914175713516,34.44882,0.223694,4.3327101124,0,0,0,276.9, -0.9, -3.3,0,0,1024,1024,1024,1024,0,0,0,0,278.4,0,0,71,3.943,3.947,3.944,3.947,0,0,7.43,78.44,87.586091713516,34.120736,6,P-GPS,N/A
10100,2023-07-09 18:03:02,52.2063694856726,0.0867095515201738,33.792652,33.792652,53.465355713516,87.258007713516,31.824148,0,4.4925854456,5.181594654,25,5,15.794,87.914175713516,34.44882,0.223694,4.4925854456,0,0,0,276.8, -0.3, -2.8,0,0,1024,1024,1024,1024,0,0,0,0,278.4,0,0,71,3.943,3.947,3.944,3.947,0,0,7.43,78.44,87.258007713516,33.792652,6,P-GPS,
10300,2023-07-09 18:03:03,52.2063699399391,0.0867096372216437,33.792652,33.792652,53.465355713516,87.258007713516,31.824148,0,4.6432416184,5.3484581764,25,5,15.794,87.914175713516,34.44882,0.223694,4.6432416184,0,0,0,276.7, 0, -2.9,0,0,1024,1024,1024,1024,0,0,0,0,278.4,0,0,71,3.943,3.947,3.944,3.947,0,0,7.43,78.44,87.258007713516,33.792652,6,P-GPS,
10500,2023-07-09 18:03:03,52.2063703226214,0.0867097899094962,33.792652,33.792652,53.465355713516,87.258007713516,31.824148,0,4.7802494968,5.4921917768,25,5,15.768,87.914175713516,34.44882,0.223694,4.7802494968,0,0,0,276.6, -0.3, -2.5,0,0,1024,1024,1024,1024,0,0,0,0,278.4,0,0,71,3.942,3.946,3.943,3.945,0,0,7.875,78.62,87.258007713516,33.792652,6,P-GPS,
10700,2023-07-09 18:03:03,52.2063706590349,0.086709980799892,33.792652,33.792652,53.465355713516,87.258007713516,31.824148,0,4.907480472,5.6221458492,25,5,15.768,87.914175713516,34.44882,0.223694,4.907480472,0,0,0,276.8, -0.7, -2,0,0,1024,1024,1024,1024,0,0,0,0,278.4,0,0,71,3.942,3.946,3.943,3.945,0,0,7.875,78.62,87.258007713516,33.792652,6,P-GPS,
10900,2023-07-09 18:03:03,52.2063709703655,0.0867101465201555,33.792652,33.792652,53.465355713516,87.258007713516,31.824148,0,5.024114334,5.7416012336,25,5,15.768,87.914175713516,34.44882,0.223694,5.024114334,0,0,0,276.9, -0.2, -2.3,0,0,1024,1024,1024,1024,0,0,0,0,278.4,0,0,71,3.942,3.946,3.943,3.945,0,0,7.875,78.62,87.258007713516,33.792652,6,P-GPS,
11100,2023-07-09 18:03:03,52.2063712432198,0.0867103248272326,33.792652,33.792652,53.465355713516,87.258007713516,31.824148,0,5.1301510828,5.8488518932,25,5,15.768,87.914175713516,34.44882,0.223694,5.1301510828,0,0,0,276.7, -0.3, -1,0,0,1024,1024,1024,1024,0,0,0,0,278.4,0,0,71,3.942,3.946,3.943,3.945,0,0,7.875,78.62,87.258007713516,33.792652,6,P-GPS,
11300,2023-07-09 18:03:04,52.2063715165433,0.0867105224767281,33.792652,33.792652,53.465355713516,87.258007713516,31.824148,0,5.2385500364,5.9579070148,25,5,15.768,87.914175713516,34.44882,0.223694,5.2385500364,0,0,0,277, 0, -2.2,0,0,1006,1024,1024,1024,-3,0,0,0,278.4,0,0,71,3.942,3.946,3.943,3.945,0,0,7.875,78.62,87.258007713516,33.792652,6,P-GPS,
11500,2023-07-09 18:03:04,52.2063717511463,0.0867107237154664,33.792652,33.792652,53.465355713516,87.258007713516,32.152232,0,5.3351707744,6.054626178,25,5,15.775,87.914175713516,34.44882,0.223694,5.3351707744,0,0,0,276.9, 0.3, -2.1,0,0,1024,1024,1045,1024,0,0,3,0,278.4,0,0,71,3.94,3.946,3.943,3.948,0,0,7.604,78.62,87.258007713516,33.792652,6,P-GPS,
11700,2023-07-09 18:03:04,52.2063719764596,0.086710871206431,33.792652,33.792652,53.465355713516,87.258007713516,32.152232,0,5.4228348192,6.143208858,25,5,15.775,87.914175713516,34.44882,0.223694,5.4228348192,0,0,0,276.8, 0.3, -0.5,0,0,1024,1024,1329,1024,0,0,46,0,278.4,0,0,71,3.94,3.946,3.943,3.948,0,0,7.604,78.62,87.258007713516,33.792652,6,P-GPS,
11900,2023-07-09 18:03:04,52.2063722608108,0.0867110269680312,33.792652,33.792652,53.465355713516,87.258007713516,32.152232,0,5.5301510956,6.252624872,25,5,15.775,87.914175713516,34.44882,0.223694,5.5301510956,0,0,-0.223694,277, 0.4, -2.1,0,0,1024,1024,1634,1024,0,0,92,0,278.4,0,0,71,3.94,3.946,3.943,3.948,0,0,7.604,78.62,87.258007713516,33.792652,6,P-GPS,
12100,2023-07-09 18:03:05,52.2063725485673,0.0867111917796256,34.120736,34.120736,53.465355713516,87.586091713516,32.480316,0,5.6396327264,6.3639109648,25,5,15.775,87.914175713516,34.44882,0.223694,5.6396327264,0,0,-2.013246,277, 0.3, -2.1,0,0,1024,1024,1684,1024,0,0,100,0,278.4,0,0,71,3.94,3.946,3.943,3.948,0,0,7.604,78.62,87.586091713516,34.120736,6,P-GPS,
12300,2023-07-09 18:03:05,52.2063728376796,0.0867113299619749,35.104988,35.104988,53.465355713516,88.570343713516,33.464568,0,5.7466865356,6.4738191048,25,5,15.775,88.570343713516,35.104988,0.223694,5.7466865356,0,0,-4.47388,276.9, -0.3, -3.4,0,0,1024,1024,1684,1024,0,0,100,0,278.4,0,0,71,3.94,3.946,3.943,3.948,0,0,7.604,78.62,88.570343713516,35.104988,6,P-GPS,
12500,2023-07-09 18:03:05,52.206372998772,0.0867113836171342,36.745408,36.745408,53.465355713516,90.210763713516,35.104988,0,5.8038387684,6.53379286,25,5,15.768,90.210763713516,36.745408,0.223694,5.8038387684,0,0,-6.934514,276.8, 0.2, -2.5,0,0,1024,1024,1684,1024,0,0,100,0,278.4,0,0,71,3.881,3.886,3.877,3.874,0,0,7.398,78.8,90.210763713516,36.745408,6,P-GPS,
12700,2023-07-09 18:03:05,52.2063730416152,0.0867114107443999,39.37008,39.37008,53.465355713516,92.835435713516,37.72966,0,5.8204398188,6.5505579524,25,5,15.768,92.835435713516,39.37008,0.223694,5.8204398188,0,0,-9.395148,277.1, -0.1, -2.2,0,0,1024,1024,1684,1024,0,0,100,0,278.4,0,0,71,3.881,3.886,3.877,3.874,0,0,7.398,78.8,92.835435713516,39.37008,6,P-GPS,
12900,2023-07-09 18:03:05,52.2063730328769,0.086711385560288,42.65092,42.65092,53.465355713516,96.116275713516,41.0105,0,5.8149280076,6.5570212072,25,5,15.768,96.116275713516,42.65092,0.223694,5.8204398188,0,0,-11.855782,277, 0.1, -1.7,0,0,1024,1024,1684,1024,0,0,100,0,278.4,0,0,71,3.881,3.886,3.877,3.874,0,0,7.398,78.8,96.116275713516,42.65092,6,P-GPS,
13100,2023-07-09 18:03:06,52.2063730443652,0.0867113419074779,46.916012,46.916012,53.465355713516,100.38136771352,44.619424,0,5.8138781388,6.5676511288,24,5,15.768,100.38136771352,46.916012,0.223694,5.8204398188,0,0,-12.974252,277.1, 0.3, -1.6,0,0,1024,1024,1684,1024,0,0,100,0,278.4,0,0,71,3.881,3.886,3.877,3.874,0,0,7.398,78.8,100.38136771352,46.916012,6,P-GPS,
13300,2023-07-09 18:03:06,52.2063730590489,0.0867112514407378,51.509188,51.509188,53.465355713516,104.97454371352,48.556432,0,5.8087928368,6.588582888,24,5,15.768,104.97454371352,51.509188,0.223694,5.8204398188,0,0,-13.42164,277, 0.2, -0.6,0,0,1024,1024,1684,1024,0,0,100,0,278.4,0,0,71,3.881,3.886,3.877,3.874,0,0,7.398,78.8,104.97454371352,51.509188,6,P-GPS,
13500,2023-07-09 18:03:06,52.2063731785703,0.0867111199842869,55.77428,55.77428,53.465355713516,109.23963571352,52.49344,0,5.8330710528,6.6411747532,25,5,15.387,109.23963571352,55.77428,0.223694,5.8330710528,0,0,-13.42164,277.1, 1, -1.6,0,0,1024,1024,1684,1024,0,0,100,0,278.4,-1.4,0,70,3.865,3.873,3.874,3.877,0,0,14.2,78.62,109.23963571352,55.77428,6,P-GPS,
13700,2023-07-09 18:03:06,52.2063733791713,0.0867110428260534,59.711288,59.711288,53.465355713516,113.17664371352,56.758532,0,5.8895671176,6.716371606,25,5,15.387,113.17664371352,59.711288,0.223694,5.8895671176,0,0,-13.42164,276.9, 1.6, -2.9,0,0,1024,1024,1684,1024,0,0,100,0,278.4,-4.1,0,70,3.865,3.873,3.874,3.877,0,0,14.2,78.62,113.17664371352,59.711288,6,P-GPS,
13900,2023-07-09 18:03:06,52.2063735922735,0.0867110396649336,63.648296,63.648296,53.465355713516,117.11365171352,60.367456,0,5.9581038652,6.794127514,25,5,15.387,117.11365171352,63.648296,0.223694,5.9581038652,0,0,-13.197946,276.9, 1.7, -3,0,0,1024,1024,1684,1024,0,0,100,0,278.4,-6.9,0,70,3.865,3.873,3.874,3.877,0,0,14.2,78.62,117.11365171352,63.648296,6,P-GPS,
14100,2023-07-09 18:03:07,52.2063738031612,0.0867111381122342,67.585304,67.585304,53.465355713516,121.05065971352,64.304464,0,6.0365487496,6.8741472016,25,5,15.387,121.05065971352,67.585304,0.223694,6.0365487496,0,0,-13.42164,278.2, 1.3, -3.9,0,0,1024,1024,1684,1024,0,0,100,0,278.4,-9.8,0,70,3.865,3.873,3.874,3.877,0,0,14.2,78.62,121.05065971352,67.585304,6,P-GPS,
14300,2023-07-09 18:03:07,52.2063739687148,0.0867113073658223,71.522312,71.522312,53.465355713516,124.98766771352,67.913388,0,6.1075789356,6.9454398548,25,5,15.387,124.98766771352,71.522312,0.223694,6.1075789356,0,0,-13.197946,278.9, 1.3, -3.9,0,0,1024,1024,1684,1024,0,0,100,0,278.4,-12.8,0,70,3.865,3.873,3.874,3.877,0,0,14.2,78.62,124.98766771352,71.522312,6,P-GPS,
14500,2023-07-09 18:03:07,52.2063740960878,0.0867114940081904,75.131236,75.131236,53.465355713516,128.59659171352,71.522312,0,6.1680448168,7.00787424,25,5,15.387,128.59659171352,75.131236,0.223694,6.1680448168,0,0,-13.197946,280.2, 1, -4.8,0,0,1024,1024,1684,1024,0,0,100,0,278.4,-15.7,0,70,3.883,3.89,3.885,3.887,0,0,14.2,78.62,128.59659171352,75.131236,6,P-GPS,
14700,2023-07-09 18:03:07,52.2063741741111,0.0867116779577527,79.068244,79.068244,53.465355713516,132.53359971352,75.131236,0,6.2123361568,7.05790705,24,5,15.387,132.53359971352,79.068244,0.223694,6.2123361568,0,0,-13.197946,280.9, 1.7, -4.3,0,0,1024,1024,1684,1024,0,0,100,0,278.4,-18.6,0,70,3.883,3.89,3.885,3.887,0,0,14.2,78.62,132.53359971352,79.068244,6,P-GPS,
14900,2023-07-09 18:03:07,52.2063742116514,0.0867118508390272,83.005252,83.005252,53.465355713516,136.47060771352,78.74016,0,6.2425198848,7.09891755,25,5,15.387,136.47060771352,83.005252,0.223694,6.2425198848,0,0,-13.197946,279.8, 1.2, -5.2,0,0,1024,1024,1684,1024,0,0,100,0,278.4,-21.5,0,70,3.883,3.89,3.885,3.887,0,0,14.2,78.62,136.47060771352,83.005252,6,P-GPS,
15100,2023-07-09 18:03:07,52.2063742593284,0.0867119925547011,86.94226,86.94226,53.465355713516,140.40761571352,82.349084,0,6.2727692296,7.1350724068,25,5,15.387,140.40761571352,86.94226,0.223694,6.2727692296,0,0,-13.197946,278.9, 1.5, -6,0,0,1024,1024,1684,1024,0,0,100,0,278.4,-24.4,0,70,3.883,3.89,3.885,3.887,0,0,14.2,78.62,140.40761571352,86.94226,6,P-GPS,
15300,2023-07-09 18:03:08,52.206374275128,0.0867121501301445,91.207352,91.207352,53.465355713516,144.67270771352,83.66142,0,6.2945540072,7.170767946,25,5,15.387,144.67270771352,91.207352,0.223694,6.2945540072,0,0,-13.197946,278.1, 1.4, -5.2,0,0,1024,1024,1684,1024,0,0,100,0,278.4,-27.3,0,70,3.883,3.89,3.885,3.887,0,0,14.2,78.62,144.67270771352,91.207352,6,P-GPS,
15500,2023-07-09 18:03:08,52.206374225457,0.0867123348013998,94.816276,94.816276,53.465355713516,148.28163171352,83.66142,0,6.29839259,7.2158466876,25,5,15.55,148.28163171352,94.816276,0.223694,6.29839259,0,0,-13.197946,278, 0.9, -3.9,0,0,1024,1024,1684,1024,0,0,100,0,278.4,-30.2,0,70,3.869,3.876,3.87,3.874,0,0,12.063,78.8,148.28163171352,94.816276,6,P-GPS,
15700,2023-07-09 18:03:08,52.206374221529,0.0867125387539131,98.4252,98.4252,53.465355713516,151.89055571352,83.66142,0,6.3192587324,7.261483172,25,5,15.55,151.89055571352,98.4252,0.223694,6.3192587324,0,0,-13.197946,278.1, 0, -3.1,0,0,1024,1024,1684,1024,0,0,100,0,278.4,-33.1,0,70,3.869,3.876,3.87,3.874,0,0,12.063,78.8,151.89055571352,98.4252,6,P-GPS,
15900,2023-07-09 18:03:08,52.2063743217577,0.0867126563252021,102.362208,102.362208,53.465355713516,155.82756371352,83.66142,0,6.36400939,7.3064962968,25,5,15.55,155.82756371352,102.362208,0.223694,6.36400939,0,0,-13.197946,277.8, 0.7, -5,0,0,1024,1024,1684,1024,0,0,100,0,278.4,-36.1,0,70,3.869,3.876,3.87,3.874,0,0,12.063,78.8,155.82756371352,102.362208,6,P-GPS,
16100,2023-07-09 18:03:08,52.2063745094548,0.0867126480126278,106.299216,106.299216,53.465355713516,159.76457171352,83.66142,0,6.4229660848,7.375000236,25,5,15.55,159.76457171352,106.299216,0.223694,6.4229660848,0,0,-13.197946,278, 1.6, -5.4,0,0,1024,1024,1684,1024,0,0,100,0,278.4,-39,0,70,3.869,3.876,3.87,3.874,0,0,12.063,78.8,159.76457171352,106.299216,6,P-GPS,
16300,2023-07-09 18:03:09,52.2063747131805,0.0867126365791249,110.236224,110.236224,53.465355713516,163.70157971352,83.66142,0,6.4869096564,7.4493768788,25,5,15.55,163.70157971352,110.236224,0.223694,6.4869096564,0,0,-13.42164,277.7, 2.5, -6.1,0,0,1024,1024,1684,1024,0,0,100,0,278.4,-41.9,0,70,3.869,3.876,3.87,3.874,0,0,12.063,78.8,163.70157971352,110.236224,6,P-GPS,
16500,2023-07-09 18:03:09,52.2063748526564,0.0867127010159918,113.845148,113.845148,53.465355713516,167.31050371352,83.66142,0,6.5384844612,7.5022640196,25,5,15.511,167.31050371352,113.845148,0.223694,6.5384844612,0,0,-13.197946,277.8, 2.7, -5.1,0,0,1024,1024,1684,1024,0,0,100,0,278.4,-44.8,0,70,3.87,3.881,3.874,3.875,0,0,11.458,78.98,167.31050371352,113.845148,6,P-GPS,
16700,2023-07-09 18:03:09,52.2063748958701,0.0867129071283415,117.782156,117.782156,53.465355713516,171.24751171352,83.66142,0,6.5744096592,7.5509844936,25,5,15.511,171.24751171352,117.782156,0.223694,6.5744096592,0,0,-13.197946,277.8, 1, -4.7,0,0,1024,1024,1684,1024,0,0,100,0,278.4,-47.7,0,70,3.87,3.881,3.874,3.875,0,0,11.458,78.98,171.24751171352,117.782156,6,P-GPS,
16900,2023-07-09 18:03:09,52.2063749500366,0.0867131137614285,121.719164,121.719164,53.465355713516,175.18451971352,83.66142,0,6.6140422064,7.6012469624,25,5,15.511,175.18451971352,121.719164,0.223694,6.6140422064,0,0,-13.197946,277.9, -0.2, -4.6,0,0,1024,1024,1684,1024,0,0,100,0,278.4,-50.6,0,70,3.87,3.881,3.874,3.875,0,0,11.458,78.98,175.18451971352,121.719164,6,P-GPS,
17100,2023-07-09 18:03:09,52.2063751005232,0.0867131985105433,125.656172,125.656172,53.465355713516,179.12152771352,83.66142,0,6.6712272476,7.6593178304,25,5,15.511,179.12152771352,125.656172,0.223694,6.6712272476,0,0,-13.197946,277.9, 1.1, -6,0,0,1024,1024,1684,1024,0,0,100,0,278.4,-53.5,0,70,3.87,3.881,3.874,3.875,0,0,11.458,78.98,179.12152771352,125.656172,6,P-GPS,
17300,2023-07-09 18:03:10,52.2063752769033,0.0867132297722532,129.921264,129.921264,53.465355713516,183.38661971352,83.66142,0,6.730971344,7.7240488036,25,5,15.511,183.38661971352,129.921264,0.223694,6.730971344,0,0,-13.197946,277.7, 2.1, -7.1,0,0,1024,1024,1684,1024,0,0,100,0,278.4,-56.4,0,70,3.87,3.881,3.874,3.875,0,0,11.458,78.98,183.38661971352,129.921264,6,P-GPS,
17500,2023-07-09 18:03:10,52.206375403863,0.086713326466871,133.858272,133.858272,53.465355713516,187.32362771352,83.66142,0,6.781988406,7.7751642908,24,5,15.444,187.32362771352,133.858272,0.223694,6.781988406,0,0,-13.197946,277.9, 1.1, -7.3,0,0,1024,1024,1684,1024,0,0,100,0,278.4,-59.4,0,70,3.851,3.854,3.851,3.853,0,0,12.149,78.98,187.32362771352,133.858272,6,P-GPS,
17700,2023-07-09 18:03:10,52.2063754968484,0.0867134365363982,138.123364,138.123364,53.465355713516,191.58871971352,83.66142,0,6.8235566488,7.8170606176,24,5,15.444,191.58871971352,138.123364,0.223694,6.8235566488,0,0,-13.197946,278, 0.6, -7.8,0,0,1024,1024,1684,1024,0,0,100,0,278.4,-62.3,0,70,3.851,3.854,3.851,3.853,0,0,12.149,78.98,191.58871971352,138.123364,6,P-GPS,
17900,2023-07-09 18:03:10,52.2063755758333,0.0867135103884743,142.060372,142.060372,53.465355713516,195.52572771352,83.66142,0,6.856791558,7.8502955268,25,5,15.444,195.52572771352,142.060372,0.223694,6.856791558,0,0,-13.197946,277.9, 1.1, -7.6,0,0,1024,1024,1684,1024,0,0,100,0,278.4,-65.2,0,70,3.851,3.854,3.851,3.853,0,0,12.149,78.98,195.52572771352,142.060372,6,P-GPS,
18100,2023-07-09 18:03:10,52.2063756120264,0.0867136058773582,145.99738,145.99738,53.465355713516,199.46273571352,83.66142,0,6.8786419524,7.8753939528,25,5,15.444,199.46273571352,145.99738,0.223694,6.8786419524,0,0,-13.42164,278.1, 0.9, -7.3,0,0,1024,1024,1684,1024,0,0,100,0,278.4,-68.1,0,70,3.851,3.854,3.851,3.853,0,0,12.149,78.98,199.46273571352,145.99738,6,P-GPS,
18300,2023-07-09 18:03:11,52.2063756419721,0.0867136911227462,149.606304,149.606304,53.465355713516,203.07165971352,83.66142,0,6.8974083572,7.8973755808,24,5,15.444,203.07165971352,149.606304,0.223694,6.8974083572,0,0,-13.197946,277.9, 1.5, -7.2,0,0,1024,1024,1675,1024,0,0,99,0,278.4,-71,0,70,3.851,3.854,3.851,3.853,0,0,12.149,78.98,203.07165971352,149.606304,6,P-GPS,
18500,2023-07-09 18:03:11,52.2063756075694,0.0867138070444514,153.215228,153.215228,53.465355713516,206.68058371352,83.66142,0,6.8990487772,7.9261485476,25,5,15.407,206.68058371352,153.215228,0.223694,6.8990487772,0,0,-12.974252,277.9, 0, -7.1,0,0,1024,1024,1684,1024,0,0,100,0,278.4,-72.9,0,70,3.852,3.858,3.851,3.854,0,0,13.312,79.16,206.68058371352,153.215228,6,P-GPS,
18700,2023-07-09 18:03:11,52.2063755994266,0.0867138884594499,156.824152,156.824152,53.465355713516,210.28950771352,83.66142,0,6.90534799,7.9446196768,25,5,15.407,210.28950771352,156.824152,0.223694,6.90534799,0,0,-12.974252,278, 1.3, -6.6,0,0,1024,1024,1684,1017,0,0,100,-1,278.4,-73.3,0,70,3.852,3.858,3.851,3.854,0,0,13.312,79.16,210.28950771352,156.824152,6,P-GPS,
18900,2023-07-09 18:03:11,52.2063756023051,0.0867139620074714,160.433076,160.433076,53.465355713516,213.89843171352,83.66142,0,6.9143374916,7.9610894936,25,5,15.407,213.89843171352,160.433076,0.223694,6.9143374916,0,0,-13.197946,277.9, 1.2, -6.8,0,0,1024,1024,1684,1014,0,0,100,-2,278.4,-73.3,0,70,3.852,3.858,3.851,3.854,0,0,13.312,79.16,213.89843171352,160.433076,6,P-GPS,
19100,2023-07-09 18:03:11,52.2063756670517,0.0867140346660457,164.042,164.042,53.465355713516,217.50735571352,83.66142,0,6.942913608,7.9897640352,25,5,15.407,217.50735571352,164.042,0.223694,6.942913608,0,0,-13.197946,277.9, 1.4, -7.8,0,0,1024,1024,1684,1017,0,0,100,-1,278.4,-73.3,0,70,3.852,3.858,3.851,3.854,0,0,13.312,79.16,217.50735571352,164.042,6,P-GPS,
19300,2023-07-09 18:03:12,52.2063756227993,0.0867141218545875,167.979008,167.979008,53.465355713516,221.44436371352,83.66142,0,6.938484474,8.0150593116,25,5,15.407,221.44436371352,167.979008,0.223694,6.942913608,0,0,-13.42164,277.9, 0.7, -7.3,0,0,1024,1024,1684,1018,0,0,100,-1,278.4,-73.3,0,70,3.852,3.858,3.851,3.854,0,0,13.312,79.16,221.44436371352,167.979008,6,P-GPS,
19500,2023-07-09 18:03:12,52.2063755305764,0.0867141843273314,171.587932,171.587932,53.465355713516,225.05328771352,83.66142,0,6.9162403788,8.051509444,25,5,15.407,225.05328771352,171.587932,0.223694,6.942913608,0,0,-13.42164,277.9, 1, -6.1,0,0,1024,1024,1684,1018,0,0,100,-1,278.4,-73.3,0,70,3.846,3.855,3.852,3.852,0,0,13.312,79.16,225.05328771352,171.587932,6,P-GPS,
19700,2023-07-09 18:03:12,52.2063754694085,0.0867142949909883,175.52494,175.52494,53.465355713516,228.99029571352,83.66142,0,6.9093178064,8.08480997,25,5,15.407,228.99029571352,175.52494,0.223694,6.942913608,0,0,-13.42164,278, 0, -6.3,0,0,1024,1024,1684,1018,0,0,100,-1,278.4,-73.3,0,70,3.846,3.855,3.852,3.852,0,0,13.312,79.16,228.99029571352,175.52494,6,P-GPS,
19900,2023-07-09 18:03:12,52.2063754453012,0.0867143516185438,179.133864,179.133864,53.465355713516,232.59921971352,83.66142,0,6.9080710872,8.100229918,25,5,15.407,232.59921971352,179.133864,0.223694,6.942913608,0,0,-13.42164,277.9, 0.5, -6.5,0,0,1024,1024,1024,1024,0,0,0,0,278.4,-73.3,0,70,3.846,3.855,3.852,3.852,0,0,13.312,79.16,232.59921971352,179.133864,6,P-GPS,
20100,2023-07-09 18:03:13,52.206375450315,0.0867143693218631,182.742788,182.742788,53.465355713516,236.20814371352,83.66142,0,6.9116472028,8.1045934352,25,5,15.407,236.20814371352,182.742788,0.223694,6.942913608,0,0,-12.750558,277.9, 0.1, -6.7,0,0,1024,1024,1024,1024,0,0,0,0,278.4,-73.3,0,70,3.846,3.855,3.852,3.852,0,0,13.312,79.16,236.20814371352,182.742788,6,P-GPS,
20300,2023-07-09 18:03:13,52.2063755213562,0.0867143584615206,186.023628,186.023628,53.465355713516,239.48898371352,83.66142,0,6.9328086208,8.1306104964,25,5,15.407,239.48898371352,186.023628,0.223694,6.942913608,0,0,-10.961006,277.8, 0.1, -7.5,0,0,1024,1024,1024,1024,0,0,0,0,278.4,-73.3,0,70,3.846,3.855,3.852,3.852,0,0,13.312,79.16,239.48898371352,186.023628,6,P-GPS,
20500,2023-07-09 18:03:13,52.2063756561782,0.086714305900259,188.320216,188.320216,53.465355713516,241.78557171352,83.66142,0,6.969488412,8.1812010492,25,5,15.405,241.78557171352,188.320216,0.223694,6.969488412,0,0,-8.724066,277.8, 0.4, -7.9,0,0,1024,1024,1024,1024,0,0,0,0,278.4,-73.3,0,70,3.9,3.907,3.903,3.908,0,0,12.548,79.52,241.78557171352,188.320216,6,P-GPS,
20700,2023-07-09 18:03:13,52.2063758567213,0.0867142214482091,189.632552,189.632552,53.465355713516,243.09790771352,83.66142,0.223694,7.0236878888,8.2567587944,25,5,15.405,243.09790771352,189.632552,0.223694,7.0236878888,0.223694,0,-6.487126,277.8, 0.6, -9.1,0,0,1024,1024,1024,1024,0,0,0,0,278.4,-73.3,0,70,3.9,3.907,3.903,3.908,0,0,12.548,79.52,243.09790771352,189.632552,6,P-GPS,
20900,2023-07-09 18:03:13,52.2063761090193,0.0867141557741543,190.616804,190.616804,53.465355713516,244.08215971352,83.66142,0.223694,7.0968178124,8.3499674588,25,5,15.405,244.08215971352,190.616804,0.223694,7.0968178124,0.223694,0,-4.026492,277.9, 0.6, -12.2,0,0,1024,1024,1024,1024,0,0,0,0,278.4,-74.7,0,70,3.9,3.907,3.903,3.908,0,0,12.548,79.52,244.08215971352,190.616804,6,P-GPS,
21100,2023-07-09 18:03:14,52.2063763444512,0.0867141247134001,191.272972,191.272972,53.465355713516,244.73832771352,83.66142,0.447388,7.1687010168,8.4361551256,25,5,15.405,244.73832771352,191.272972,0.447388,7.1687010168,0.447388,0,-1.565858,278.1, 0.5, -15.9,0,0,1024,1024,1024,1024,0,0,0,0,278.4,-77.3,0,70,3.9,3.907,3.903,3.908,0,0,12.548,79.52,244.73832771352,191.272972,6,P-GPS,
21300,2023-07-09 18:03:14,52.2063763616622,0.0867140687813258,191.601056,191.601056,53.465355713516,245.06641171352,83.66142,0.223694,7.1682416992,8.4501643124,25,5,15.405,245.06641171352,191.601056,0.447388,7.1687010168,0.223694,0,-0.223694,277.9, 0.4, -16.8,0,0,1024,1024,1024,1024,0,0,0,0,278.4,-80.2,0,70,3.9,3.907,3.903,3.908,0,0,12.548,79.52,245.06641171352,191.601056,6,P-GPS,
21500,2023-07-09 18:03:14,52.206375936036,0.0867139583500785,191.601056,191.601056,53.465355713516,245.06641171352,83.66142,0,7.0202101984,8.6073821652,25,5,15.381,245.06641171352,191.601056,0.447388,7.1687010168,0,0,0,277.9, 0.1, -15.9,0,0,1024,1024,1024,1024,0,0,0,0,278.4,-83.1,0,70,3.933,3.933,3.924,3.924,0,0,12.313,79.52,245.06641171352,191.601056,6,P-GPS,
21700,2023-07-09 18:03:14,52.2063750261345,0.0867137502805955,191.601056,191.601056,53.465355713516,245.06641171352,83.66142,0.447388,6.7083007396,8.9426183964,25,5,15.381,245.06641171352,191.601056,0.447388,7.1687010168,-0.447388,0,0,277.6, 0.6, -13.7,0,0,1024,1024,1024,1024,0,0,0,0,278.4,-86,0,70,3.933,3.933,3.924,3.924,0,0,12.313,79.52,245.06641171352,191.601056,6,P-GPS,
21900,2023-07-09 18:03:14,52.2063737580756,0.086713357856144,191.601056,191.601056,53.465355713516,245.06641171352,83.66142,0.671082,6.2656498068,9.4135173616,25,5,15.381,245.06641171352,191.601056,0.671082,7.1687010168,-0.671082,0,0,278.5, 1.3, -10,0,0,1024,1024,1024,1024,0,0,0,0,278.4,-88.9,0,70,3.933,3.933,3.924,3.924,0,0,12.313,79.52,245.06641171352,191.601056,6,P-GPS,
22100,2023-07-09 18:03:15,52.2063723647404,0.0867128854740594,191.601056,191.601056,53.465355713516,245.06641171352,83.66142,0.7158208,5.7793965104,9.9327102916,25,5,15.381,245.06641171352,191.601056,0.7158208,7.1687010168,-0.671082,-0.223694,0,280.6, 2.7, -7.1,0,0,1024,1024,1024,1024,0,0,0,0,278.4,-89.9,0,70,3.933,3.933,3.924,3.924,0,0,12.313,79.52,245.06641171352,191.601056,6,P-GPS,
22300,2023-07-09 18:03:15,52.2063710084454,0.0867124822626579,191.601056,191.601056,53.465355713516,245.06641171352,83.66142,0.671082,5.3193243172,10.435695872,25,5,15.381,245.06641171352,191.601056,0.7158208,7.1687010168,-0.671082,0,0,281.2, 3.2, -5.1,0,0,1024,1024,1024,1024,0,0,0,0,278.4,-90,0,70,3.933,3.933,3.924,3.924,0,0,12.313,79.52,245.06641171352,191.601056,6,P-GPS,
22500,2023-07-09 18:03:15,52.2063698081306,0.0867122969431022,191.92914,191.92914,53.465355713516,245.39449571352,83.66142,0.447388,4.94258546,10.8755908992,25,5,15.8,245.39449571352,191.92914,0.7158208,7.1687010168,-0.447388,0,0,281.4, 2, -3.5,0,0,1024,1024,1024,1024,0,0,0,0,278.4,-90,0,70,3.909,3.916,3.913,3.917,0,0,4.741,80.06,245.39449571352,191.92914,6,P-GPS,
22700,2023-07-09 18:03:15,52.2063688584582,0.0867122974673344,191.92914,191.92914,53.465355713516,245.39449571352,83.66142,0.223694,4.6736221968,11.2220804116,25,5,15.8,245.39449571352,191.92914,0.7158208,7.1687010168,-0.223694,0,0,281.6, 0.3, -2.5,0,0,1024,1024,1024,1024,0,0,0,0,278.4,-89.9,0,70,3.909,3.916,3.913,3.917,0,0,4.741,80.06,245.39449571352,191.92914,6,P-GPS,
22900,2023-07-09 18:03:15,52.2063681260676,0.0867123721843935,191.92914,191.92914,53.465355713516,245.39449571352,83.66142,0.223694,4.4847770464,11.489829764,25,5,15.8,245.39449571352,191.92914,0.7158208,7.1687010168,0,0.223694,0,282, -0.5, -2.3,0,0,1666,1024,1024,1024,97,0,0,0,278.4,-89.9,0,70,3.909,3.916,3.913,3.917,0,0,4.741,80.06,245.39449571352,191.92914,6,P-GPS,
23100,2023-07-09 18:03:15,52.2063677088691,0.0867124052861582,191.92914,191.92914,53.465355713516,245.39449571352,83.66142,0,4.3793964656,11.642224782,25,5,15.8,245.39449571352,191.92914,0.7158208,7.1687010168,0,0,0,283, -7.1, -0.5,0,0,1684,1024,1024,1024,100,0,0,0,278.4,-90,0,70,3.909,3.916,3.913,3.917,0,0,4.741,80.06,245.39449571352,191.92914,6,P-GPS,
23300,2023-07-09 18:03:16,52.2063677919769,0.0867117617737344,191.92914,191.92914,53.465355713516,245.39449571352,83.66142,0.9395148,4.302657618,11.7892720308,25,5,15.8,245.39449571352,191.92914,0.9395148,7.1687010168,0.671082,-0.671082,0,284.5, -25.7, -2.6,0,0,1684,1024,1024,1024,100,0,0,0,278.4,-89.9,0,70,3.909,3.916,3.913,3.917,0,0,4.741,80.06,245.39449571352,191.92914,6,P-GPS,
23500,2023-07-09 18:03:16,52.2063685300591,0.0867088672032678,191.92914,191.92914,53.465355713516,245.39449571352,83.66142,3.1093466,4.1167324152,12.4902234968,25,5,15.644,245.39449571352,191.92914,3.1093466,7.1687010168,1.565858,-2.684328,0,285.7, -27, -4.5,0,0,1684,1024,1024,1024,100,0,0,0,278.4,-89.9,0,70,3.908,3.917,3.904,3.907,0,0,7.534,80.06,245.39449571352,191.92914,6,P-GPS,
23700,2023-07-09 18:03:16,52.206369966019,0.0867033438952095,191.92914,191.92914,53.465355713516,245.39449571352,83.66142,5.3239172,4.0947835956,13.831693356,25,5,15.644,245.39449571352,191.92914,5.3239172,7.1687010168,2.013246,-4.921268,0,286.1, -27.2, -6.4,0,0,1684,1024,1024,1024,100,0,0,0,278.4,-90,0,70,3.908,3.917,3.904,3.907,0,0,7.534,80.06,245.39449571352,191.92914,6,P-GPS,
23900,2023-07-09 18:03:16,52.2063719291006,0.0866954887005947,191.601056,191.601056,53.465355713516,245.06641171352,83.66142,7.3147938,4.7369752172,15.7284453852,25,5,15.644,245.39449571352,191.92914,7.3147938,7.1687010168,2.908022,-6.71082,0,288.3, -27.1, -8.9,0,0,1681,1024,1024,1024,100,0,0,0,278.4,-90,0,70,3.908,3.917,3.904,3.907,0,0,7.534,80.06,245.06641171352,191.601056,6,P-GPS,
24100,2023-07-09 18:03:16,52.2063745236137,0.0866847326670075,191.601056,191.601056,53.465355713516,245.06641171352,83.66142,9.2161928,6.4413715972,18.3129599036,25,5,15.644,245.39449571352,191.92914,9.2161928,7.1687010168,3.579104,-8.500372,0,289.9, -26.6, -9.9,0,0,1672,1024,1024,1024,98,0,0,0,278.4,-89.9,0,70,3.908,3.917,3.904,3.907,0,0,7.534,80.06,245.06641171352,191.601056,6,P-GPS,
24300,2023-07-09 18:03:17,52.2063774761418,0.0866719354877549,191.601056,191.601056,53.465355713516,245.06641171352,83.66142,10.849159,8.994586902,21.3703090828,25,5,15.644,245.39449571352,191.92914,10.849159,8.994586902,4.026492,-10.06623,0,291, -26.1, -10.3,0,0,1663,1024,1024,1024,97,0,0,0,278.4,-90,0,70,3.908,3.917,3.904,3.907,0,0,7.534,80.06,245.06641171352,191.601056,6,P-GPS,
24500,2023-07-09 18:03:17,52.2063808362092,0.0866569636887475,191.601056,191.601056,53.465355713516,245.06641171352,83.66142,12.6610804,12.2553809696,24.93520421,25,5,15.648,245.39449571352,191.92914,12.6610804,12.2553809696,4.47388,-11.855782,0,291.2, -24.9, -10.2,0,0,1643,1024,1024,1024,94,0,0,0,278.4,-89.9,0,70,3.888,3.89,3.887,3.89,0,0,7.314,80.06,245.06641171352,191.601056,6,P-GPS,
24700,2023-07-09 18:03:17,52.206384605814,0.0866399968561889,191.601056,191.601056,53.465355713516,245.06641171352,83.66142,14.092722,16.0991474968,28.9703749428,25,5,15.648,245.39449571352,191.92914,14.092722,16.0991474968,4.921268,-13.197946,0,291.2, -22.7, -10.5,0,0,1640,1024,1024,1024,93,0,0,0,278.4,-90,0,70,3.888,3.89,3.887,3.89,0,0,7.314,80.06,245.06641171352,191.601056,6,P-GPS,
24900,2023-07-09 18:03:17,52.2063887209037,0.0866213687180055,191.601056,191.601056,53.465355713516,245.06641171352,83.66142,15.5019942,20.4000334612,33.397638864,25,5,15.648,245.39449571352,191.92914,15.5019942,20.4000334612,5.368656,-14.54011,0,291.5, -21.5, -10.9,0,0,1630,1024,1003,1024,92,0,-3,0,278.4,-89.9,0,70,3.888,3.89,3.887,3.89,0,0,7.314,80.06,245.06641171352,191.601056,6,P-GPS,
25100,2023-07-09 18:03:18,52.2063931130818,0.0866012762491809,191.601056,191.5682476,53.498164113516,245.06641171352,83.66142,16.6204642,25.0799876792,38.167324056,25,5,15.648,245.39449571352,191.92914,16.6204642,25.0799876792,5.59235,-15.65858,0,291.4, -20.2, -10.7,0,0,1581,1024,978,1024,84,0,-7,0,278.4,-89.9,0,70,3.888,3.89,3.887,3.89,0,0,7.314,80.06,245.06641171352,191.601056,6,P-GPS,
25300,2023-07-09 18:03:18,52.206397746254,0.0865798745630149,191.601056,191.5026308,53.563780913516,245.06641171352,83.66142,17.5376096,30.0881571308,43.242455452,25,5,15.648,245.39449571352,191.92914,17.5376096,30.0881571308,5.816044,-16.553356,0,291.2, -18.5, -10.4,0,0,1568,1024,962,1024,82,0,-9,0,278.4,-90,0,70,3.888,3.89,3.887,3.89,0,0,7.314,80.06,245.06641171352,191.601056,6,P-GPS,
25500,2023-07-09 18:03:18,52.2064025831219,0.0865573838020567,191.601056,191.437014,53.629397713516,245.06641171352,83.66142,18.2534304,35.366470948,48.571523864,25,5,15.572,245.39449571352,191.92914,18.2534304,35.366470948,6.039738,-17.224438,0,290.6, -14.8, -10.2,0,0,1024,1024,968,1024,0,0,-8,0,278.4,-90,0,70,3.885,3.893,3.89,3.893,0,0,8.881,80.06,245.06641171352,191.601056,6,P-GPS,
25700,2023-07-09 18:03:18,52.2064075136777,0.0865341790369265,191.601056,191.3713972,53.695014513516,245.06641171352,83.66142,18.678449,40.816602356,54.062993856,25,5,15.572,245.39449571352,191.92914,18.678449,40.816602356,6.039738,-17.671826,0,289.8, -3.2, -8.4,0,0,1024,1024,975,1024,0,0,-7,0,278.4,-89.9,0,70,3.885,3.893,3.89,3.893,0,0,8.881,80.06,245.06641171352,191.601056,6,P-GPS,
25900,2023-07-09 18:03:18,52.206412308966,0.0865115540725409,191.272972,191.0105048,53.727822913516,244.73832771352,83.66142,17.2691768,46.13845292,59.415684316,25,5,15.572,245.39449571352,191.92914,18.678449,46.13845292,5.59235,-16.329662,-0.223694,288.5, 25, -3.4,0,0,1024,1024,593,1024,0,0,-65,0,278.4,-90,0,70,3.885,3.893,3.89,3.893,0,0,8.881,80.06,244.73832771352,191.272972,6,P-GPS,
26100,2023-07-09 18:03:18,52.2064166558616,0.0864917150874294,191.272972,190.944888,53.793439713516,244.73832771352,83.66142,15.1440838,50.831366456,64.126314388,25,5,15.572,245.39449571352,191.92914,18.678449,50.831366456,4.921268,-14.316416,0,287.4, 27.6, -6.1,0,0,1024,1024,364,1024,0,0,-100,0,278.4,-89.9,0,70,3.885,3.893,3.89,3.893,0,0,8.881,80.06,244.73832771352,191.272972,6,P-GPS,
26300,2023-07-09 18:03:19,52.2064205945304,0.0864743154453228,190.944888,190.5511872,53.859056513516,244.41024371352,83.66142,13.309793,54.96883378,68.273624232,25,5,15.572,245.39449571352,191.92914,18.678449,54.96883378,4.47388,-12.526864,1.789552,287.1, 27.7, -8.6,0,0,1024,1024,364,1024,0,0,-100,0,278.4,-90,0,70,3.885,3.893,3.89,3.893,0,0,8.881,80.06,244.41024371352,190.944888,6,P-GPS,
26500,2023-07-09 18:03:19,52.2064241085668,0.0864591406863483,189.632552,189.2060428,53.891864913516,243.09790771352,83.66142,12.1018454,58.589896888,71.900592852,25,5,15.552,245.39449571352,191.92914,18.678449,58.589896888,4.026492,-11.408394,4.250186,286.7, 28.3, -9,0,0,1024,1024,364,1024,0,0,-100,0,278.4,-90,0,70,3.953,3.956,3.957,3.956,0,0,9.425,80.24,243.09790771352,189.632552,6,P-GPS,
26700,2023-07-09 18:03:19,52.2064274645949,0.0864448577231279,187.992132,187.5328144,53.924673313516,241.45748771352,83.66142,10.8938978,62.005907496,75.320868552,25,5,15.552,245.39449571352,191.92914,18.678449,62.005907496,3.579104,-10.289924,6.487126,286.6, 28.4, -9,0,0,1024,1024,364,1024,0,0,-100,0,278.4,-89.9,0,70,3.953,3.956,3.957,3.956,0,0,9.425,80.24,241.45748771352,187.992132,6,P-GPS,
26900,2023-07-09 18:03:19,52.2064303950396,0.0864325587618672,184.711292,184.219166,53.957481713516,238.17664771352,83.66142,9.5517338,64.953742236,78.27099988,24,5,15.552,245.39449571352,191.92914,18.678449,64.953742236,3.35541,-8.94776,8.724066,286.3, 28.1, -9.4,0,0,1024,1024,373,1024,0,0,-99,0,278.4,-90,0,70,3.953,3.956,3.957,3.956,0,0,9.425,80.24,238.17664771352,184.711292,6,P-GPS,
27100,2023-07-09 18:03:19,52.2064329939015,0.0864218867375723,181.102368,180.5774336,53.990290113516,234.56772371352,83.66142,8.4332638,67.5196872,80.838913348,25,5,15.552,245.39449571352,191.92914,18.678449,67.5196872,3.131716,-7.82929,10.961006,286, 28.1, -10.4,0,0,1024,1024,376,1024,0,0,-98,0,278.4,-90,0,70,3.953,3.956,3.957,3.956,0,0,9.425,80.24,234.56772371352,181.102368,6,P-GPS,
27300,2023-07-09 18:03:20,52.2064352533762,0.0864129004481197,177.493444,176.9357012,54.023098513516,230.95879971352,83.66142,6.822667,69.690947112,83.010501344,25,5,15.552,245.39449571352,191.92914,18.678449,69.690947112,2.684328,-6.263432,12.30317,285.3, 27.3, -11.3,0,0,1024,1024,376,1024,0,0,-98,0,278.4,-89.9,0,70,3.953,3.956,3.957,3.956,0,0,9.425,80.24,230.95879971352,177.493444,6,P-GPS,
27500,2023-07-09 18:03:20,52.2064368048289,0.0864061734454071,173.556436,172.9986932,54.023098513516,227.02179171352,83.66142,4.8988986,71.296262124,84.617456776,25,5,15.697,245.39449571352,191.92914,18.678449,71.296262124,2.013246,-4.47388,12.750558,285.3, 27.6, -11.4,0,0,1024,1024,379,1024,0,0,-98,0,278.4,-89.9,0,70,3.957,3.954,3.932,3.927,0,0,7.217,80.24,227.02179171352,173.556436,6,P-GPS,
27700,2023-07-09 18:03:20,52.2064374689454,0.0864018978640079,170.275596,169.7178532,54.023098513516,223.74095171352,83.66142,2.6172198,72.269687352,85.60367728,25,5,15.697,245.39449571352,191.92914,18.678449,72.269687352,0.894776,-2.460634,12.974252,285.8, 27, -12.4,0,0,1024,1024,383,1024,0,0,-97,0,278.4,-90,0,70,3.957,3.954,3.932,3.927,0,0,7.217,80.24,223.74095171352,170.275596,6,P-GPS,
27900,2023-07-09 18:03:20,52.2064371484996,0.0864000795753219,166.994756,166.4370132,54.023098513516,220.46011171352,83.66142,0.671082,72.597443268,86.02690564,25,5,15.697,245.39449571352,191.92914,18.678449,72.597443268,0,-0.671082,12.750558,287.5, 16.2, -11,0,0,1024,1024,462,965,0,0,-85,-9,278.4,-90,0,70,3.957,3.954,3.932,3.927,0,0,7.217,80.24,220.46011171352,166.994756,6,P-GPS,
28100,2023-07-09 18:03:21,52.206436052336,0.086399803927074,164.042,163.4842572,54.023098513516,217.50735571352,83.66142,0.671082,72.4983619,86.431433212,25,5,15.697,245.39449571352,191.92914,18.678449,72.597443268,-0.671082,0,12.30317,288.7, 6.4, -6.9,0,0,1024,1024,441,940,0,0,-88,-13,278.4,-90,0,70,3.957,3.954,3.932,3.927,0,0,7.217,80.24,217.50735571352,164.042,6,P-GPS,
28300,2023-07-09 18:03:21,52.2064345206215,0.0864001690722325,161.089244,160.5315012,54.023098513516,214.55459971352,83.66142,0.894776,72.208335644,86.996065776,25,5,15.697,245.39449571352,191.92914,18.678449,72.597443268,-0.894776,0,10.513618,289.2, -0.4, -1.8,0,0,1024,1024,435,949,0,0,-89,-11,278.3,-90,0,70,3.957,3.954,3.932,3.927,0,0,7.217,80.24,214.55459971352,161.089244,6,P-GPS,
28500,2023-07-09 18:03:21,52.2064329899607,0.0864005965940257,158.464572,157.9396376,53.990290113516,211.92992771352,83.66142,0.894776,71.908794952,87.562666844,25,5,15.832,245.39449571352,191.92914,18.678449,72.597443268,-0.894776,0,10.513618,289, -1.8, -1,0,0,1024,1024,528,1024,0,0,-75,0,278.2,-89.9,0,70,3.886,3.896,3.904,3.926,0,0,3.038,80.42,211.92992771352,158.464572,6,P-GPS,
28700,2023-07-09 18:03:21,52.2064315863988,0.086400881328964,155.183732,154.6587976,53.990290113516,208.64908771352,83.66142,0.671082,71.659123028,88.078742976,25,5,15.832,245.39449571352,191.92914,18.678449,72.597443268,-0.671082,0,10.513618,288.8, -2, 0.7,0,0,1024,1024,567,1024,0,0,-69,0,278.1,-89.9,0,70,3.886,3.896,3.904,3.926,0,0,3.038,80.42,208.64908771352,155.183732,6,P-GPS,
28900,2023-07-09 18:03:21,52.2064304749775,0.086401027722536,152.230976,151.73885,53.957481713516,205.69633171352,83.66142,0.447388,71.479989164,88.485567136,25,5,15.832,245.39449571352,191.92914,18.678449,72.597443268,-0.447388,0,8.94776,289.2, -2.1, 2.4,0,0,1024,1024,407,1024,0,0,-93,0,278.1,-89.9,0,70,3.886,3.896,3.904,3.926,0,0,3.038,80.42,205.69633171352,152.230976,6,P-GPS,
29100,2023-07-09 18:03:22,52.2064297091031,0.0864010902669249,150.262472,149.770346,53.957481713516,203.72782771352,83.66142,0.223694,71.365487848,88.765422788,25,5,15.832,245.39449571352,191.92914,18.678449,72.597443268,-0.223694,0,8.276678,289, -1.1, -1.9,0,0,1024,1024,419,1024,0,0,-92,0,278.1,-90,0,70,3.886,3.896,3.904,3.926,0,0,3.038,80.42,203.72782771352,150.262472,6,P-GPS,
29300,2023-07-09 18:03:22,52.2064291022737,0.0864011224198294,147.6378,147.1784824,53.924673313516,201.10315571352,83.66142,0,71.279201756,88.986879488,25,5,15.832,245.39449571352,191.92914,18.678449,72.597443268,0,0,9.618842,288.8, -1.1, -2.2,0,0,1024,1024,1024,1024,0,0,0,0,278.1,-90,0,70,3.886,3.896,3.904,3.926,0,0,3.038,80.42,201.10315571352,147.6378,6,P-GPS,
29500,2023-07-09 18:03:22,52.2064286596036,0.0864011411803502,144.685044,144.2257264,53.924673313516,198.15039971352,83.66142,0,71.217521964,89.1486249,25,5,15.725,245.39449571352,191.92914,18.678449,72.597443268,0,0,10.513618,288.6, -2.4, 0.8,0,0,1024,1024,1024,1024,0,0,0,0,278.1,-90,0,70,3.941,3.949,3.936,3.95,0,0,6.117,80.42,198.15039971352,144.685044,6,P-GPS,
29700,2023-07-09 18:03:22,52.2064285812248,0.0864010898754982,141.732288,141.2729704,53.924673313516,195.19764371352,83.66142,0.223694,71.218178132,89.179464796,25,5,15.725,245.39449571352,191.92914,18.678449,72.597443268,0.223694,0,8.276678,289.5, -1.3, 0.5,0,0,1024,1024,689,1024,0,0,-51,0,278.1,-89.9,0,70,3.941,3.949,3.936,3.95,0,0,6.117,80.42,195.19764371352,141.732288,6,P-GPS,
29900,2023-07-09 18:03:22,52.2064288667775,0.086400998812881,141.07612,140.6168024,53.924673313516,194.54147571352,83.66142,0.447388,71.274280496,89.285435928,25,5,15.725,245.39449571352,191.92914,18.678449,72.597443268,0.447388,0,6.263432,290.6, -1.6, -5.7,0,0,1024,1024,450,1024,0,0,-87,0,278.1,-90,0,70,3.941,3.949,3.936,3.95,0,0,6.117,80.42,194.54147571352,141.07612,6,P-GPS,
30100,2023-07-09 18:03:22,52.2064291938112,0.0864006750191535,140.091868,139.6325504,53.924673313516,193.55722371352,83.66142,0.671082,71.38451672,89.425199712,25,5,15.725,245.39449571352,191.92914,18.678449,72.597443268,0.671082,0,5.816044,289.3, 2.4, -10.4,0,0,1024,1024,367,1024,0,0,-100,0,278.1,-90,0,70,3.941,3.949,3.936,3.95,0,0,6.117,80.42,193.55722371352,140.091868,6,P-GPS,
30300,2023-07-09 18:03:23,52.2064294338564,0.0864004091845312,138.779532,138.3202144,53.924673313516,192.24488771352,83.66142,0.223694,71.47145898,89.53084276,25,5,15.725,245.39449571352,191.92914,18.678449,72.597443268,0.223694,0,7.82929,288.3, 3.4, -10.5,0,0,1024,1024,379,1024,0,0,-98,0,278.1,-90,0,70,3.941,3.949,3.936,3.95,0,0,6.117,80.42,192.24488771352,138.779532,6,P-GPS,
30500,2023-07-09 18:03:23,52.2064296194246,0.0864002603585221,136.15486,135.662734,53.957481713516,189.62021571352,83.66142,0,71.526905176,89.60630208,25,5,15.658,245.39449571352,191.92914,18.678449,72.597443268,0,0,9.618842,288.4, 1.8, -6.7,0,0,1024,1024,397,1024,0,0,-95,0,278.1,-89.9,0,69,3.94,3.94,3.946,3.952,0,0,6.357,80.24,189.62021571352,136.15486,6,P-GPS,
30700,2023-07-09 18:03:23,52.2064298049756,0.0864002269195015,132.545936,132.05381,53.957481713516,186.01129171352,83.66142,0,71.558073156,89.674543552,25,5,15.658,245.39449571352,191.92914,18.678449,72.597443268,0,0,11.1847,288.6, 0.3, -7.2,0,0,1024,1024,964,1024,0,0,-9,0,278.1,-90,0,69,3.94,3.94,3.946,3.952,0,0,6.357,80.24,186.01129171352,132.545936,6,P-GPS,
30900,2023-07-09 18:03:23,52.2064299852408,0.0864002408710662,128.608928,128.116802,53.957481713516,182.07428371352,83.66142,0,71.579070532,89.740160352,25,5,15.658,245.39449571352,191.92914,18.678449,72.597443268,0,0,11.632088,288.6, 0.3, -7.3,0,0,1024,1024,1024,1024,0,0,0,0,278.1,-89.9,0,69,3.94,3.94,3.946,3.952,0,0,6.357,80.24,182.07428371352,128.608928,6,P-GPS,
31100,2023-07-09 18:03:23,52.206429966702,0.0864001568541288,125.984256,125.49213,53.957481713516,179.44961171352,83.66142,0,71.594162396,89.760173476,25,5,15.658,245.39449571352,191.92914,18.678449,72.597443268,0,0,9.395148,289.9, 0, -7.2,0,0,1024,1024,1024,1024,0,0,0,0,278.1,-89.9,0,69,3.94,3.94,3.946,3.952,0,0,6.357,80.24,179.44961171352,125.984256,6,P-GPS,
31300,2023-07-09 18:03:24,52.2064297032776,0.0863998738526515,125.000004,124.507878,53.957481713516,178.46535971352,83.66142,0.3131716,71.618440612,89.87533096,25,5,15.658,245.39449571352,191.92914,18.678449,72.597443268,-0.223694,-0.223694,7.158208,290.2, 0.7, -7.5,0,0,1024,1024,1181,1024,0,0,24,0,278.1,-90,0,69,3.94,3.94,3.946,3.952,0,0,6.357,80.24,178.46535971352,125.000004,6,P-GPS,
31500,2023-07-09 18:03:24,52.20642919884,0.0863994747931685,124.015752,123.5564344,53.924673313516,177.48110771352,83.66142,0.3131716,71.635829064,90.079727292,25,5,15.553,245.39449571352,191.92914,18.678449,72.597443268,-0.223694,-0.223694,4.921268,289.3, 2.7, -4.6,0,0,1024,1024,1684,1024,0,0,100,0,278.1,-90,0,69,3.872,3.879,3.872,3.865,0,0,7.445,80.6,177.48110771352,124.015752,6,P-GPS,
31700,2023-07-09 18:03:24,52.2064287349754,0.0863993323418222,123.0315,122.5721824,53.924673313516,176.49685571352,83.66142,0.223694,71.605317252,90.251971392,25,5,15.553,245.39449571352,191.92914,18.678449,72.597443268,-0.223694,0,2.460634,289.2, 2.1, -4.6,0,0,1024,1024,1684,1024,0,0,100,0,278.1,-89.9,0,69,3.872,3.879,3.872,3.865,0,0,7.445,80.6,176.49685571352,123.0315,6,P-GPS,
31900,2023-07-09 18:03:24,52.2064284362468,0.0863994472814659,122.047248,121.5879304,53.924673313516,175.51260371352,83.66142,0.223694,71.542653208,90.36417612,24,5,15.553,245.39449571352,191.92914,18.678449,72.597443268,-0.223694,0,0.223694,289, 1.1, -4.6,0,0,1024,1024,1596,1024,0,0,87,0,278.1,-89.9,0,69,3.872,3.879,3.872,3.865,0,0,7.445,80.6,175.51260371352,122.047248,6,P-GPS,
32100,2023-07-09 18:03:24,52.2064283374787,0.086399698213916,122.375332,121.9160144,53.924673313516,175.84068771352,83.66142,0.223694,71.477692576,90.430777172,25,5,15.553,245.39449571352,191.92914,18.678449,72.597443268,-0.223694,0,-2.23694,288.7, -0.9, -3.2,0,0,1024,1024,1024,1024,0,0,0,0,278.1,-90,0,69,3.872,3.879,3.872,3.865,0,0,7.445,80.6,175.84068771352,122.375332,6,P-GPS,
