time(millisecond),datetime(utc),latitude,longitude,height_above_takeoff(feet),height_above_ground_at_drone_location(feet),ground_elevation_at_drone_location(feet),altitude_above_seaLevel(feet),height_sonar(feet),speed(mph),distance(feet),mileage(feet),satellites,gpslevel,voltage(v),max_altitude(feet),max_ascent(feet),max_speed(mph),max_distance(feet), xSpeed(mph), ySpeed(mph), zSpeed(mph), compass_heading(degrees), pitch(degrees), roll(degrees),isPhoto,isVideo,rc_elevator,rc_aileron,rc_throttle,rc_rudder,rc_elevator(percent),rc_aileron(percent),rc_throttle(percent),rc_rudder(percent),gimbal_heading(degrees),gimbal_pitch(degrees),gimbal_roll(degrees),battery_percent,voltageCell1,voltageCell2,voltageCell3,voltageCell4,voltageCell5,voltageCell6,current(A),battery_temperature(f),altitude(feet),ascent(feet),flycStateRaw,flycState,message
0,2022-07-09 13:11:15,52.1675028566433,0.094012868978857,0,0,39.214016018628,39.214016018628,0.328084,0,0,0,26,5,0,39.214016018628,0,0,0,0,0,0,73.1, 4.4, 1.3,0,0,1024,1024,1024,1024,0,0,0,0,73.1,0,0,47,3.832,3.832,3.832,3.83,0,0,0,103.46,39.214016018628,0,41,Motors_Started,"Remote controller not bound/still confirming binding status (Code: 30306). Aircraft not in flight. Vision system and obstacle sensing unavailable (Code: 180059)"
200,2022-07-09 13:11:15,52.1675028325758,0.0940128377263215,0,0,39.214016018628,39.214016018628,0.328084,0,0.0112257877608,0.0112257877608,26,5,0,39.214016018628,0,0,0.0112257877608,0,0,0,73, 4.4, 1.3,0,0,1024,1024,1024,1024,0,0,0,0,73.1,0,0,47,3.832,3.832,3.832,3.83,0,0,0,103.46,39.214016018628,0,41,Motors_Started,
400,2022-07-09 13:11:15,52.1675028128981,0.0940127950895464,0,0,39.214016018628,39.214016018628,0.328084,0,0.0229813983732,0.0231665361744,26,5,0,39.214016018628,0,0,0.0229813983732,0,0,0,73.1, 4.4, 1.3,0,0,1024,1024,1024,1024,0,0,0,0,73.1,0,0,47,3.832,3.832,3.832,3.83,0,0,0,103.46,39.214016018628,0,41,Motors_Started,"Setting new Return-To-Home altitude to 26m (85 ft). Data Recorder File Index is 7. Setting new Maximum Flight Altitude to 120m (394 ft)"
600,2022-07-09 13:11:15,52.1675027987447,0.0940127567148775,0,0,39.214016018628,39.214016018628,0,0,0.034863190092,0.035107284588,26,5,0,39.214016018628,0,0,0.034863190092,0,0,0,73, 4.4, 1.3,0,0,1024,1024,1024,1024,0,0,0,0,73.1,0,0,47,3.832,3.832,3.832,3.83,0,0,0,103.46,39.214016018628,0,41,Motors_Started,
800,2022-07-09 13:11:15,52.1675027845914,0.0940127183402086,0,0,39.214016018628,39.214016018628,0,0,0.042748689032,0.043364830784,26,5,0,39.214016018628,0,0,0.042748689032,0,0,0,73, 4.4, 1.3,0,0,1024,1024,1024,1024,0,0,0,0,73.1,0,0,47,3.832,3.832,3.832,3.83,0,0,0,103.46,39.214016018628,0,41,Motors_Started,
1000,2022-07-09 13:11:16,52.1675027463987,0.0940126551149476,0,0,39.214016018628,39.214016018628,0,0,0.062516734284,0.063223099136,26,5,0,39.214016018628,0,0,0.062516734284,0,0,0,73, 4.4, 1.3,0,0,1024,1024,1024,1024,0,0,0,0,73.1,0,0,47,3.832,3.832,3.832,3.83,0,0,0,103.46,39.214016018628,0,41,Motors_Started,
1200,2022-07-09 13:11:16,52.1675027212938,0.0940126179690756,0,0,39.214016018628,39.214016018628,0,0,0.074791997144,0.07559219402,26,5,0,39.214016018628,0,0,0.074791997144,0,0,0,73.1, 4.4, 1.3,0,0,1024,1024,1024,1024,0,0,0,0,73.1,0,0,47,3.832,3.832,3.832,3.83,0,0,0,103.46,39.214016018628,0,41,Motors_Started,
1400,2022-07-09 13:11:16,52.1675027039817,0.0940125666422262,0,0,39.214016018628,39.214016018628,0,0,0.087634845324,0.088700462156,26,5,15.331,39.214016018628,0,0,0.087634845324,0,0,0,73.1, 4.4, 1.3,0,0,1024,1024,1024,1024,0,0,0,0,73.1,0,0,47,3.832,3.832,3.832,3.83,0,0,4.159,103.46,39.214016018628,0,41,Motors_Started,
1600,2022-07-09 13:11:16,52.1675026913436,0.0940125217028073,0,0,39.214016018628,39.214016018628,0,0,0.098370409972,0.09976378272,26,5,15.331,39.214016018628,0,0,0.098370409972,0,0,0,73, 4.4, 1.3,0,0,1024,1024,1024,1024,0,0,0,0,73.1,0,0,47,3.832,3.832,3.832,3.83,0,0,4.159,103.46,39.214016018628,0,11,AutoTakeoff,
1800,2022-07-09 13:11:16,52.1675026782897,0.0940124611121322,0,0,39.214016018628,39.214016018628,0,0,0.112094491776,0.114135174256,26,5,15.331,39.214016018628,0,0,0.112094491776,0,0,0,73.3, 4.4, 1.3,0,0,1024,1024,1024,1024,0,0,0,0,73.1,0,0,47,3.832,3.832,3.832,3.83,0,0,4.159,103.46,39.214016018628,0,11,AutoTakeoff,
2000,2022-07-09 13:11:17,52.1675026395059,0.0940123995690604,0,0,39.214016018628,39.214016018628,0,0,0.131570542268,0.13388123788,26,5,15.331,39.214016018628,0,0,0.131570542268,0,0,0,73.2, 4.3, 1.3,0,0,1024,1024,1024,1024,0,0,0,0,73.1,0,0,47,3.832,3.832,3.832,3.83,0,0,4.159,103.46,39.214016018628,0,11,AutoTakeoff,
2200,2022-07-09 13:11:17,52.1675025736147,0.0940123001872065,0,0,39.214016018628,39.214016018628,0,0,0.163904860888,0.166630910844,26,5,15.331,39.214016018628,0,0,0.163904860888,0,0,0,73.6, 0.8, 0.9,0,0,1024,1024,1024,1024,0,0,0,0,73.1,0,0,47,3.832,3.832,3.832,3.83,0,0,4.159,103.46,39.214016018628,0,11,AutoTakeoff,
2400,2022-07-09 13:11:17,52.1675024767351,0.0940122185294466,0,-0.032808399999999,39.246824418628,39.214016018628,0.328084,0,0.20099738176,0.206421594532,25,5,15.362,39.214016018628,0,0,0.20099738176,0,0,-0.671082,73.8, -1.1, 0,0,0,1024,1024,1024,1024,0,0,0,0,73.2,0,0,47,3.836,3.834,3.834,3.83,0,0,3.688,103.46,39.214016018628,0,11,AutoTakeoff,
2600,2022-07-09 13:11:17,52.167502442587,0.0940124831652226,0.328084,0.2952756,39.246824418628,39.542100018628,0.328084,0.223694,0.238959653316,0.24621227822,26,5,15.362,39.542100018628,0.328084,0.223694,0.238959653316,0,0.223694,-1.11847,73.9, 0.7, -0.1,0,0,1024,1024,1024,1024,0,0,0,0,73.2,0,0,47,3.836,3.834,3.834,3.83,0,0,3.688,103.46,39.542100018628,0.328084,11,AutoTakeoff,
2800,2022-07-09 13:11:17,52.1675024084388,0.0940127478009987,0.656168,0.6233596,39.246824418628,39.870184018628,0.656168,0.223694,0.165760175908,0.38332350308,26,5,15.362,39.870184018628,0.656168,0.223694,0.238959653316,0,0.223694,-0.894776,74, 3.1, -0.6,0,0,1024,1024,1024,1024,0,0,0,0,73.2,0,0,47,3.836,3.834,3.834,3.83,0,0,3.688,103.46,39.870184018628,0.656168,11,AutoTakeoff,
3000,2022-07-09 13:11:18,52.1675023635312,0.0940131232881999,0.984252,0.9514436,39.246824418628,40.198268018628,0.984252,0.223694,0.188698168768,0.46893374204,26,5,15.362,40.198268018628,0.984252,0.223694,0.238959653316,0,0.223694,-0.894776,74, 4.4, -1.9,0,0,1024,1024,1024,1024,0,0,0,0,73.3,0,0,47,3.836,3.834,3.834,3.83,0,0,3.688,103.46,40.198268018628,0.984252,11,AutoTakeoff,
3200,2022-07-09 13:11:18,52.1675023449311,0.0940133523374243,1.312336,1.2795276,39.246824418628,40.526352018628,1.312336,0,0.215769035776,0.52063978044,26,5,15.362,40.526352018628,1.312336,0.223694,0.238959653316,0,0,-0.894776,74, 4.1, -1.6,0,0,1024,1024,1024,1024,0,0,0,0,73.3,0,0,47,3.836,3.834,3.834,3.83,0,0,3.688,103.46,40.526352018628,1.312336,11,AutoTakeoff,
3400,2022-07-09 13:11:18,52.1675023200152,0.0940134075033229,1.64042,1.6076116,39.246824418628,40.854436018628,1.64042,0,0.229904863,0.53597114576,26,5,15.267,40.854436018628,1.64042,0.223694,0.238959653316,0,0,-0.894776,73.6, 4, -1.4,0,0,1024,1024,1024,1024,0,0,0,0,73.3,0,0,47,3.814,3.817,3.817,3.813,0,0,7.15,103.28,40.854436018628,1.64042,11,AutoTakeoff,
3600,2022-07-09 13:11:18,52.167502254262,0.0940132843545446,1.968504,1.9356956,39.246824418628,41.182520018628,1.968504,0,0.244185375268,0.55130251108,26,5,15.267,41.182520018628,1.968504,0.223694,0.244185375268,0,0,-1.11847,73.6, 3.3, -1.6,0,0,1024,1024,1024,1024,0,0,0,0,73.3,0,0,47,3.814,3.817,3.817,3.813,0,0,7.15,103.28,41.182520018628,1.968504,11,AutoTakeoff,
3800,2022-07-09 13:11:18,52.1675021885089,0.0940131612057664,2.296588,2.2637796,39.246824418628,41.510604018628,2.296588,0,0.252387803352,0.62916996764,26,5,15.267,41.510604018628,2.296588,0.223694,0.252387803352,0,0,-1.11847,73.7, 2.6, -2.1,0,0,1024,1024,1024,1024,0,0,0,0,73.4,0,0,47,3.814,3.817,3.817,3.813,0,0,7.15,103.28,41.510604018628,2.296588,11,AutoTakeoff,
4000,2022-07-09 13:11:19,52.167502137586,0.0940129862847121,2.624672,2.5918636,39.246824418628,41.838688018628,2.624672,0,0.263657816836,0.67250002152,26,5,15.267,41.838688018628,2.624672,0.223694,0.263657816836,0,0,-1.11847,73.6, 2.6, -2.2,0,0,1024,1024,1024,1024,0,0,0,0,73.4,0,0,47,3.814,3.817,3.817,3.813,0,0,7.15,103.28,41.838688018628,2.624672,11,AutoTakeoff,
4200,2022-07-09 13:11:19,52.1675021607124,0.0940127829078601,2.952756,2.9199476,39.246824418628,42.166772018628,2.952756,0,0.254639443844,0.71878611224,26,5,15.267,42.166772018628,2.952756,0.223694,0.263657816836,0,0,-1.11847,73.6, 2.7, -0.8,0,0,1024,1024,1024,1024,0,0,0,0,73.4,0,0,47,3.814,3.817,3.817,3.813,0,0,7.15,103.28,42.166772018628,2.952756,11,AutoTakeoff,
4400,2022-07-09 13:11:19,52.1675021699427,0.0940125407101488,3.28084,3.2480316,39.246824418628,42.494856018628,3.28084,0,0.261089903368,0.77309057592,26,5,15.247,42.494856018628,3.28084,0.223694,0.263657816836,0,0,-1.11847,73.7, 2.4, -0.4,0,0,1024,1024,1024,1024,0,0,0,0,73.4,0,0,47,3.809,3.813,3.814,3.81,0,0,8.184,103.46,42.494856018628,3.28084,11,AutoTakeoff,
4600,2022-07-09 13:11:19,52.1675021772675,0.0940123503403645,3.608924,3.5761156,39.246824418628,42.822940018628,3.608924,0,0.273696859152,0.81577758516,26,5,15.247,42.822940018628,3.608924,0.223694,0.273696859152,0,0,-0.894776,73.7, 2.4, -0.6,0,0,1024,1024,1024,1024,0,0,0,0,73.4,0,0,47,3.809,3.813,3.814,3.81,0,0,8.184,103.46,42.822940018628,3.608924,6,P-GPS,
4800,2022-07-09 13:11:19,52.1675021803408,0.0940122023670737,3.937008,3.9041996,39.246824418628,43.151024018628,3.937008,0,0.288336951484,0.84890750748,26,5,15.247,43.151024018628,3.937008,0.223694,0.288336951484,0,0,-0.223694,73.5, 2.5, -1,0,0,1024,1024,1024,1024,0,0,0,0,73.4,0,0,47,3.809,3.813,3.814,3.81,0,0,8.184,103.46,43.151024018628,3.937008,6,P-GPS,
5000,2022-07-09 13:11:20,52.1675022069171,0.0940120872052025,3.937008,3.9041996,39.246824418628,43.151024018628,3.937008,0,0.294618775832,0.8764435976,26,5,15.247,43.151024018628,3.937008,0.223694,0.294618775832,0,0,0,73.3, 2.2, -1,0,0,1024,1024,1024,1024,0,0,0,0,73.4,0,0,47,3.809,3.813,3.814,3.81,0,0,8.184,103.46,43.151024018628,3.937008,6,P-GPS,
5200,2022-07-09 13:11:20,52.1675022386516,0.0940119575160079,3.937008,3.9041996,39.246824418628,43.151024018628,3.937008,0,0.304042660648,0.90769031776,26,5,15.247,43.151024018628,3.937008,0.223694,0.304042660648,0,0,0,73.2, 2.2, -1,0,0,1024,1024,1024,1024,0,0,0,0,73.4,0,0,47,3.809,3.813,3.814,3.81,0,0,8.184,103.46,43.151024018628,3.937008,6,P-GPS,
5400,2022-07-09 13:11:20,52.1675022637605,0.0940118588002207,3.937008,3.9041996,39.246824418628,43.151024018628,3.937008,0,0.312880915524,0.93160436052,26,5,15.272,43.151024018628,3.937008,0.223694,0.312880915524,0,0,0,73.2, 2.2, -1.1,0,0,1024,1024,1024,1024,0,0,0,0,73.4,0,0,47,3.813,3.815,3.814,3.811,0,0,7.495,103.28,43.151024018628,3.937008,6,P-GPS,
5600,2022-07-09 13:11:20,52.1675023071316,0.0940117678472085,3.937008,3.9041996,39.246824418628,43.151024018628,3.937008,0,0.317671926176,0.95738520124,26,5,15.272,43.151024018628,3.937008,0.223694,0.317671926176,0,0,0,73.1, 2.1, -1.2,0,0,1024,1024,1024,1024,0,0,0,0,73.4,0,0,47,3.813,3.815,3.814,3.811,0,0,7.495,103.28,43.151024018628,3.937008,6,P-GPS,
5800,2022-07-09 13:11:20,52.1675023523457,0.0940116741016052,3.937008,3.9041996,39.246824418628,43.151024018628,3.937008,0,0.324579734796,0.98407483464,26,5,15.272,43.151024018628,3.937008,0.223694,0.324579734796,0,0,0,73.2, 1.8, -1.4,0,0,1024,1024,1024,1024,0,0,0,0,73.4,0,0,47,3.813,3.815,3.814,3.811,0,0,7.495,103.28,43.151024018628,3.937008,6,P-GPS,
6000,2022-07-09 13:11:21,52.1675024130609,0.0940115833188198,3.937008,3.9041996,39.246824418628,43.151024018628,3.937008,0,0.33010499744,1.01413060988,26,5,15.272,43.151024018628,3.937008,0.223694,0.33010499744,0,0,0,73.2, 1.8, -1.1,0,0,1024,1024,1024,1024,0,0,0,0,73.4,0,0,47,3.813,3.815,3.814,3.811,0,0,7.495,103.28,43.151024018628,3.937008,6,P-GPS,
6200,2022-07-09 13:11:21,52.1675024698315,0.0940115185296553,3.937008,3.9041996,39.246824418628,43.151024018628,3.937008,0,0.33353675608,1.03941276292,26,5,15.272,43.151024018628,3.937008,0.223694,0.33353675608,0,0,0,73.3, 1.7, -1.4,0,0,1024,1024,1024,1024,0,0,0,0,73.4,0,0,47,3.813,3.815,3.814,3.811,0,0,7.495,103.28,43.151024018628,3.937008,6,P-GPS,
6400,2022-07-09 13:11:21,52.167502507273,0.0940115168998436,3.937008,3.937008,39.214016018628,43.151024018628,3.937008,0,0.32832350132,1.05308074236,26,5,15.233,43.151024018628,3.937008,0.223694,0.33353675608,0,0,0,73.3, 1.8, -1.5,0,0,1024,1024,1024,1024,0,0,0,0,73.4,0,0,47,3.805,3.811,3.811,3.807,0,0,7.857,103.46,43.151024018628,3.937008,6,P-GPS,
6600,2022-07-09 13:11:21,52.1675025373143,0.0940115762709969,3.937008,3.937008,39.214016018628,43.151024018628,3.937008,0,0.311864839376,1.07030187152,26,5,15.233,43.151024018628,3.937008,0.223694,0.33353675608,0,0,0,73.1, 2.3, -1.9,0,0,1024,1024,1024,1024,0,0,0,0,73.4,0,0,47,3.805,3.811,3.811,3.807,0,0,7.857,103.46,43.151024018628,3.937008,6,P-GPS,
6800,2022-07-09 13:11:21,52.1675025650194,0.0940116314982207,3.937008,3.937008,39.214016018628,43.151024018628,3.937008,0,0.296662739152,1.0862697198,26,5,15.233,43.151024018628,3.937008,0.223694,0.33353675608,0,0,0,73.2, 1.8, -2.2,0,0,1024,1024,1024,1024,0,0,0,0,73.4,0,0,47,3.805,3.811,3.811,3.807,0,0,7.857,103.46,43.151024018628,3.937008,6,P-GPS,
7000,2022-07-09 13:11:22,52.1675026306445,0.0940116778967882,3.937008,3.937008,39.214016018628,43.151024018628,3.937008,0,0.279005586356,1.112368802,26,5,15.233,43.151024018628,3.937008,0.223694,0.33353675608,0,0,-0.223694,73.5, 1.6, -2.1,0,0,1024,1024,1024,1024,0,0,0,0,73.4,0,0,47,3.805,3.811,3.811,3.807,0,0,7.857,103.46,43.151024018628,3.937008,6,P-GPS,
7200,2022-07-09 13:11:22,52.1675027031769,0.0940117440307438,4.265092,4.265092,39.214016018628,43.479108018628,4.265092,0,0.257895021376,1.14268704444,26,5,15.233,43.479108018628,4.265092,0.223694,0.33353675608,0,0,-1.342164,73.3, 1.8, -1.5,0,0,1024,1024,1024,1024,0,0,0,0,73.4,0,0,47,3.805,3.811,3.811,3.807,0,0,7.857,103.46,43.479108018628,4.265092,6,P-GPS,
7400,2022-07-09 13:11:22,52.1675027986053,0.0940118344914079,4.92126,4.92126,39.214016018628,44.135276018628,4.92126,0,0.232466214788,1.18296263628,26,5,15.224,44.135276018628,4.92126,0.223694,0.33353675608,0,0,-2.460634,73, 2, -1.6,0,0,1024,1024,1024,1024,0,0,0,0,73.4,0,0,47,3.803,3.806,3.8,3.794,0,0,7.896,103.46,44.135276018628,4.92126,6,P-GPS,
7600,2022-07-09 13:11:22,52.1675029459478,0.0940119306341527,5.577428,5.577428,39.214016018628,44.791444018628,5.905512,0,0.211696529084,1.22323494728,26,5,15.224,44.791444018628,5.577428,0.223694,0.33353675608,0,0,-2.908022,73.2, 2, -1.8,0,0,1024,1024,1024,1024,0,0,0,0,73.4,0,0,47,3.803,3.806,3.8,3.794,0,0,7.896,103.46,44.791444018628,5.577428,6,P-GPS,
7800,2022-07-09 13:11:22,52.1675030932904,0.0940120267768975,6.56168,6.56168,39.214016018628,45.775696018628,6.56168,0,0.207305452828,1.29942261376,26,5,15.224,45.775696018628,6.56168,0.223694,0.33353675608,0,0,-2.908022,73, 2, -1.5,0,0,1024,1024,1024,1024,0,0,0,0,73.4,0,0,47,3.803,3.806,3.8,3.794,0,0,7.896,103.46,45.775696018628,6.56168,6,P-GPS,
8000,2022-07-09 13:11:23,52.1675031843882,0.0940121397694692,7.545932,7.545932,39.214016018628,46.759948018628,7.545932,0,0.20230643692,1.34118442612,26,5,15.224,46.759948018628,7.545932,0.223694,0.33353675608,0,0,-3.131716,73.2, 1.4, -0.3,0,0,1024,1024,1024,1024,0,0,0,0,73.4,0,0,47,3.803,3.806,3.8,3.794,0,0,7.896,103.46,46.759948018628,7.545932,6,P-GPS,
8200,2022-07-09 13:11:23,52.1675032433043,0.0940122918762141,8.530184,8.530184,39.214016018628,47.744200018628,8.530184,0,0.191259192472,1.38144361376,26,5,15.224,47.744200018628,8.530184,0.223694,0.33353675608,0,0,-3.131716,73.2, 2.5, -0.6,0,0,1024,1024,1024,1024,0,0,0,0,73.4,0,0,47,3.803,3.806,3.8,3.794,0,0,7.896,103.46,47.744200018628,8.530184,6,P-GPS,
8400,2022-07-09 13:11:23,52.1675032535942,0.0940124863833807,9.514436,9.514436,39.214016018628,48.728452018628,9.514436,0,0.168242131368,1.4251312792,26,5,15.201,48.728452018628,9.514436,0.223694,0.33353675608,0,0,-3.131716,72.9, 3.1, -0.6,0,0,1024,1024,1024,1024,0,0,0,0,73.4,0,0,47,3.795,3.8,3.802,3.799,0,0,9.493,103.46,48.728452018628,9.514436,6,P-GPS,
8600,2022-07-09 13:11:23,52.1675031738218,0.0940125765438564,10.170604,10.170604,39.214016018628,49.384620018628,10.498688,0,0.154428482632,1.46881894464,26,5,15.201,49.384620018628,10.170604,0.223694,0.33353675608,0,0,-3.131716,72.9, 2, -1.2,0,0,1024,1024,1024,1024,0,0,0,0,73.4,0,0,47,3.795,3.8,3.802,3.799,0,0,9.493,103.46,49.384620018628,10.170604,6,P-GPS,
8800,2022-07-09 13:11:23,52.1675030940494,0.0940126667043322,11.48294,11.48294,39.214016018628,50.696956018628,11.48294,0,0.097731958508,1.53086619072,26,5,15.201,50.696956018628,11.48294,0.223694,0.33353675608,0,0,-4.026492,73.1, 1.1, -1.4,0,0,1024,1024,1024,1024,0,0,0,0,73.4,0,0,47,3.795,3.8,3.802,3.799,0,0,9.493,103.46,50.696956018628,11.48294,6,P-GPS,
9000,2022-07-09 13:11:24,52.1675030901504,0.0940128128852229,12.795276,12.795276,39.214016018628,52.009292018628,12.795276,0,0.086114832152,1.56360897392,26,5,15.201,52.009292018628,12.795276,0.223694,0.33353675608,0,0,-4.47388,73.2, 2, -1.3,0,0,1024,1024,1024,1024,0,0,0,0,73.4,0,0,47,3.795,3.8,3.802,3.799,0,0,9.493,103.46,52.009292018628,12.795276,6,P-GPS,
9200,2022-07-09 13:11:24,52.1675030643597,0.0940129417494725,14.435696,14.435696,39.214016018628,53.649712018628,14.107612,0,0.077515094344,1.59394362056,26,5,15.201,53.649712018628,14.435696,0.223694,0.33353675608,0,0,-4.921268,73, 2.4, -1.2,0,0,1024,1024,1024,1024,0,0,0,0,73.4,0,0,47,3.795,3.8,3.802,3.799,0,0,9.493,103.46,53.649712018628,14.435696,6,P-GPS,
9400,2022-07-09 13:11:24,52.167502974197,0.0940130087771184,16.076116,16.076116,39.214016018628,55.290132018628,15.748032,0,0.053086943956,1.63009847736,26,5,15.161,55.290132018628,16.076116,0.223694,0.33353675608,0,0,-5.368656,72.9, 2.7, -1.9,0,0,1024,1024,1024,1024,0,0,0,0,73.4,0,0,46,3.785,3.791,3.791,3.785,0,0,9.344,103.46,55.290132018628,16.076116,6,P-GPS,
9600,2022-07-09 13:11:24,52.167502923912,0.0940130030596829,18.04462,18.04462,39.214016018628,57.258636018628,17.060368,0,0.0473507233,1.66625005332,26,5,15.161,57.258636018628,18.04462,0.223694,0.33353675608,0,0,-5.144962,73.2, 1.3, -1.9,0,0,1024,1024,1024,1024,0,0,0,0,73.4,0,0,46,3.785,3.791,3.791,3.785,0,0,9.344,103.46,57.258636018628,18.04462,6,P-GPS,
9800,2022-07-09 13:11:24,52.1675028736269,0.0940129973422473,20.013124,20.013124,39.214016018628,59.227140018628,19.028872,0,0.0293861886044,1.68421593316,26,5,15.161,59.227140018628,20.013124,0.223694,0.33353675608,0,0,-5.59235,73.3, 1.3, -1,0,0,1024,1024,1024,1024,0,0,0,0,73.4,0,0,46,3.785,3.791,3.791,3.785,0,0,9.344,103.46,59.227140018628,20.013124,6,P-GPS,
10000,2022-07-09 13:11:25,52.1675028149555,0.0940131329418011,21.653544,21.653544,39.214016018628,60.867560018628,20.669292,0,0.060997049196,1.72135176112,26,5,15.161,60.867560018628,21.653544,0.223694,0.33353675608,0,0,-5.368656,73.2, 2.5, -2.2,0,0,1024,1024,1024,1024,0,0,0,0,73.4,0,0,46,3.785,3.791,3.791,3.785,0,0,9.344,103.46,60.867560018628,21.653544,6,P-GPS,
10200,2022-07-09 13:11:25,52.1675027592999,0.0940133554962213,22.637796,22.637796,39.214016018628,61.851812018628,21.981628,0,0.114520344872,1.77513457124,26,5,15.161,61.851812018628,22.637796,0.223694,0.33353675608,0,0,-3.579104,72.8, 3.9, -2.1,0,0,1024,1024,1024,1024,0,0,0,0,73.4,0,0,46,3.785,3.791,3.791,3.785,0,0,9.344,103.46,61.851812018628,22.637796,6,P-GPS,
10400,2022-07-09 13:11:25,52.1675026605364,0.094013621934,22.96588,22.96588,39.214016018628,62.179896018628,22.637796,0,0.183059717144,1.84480320864,26,5,15.128,62.179896018628,22.96588,0.223694,0.33353675608,0,0,-1.342164,72.8, 3.5, -1.9,0,0,1024,1024,1024,1024,0,0,0,0,73.4,0,0,46,3.787,3.797,3.804,3.807,0,0,10.418,103.64,62.179896018628,22.96588,6,P-GPS,
10600,2022-07-09 13:11:25,52.167502508427,0.0940139080853429,23.293964,23.293964,39.214016018628,62.507980018628,22.637796,0,0.25221785584,1.9144685652,26,5,15.128,62.507980018628,23.293964,0.223694,0.33353675608,0,0,-0.223694,73.2, 3.1, -2.5,0,0,1024,1024,1024,1024,0,0,0,0,73.4,0,0,46,3.787,3.797,3.804,3.807,0,0,10.418,103.64,62.507980018628,23.293964,6,P-GPS,
10800,2022-07-09 13:11:25,52.1675023563176,0.0940141942366858,23.293964,23.2611556,39.246824418628,62.507980018628,22.637796,0,0.3482447618,2.0159777548,26,5,15.128,62.507980018628,23.293964,0.223694,0.3482447618,0,0,0,73.2, 2.9, -2.5,0,0,1024,1024,1024,1024,0,0,0,0,73.4,0,0,46,3.787,3.797,3.804,3.807,0,0,10.418,103.64,62.507980018628,23.293964,6,P-GPS,
11000,2022-07-09 13:11:26,52.1675022254294,0.0940143998734067,23.622048,23.5892396,39.246824418628,62.836064018628,22.96588,0,0.41279856964,2.08229665456,26,5,15.128,62.836064018628,23.622048,0.223694,0.41279856964,0,0,-1.565858,73.1, 3.9, -2.1,0,0,1024,1024,1024,1024,0,0,0,0,73.4,0,0,46,3.787,3.797,3.804,3.807,0,0,10.418,103.64,62.836064018628,23.622048,6,P-GPS,
11200,2022-07-09 13:11:26,52.1675021349779,0.0940144778048382,24.6063,24.5734916,39.246824418628,63.820316018628,23.622048,0,0.44603347884,2.11962277124,26,5,15.128,63.820316018628,24.6063,0.223694,0.44603347884,0,0,-3.579104,72.8, 4, -2.3,0,0,1024,1024,1024,1024,0,0,0,0,73.4,0,0,46,3.787,3.797,3.804,3.807,0,0,10.418,103.64,63.820316018628,24.6063,6,P-GPS,
11400,2022-07-09 13:11:26,52.1675020275366,0.0940144343170386,25.262468,25.2296596,39.246824418628,64.476484018628,24.6063,0,0.46283137964,2.16001319248,25,5,15.213,64.476484018628,25.262468,0.223694,0.46283137964,0,0,-2.23694,72.7, 4.6, -3.9,0,0,1024,1024,1024,1024,0,0,0,0,73.4,0,0,46,3.774,3.783,3.782,3.775,0,0,6.454,103.46,64.476484018628,25.262468,6,P-GPS,
11600,2022-07-09 13:11:26,52.1675019412157,0.0940143446872119,25.590552,25.5577436,39.246824418628,64.804568018628,25.262468,0,0.46968833524,2.19734915168,26,5,15.213,64.804568018628,25.590552,0.223694,0.46968833524,0,0,-0.671082,72.9, 2.6, -3.5,0,0,1024,1024,1024,1024,0,0,0,0,73.4,0,0,46,3.774,3.783,3.782,3.775,0,0,6.454,103.46,64.804568018628,25.590552,6,P-GPS,
11800,2022-07-09 13:11:26,52.1675019404712,0.0940142478319155,25.918636,25.8858276,39.246824418628,65.132652018628,25.262468,0,0.45491143188,2.21902566156,26,5,15.213,65.132652018628,25.918636,0.223694,0.46968833524,0,0,0,73, 0.8, -1,0,0,1024,1024,1024,1024,0,0,0,0,73.4,0,0,46,3.774,3.783,3.782,3.775,0,0,6.454,103.46,65.132652018628,25.918636,6,P-GPS,
12000,2022-07-09 13:11:27,52.1675019709879,0.0940142586554981,25.590552,25.5577436,39.246824418628,64.804568018628,25.590552,0,0.44847114296,2.23042001888,26,5,15.213,65.132652018628,25.918636,0.223694,0.46968833524,0,0,0,73.6, 0.5, -16.3,0,0,1024,1024,1024,1024,0,0,0,0,73.4,0,0,46,3.774,3.783,3.782,3.775,0,0,6.454,103.46,64.804568018628,25.590552,6,P-GPS,
12200,2022-07-09 13:11:27,52.1675026101339,0.0940141799524812,25.590552,25.590552,39.214016018628,64.804568018628,25.262468,1.11847,0.306849419268,2.46427829408,26,5,15.213,65.132652018628,25.918636,1.11847,0.46968833524,1.11847,0,0,73.4, 2.1, -7.4,0,0,1024,1024,1024,1024,0,0,0,0,73.4,0,0,46,3.774,3.783,3.782,3.775,0,0,6.454,103.46,64.804568018628,25.590552,6,P-GPS,
12400,2022-07-09 13:11:27,52.1675035788249,0.0940139265916068,25.590552,25.590552,39.214016018628,64.804568018628,25.590552,0.671082,0.35417652052,2.82222449976,26,5,15.215,65.132652018628,25.918636,1.11847,0.46968833524,0.671082,0,0,73.3, 2.5, 7.5,0,0,1024,1024,1024,1024,0,0,0,0,73.4,0,0,46,3.8,3.804,3.801,3.796,0,0,8.154,103.64,64.804568018628,25.590552,6,P-GPS,
12600,2022-07-09 13:11:27,52.1675039666189,0.0940138938282,25.590552,25.590552,39.214016018628,64.804568018628,25.590552,0,0.46540683904,2.96389773264,25,5,15.215,65.132652018628,25.918636,1.11847,0.46968833524,0,0,0,74, 2.1, 1.8,0,0,1024,1024,1024,1024,0,0,0,0,73.3,0,0,46,3.8,3.804,3.801,3.796,0,0,8.154,103.64,64.804568018628,25.590552,6,P-GPS,
12800,2022-07-09 13:11:27,52.1675041214897,0.0940140188649672,25.590552,25.590552,39.214016018628,64.804568018628,25.262468,0,0.52837272032,3.0269521966,25,5,15.215,65.132652018628,25.918636,1.11847,0.52837272032,0,0,0,73.2, 1.9, -16.6,0,0,1024,1024,1024,1024,0,0,0,0,73.3,0,0,46,3.8,3.804,3.801,3.796,0,0,8.154,103.64,64.804568018628,25.590552,6,P-GPS,
13000,2022-07-09 13:11:28,52.1675048795149,0.0940139553483566,25.590552,25.590552,39.214016018628,64.804568018628,25.262468,1.342164,0.77705383064,3.3038714968,25,5,15.215,65.132652018628,25.918636,1.342164,0.77705383064,1.342164,0,0,74, 2.7, -17.1,0,0,1024,1024,1024,1024,0,0,0,0,73.2,0,0,46,3.8,3.804,3.801,3.796,0,0,8.154,103.64,64.804568018628,25.590552,6,P-GPS,
13200,2022-07-09 13:11:28,52.1675064751563,0.0940135484202794,25.590552,25.590552,39.214016018628,64.804568018628,25.590552,1.8119214,1.32894033124,3.8931431692,25,5,15.215,65.132652018628,25.918636,1.8119214,1.32894033124,1.789552,-0.223694,0,74, 2.2, 7.5,0,0,1024,1024,1024,1024,0,0,0,0,71.3,0,0,46,3.8,3.804,3.801,3.796,0,0,8.154,103.64,64.804568018628,25.590552,6,P-GPS,
13400,2022-07-09 13:11:28,52.1675077228885,0.0940133136780622,25.590552,25.6233604,39.181207618628,64.804568018628,25.590552,0.671082,1.77823496504,4.351378092,25,5,15.183,65.132652018628,25.918636,1.8119214,1.77823496504,0.671082,0,0,73.1, 4.2, 10,0,0,1024,1024,1024,1024,0,0,0,0,68.6,0,0,46,3.785,3.792,3.792,3.789,0,0,8.798,103.64,64.804568018628,25.590552,6,P-GPS,
13600,2022-07-09 13:11:28,52.1675079534648,0.0940131910661528,25.590552,25.6233604,39.181207618628,64.804568018628,25.262468,0,2.23117461208,4.8096458232,25,5,15.183,65.132652018628,25.918636,1.8119214,2.23117461208,0,0,0,72.2, 5, 1.8,0,0,1024,1024,1024,1024,0,0,0,0,68.3,0,0,46,3.785,3.792,3.792,3.789,0,0,8.798,103.64,64.804568018628,25.590552,6,P-GPS,
13800,2022-07-09 13:11:28,52.1675081840411,0.0940130684542434,25.590552,25.6233604,39.181207618628,64.804568018628,25.262468,0.223694,1.9442093798,5.096620898,25,5,15.183,65.132652018628,25.918636,1.8119214,2.23117461208,-0.223694,0,0,72.3, 3.3, -1.8,0,0,1024,1024,1024,1024,0,0,0,0,68.3,0,0,46,3.785,3.792,3.792,3.789,0,0,8.798,103.64,64.804568018628,25.590552,6,P-GPS,
14000,2022-07-09 13:11:29,52.1675080892191,0.0940128502360217,25.590552,25.6233604,39.181207618628,64.804568018628,25.262468,0.223694,1.90910767264,5.1564634196,25,5,15.183,65.132652018628,25.918636,1.8119214,2.23117461208,-0.223694,0,0,71.8, 2.2, -3.9,0,0,1024,1024,1024,1024,0,0,0,0,70.8,0,0,46,3.785,3.792,3.792,3.789,0,0,8.798,103.64,64.804568018628,25.590552,6,P-GPS,
14200,2022-07-09 13:11:29,52.1675080356215,0.0940126019468125,25.590552,25.6233604,39.181207618628,64.804568018628,25.262468,0,1.89049218648,5.215387306,25,5,15.183,65.132652018628,25.918636,1.8119214,2.23117461208,0,0,0,74.9, 1.6, -4.6,0,0,1024,1024,1024,1024,0,0,0,0,77.6,0,0,46,3.785,3.792,3.792,3.789,0,0,8.798,103.64,64.804568018628,25.590552,6,P-GPS,
14400,2022-07-09 13:11:29,52.1675080988585,0.0940123803897462,25.590552,25.6233604,39.181207618628,64.804568018628,25.262468,0,1.91574153112,5.2700789088,25,5,15.174,65.132652018628,25.918636,1.8119214,2.23117461208,0,0,0,82, 1, -3.1,0,0,1024,1024,1024,1024,0,0,0,0,79,0,0,46,3.791,3.796,3.796,3.794,0,0,8.519,104,64.804568018628,25.590552,6,P-GPS,
14600,2022-07-09 13:11:29,52.167508244957,0.0940122939839701,25.590552,25.6233604,39.181207618628,64.804568018628,25.590552,0,1.9701280158,5.326771824,25,5,15.174,65.132652018628,25.918636,1.8119214,2.23117461208,0,0,0,82.1, 2, -2.8,0,0,1024,1024,1024,1024,0,0,0,0,79,0,0,46,3.791,3.796,3.796,3.794,0,0,8.519,104,64.804568018628,25.590552,6,P-GPS,
14800,2022-07-09 13:11:29,52.167508380799,0.0940122902062462,25.590552,25.6233604,39.181207618628,64.804568018628,25.590552,0,2.01964245308,5.3763453164,25,5,15.174,65.132652018628,25.918636,1.8119214,2.23117461208,0,0,0,82, 2.2, -2.6,0,0,1024,1024,1024,1024,0,0,0,0,78,0,0,46,3.791,3.796,3.796,3.794,0,0,8.519,104,64.804568018628,25.590552,6,P-GPS,
15000,2022-07-09 13:11:30,52.1675084833952,0.0940123492622619,25.590552,25.6233604,39.181207618628,64.804568018628,25.590552,0,2.05620741488,5.4160434804,25,5,15.174,65.132652018628,25.918636,1.8119214,2.23117461208,0,0,0,80.8, 2.7, -2.8,0,0,1024,1024,1024,1024,0,0,0,0,77.7,0,0,46,3.791,3.796,3.796,3.794,0,0,8.519,104,64.804568018628,25.590552,6,P-GPS,
15200,2022-07-09 13:11:30,52.1675085707158,0.0940123711233017,25.590552,25.6233604,39.181207618628,64.804568018628,25.590552,0,2.08774941064,5.4482613292,25,5,15.174,65.132652018628,25.918636,1.8119214,2.23117461208,0,0,0,80.8, 2.4, -3.2,0,0,1024,1024,1024,1024,0,0,0,0,77.7,0,0,46,3.791,3.796,3.796,3.794,0,0,8.519,104,64.804568018628,25.590552,6,P-GPS,
15400,2022-07-09 13:11:30,52.1675086542008,0.0940124251938567,25.590552,25.6233604,39.181207618628,64.804568018628,25.590552,0,2.11756568456,5.4810369208,25,5,15.173,65.132652018628,25.918636,1.8119214,2.23117461208,0,0,0,80.9, 0.1, -11.9,0,0,1024,1024,1024,1024,0,0,0,0,77.7,0,0,46,3.79,3.796,3.795,3.793,0,0,8.127,104,64.804568018628,25.590552,6,P-GPS,
15600,2022-07-09 13:11:30,52.1675092314749,0.0940125480395005,25.590552,25.6233604,39.181207618628,64.804568018628,25.262468,1.11847,2.32696201672,5.6934385024,25,5,15.173,65.132652018628,25.918636,1.8119214,2.32696201672,1.11847,0,0,81.5, 1.9, -26.7,0,0,1024,1024,1024,1024,0,0,0,0,77.7,0,0,46,3.79,3.796,3.795,3.793,0,0,8.127,104,64.804568018628,25.590552,6,P-GPS,
15800,2022-07-09 13:11:30,52.1675112185008,0.0940123664525423,25.590552,25.6233604,39.181207618628,64.804568018628,25.262468,2.908022,3.05289051764,6.4195540112,25,5,15.173,65.132652018628,25.918636,2.908022,3.05289051764,2.908022,-0.223694,0,82.8, 1.9, -11.9,0,0,1024,1024,1024,1024,0,0,0,0,77.7,0,0,46,3.79,3.796,3.795,3.793,0,0,8.127,104,64.804568018628,25.590552,6,P-GPS,
16000,2022-07-09 13:11:31,52.1675137584213,0.0940119937498575,25.590552,25.6561688,39.148399218628,64.804568018628,25.590552,2.460634,3.9823164004,7.3500002352,25,5,15.173,65.132652018628,25.918636,2.908022,3.9823164004,2.460634,0,-0.223694,81.2, 2.6, 21,0,0,1024,1024,1024,1024,0,0,0,0,77.7,0,0,46,3.79,3.796,3.795,3.793,0,0,8.127,104,64.804568018628,25.590552,6,P-GPS,
16200,2022-07-09 13:11:31,52.1675150570641,0.0940118501588137,25.590552,25.6561688,39.148399218628,64.804568018628,25.262468,0.671082,4.4571523736,7.8248690168,25,5,15.173,65.132652018628,25.918636,2.908022,4.4571523736,0.671082,0,0,81.3, 0.5, 8.3,0,0,1024,1024,1024,1024,0,0,0,0,77.7,0,0,46,3.79,3.796,3.795,3.793,0,0,8.127,104,64.804568018628,25.590552,6,P-GPS,
16400,2022-07-09 13:11:31,52.1675155442096,0.0940119550333166,25.590552,25.6561688,39.148399218628,64.804568018628,25.590552,0.223694,4.6335631404,8.0041669228,25,5,15.121,65.132652018628,25.918636,2.908022,4.6335631404,0.223694,0,0,82.3, 2.8, -5.1,0,0,1024,1024,1024,1024,0,0,0,0,77.7,0,0,46,3.783,3.795,3.788,3.789,0,0,9.255,104,64.804568018628,25.590552,6,P-GPS,
16600,2022-07-09 13:11:31,52.1675157330638,0.0940120968164652,25.590552,25.6561688,39.148399218628,64.804568018628,25.590552,0,4.810203566,8.1834320204,25,5,15.121,65.132652018628,25.918636,2.908022,4.810203566,0,0,0,82.4, 3.1, 4.4,0,0,1024,1024,1024,1024,0,0,0,0,77.7,0,0,46,3.783,3.795,3.788,3.789,0,0,9.255,104,64.804568018628,25.590552,6,P-GPS,
16800,2022-07-09 13:11:31,52.1675159219179,0.0940122385996139,25.590552,25.6561688,39.148399218628,64.804568018628,25.590552,0,4.7689305988,8.2399608936,25,5,15.121,65.132652018628,25.918636,2.908022,4.810203566,0,0,0,83.1, 2.2, 0.2,0,0,1024,1024,1024,1024,0,0,0,0,77.7,0,0,46,3.783,3.795,3.788,3.789,0,0,9.255,104,64.804568018628,25.590552,6,P-GPS,
17000,2022-07-09 13:11:32,52.1675156536853,0.0940125028268459,25.590552,25.6561688,39.148399218628,64.804568018628,25.590552,0.7158208,4.6697179972,8.3542981676,25,5,15.121,65.132652018628,25.918636,2.908022,4.810203566,-0.671082,0.223694,0,82.7, 2.4, 15.1,0,0,1024,1024,1024,1024,0,0,0,0,77.7,0,0,46,3.783,3.795,3.788,3.789,0,0,9.255,104,64.804568018628,25.590552,6,P-GPS,
17200,2022-07-09 13:11:32,52.16751459457,0.0940130083061578,25.590552,25.6561688,39.148399218628,64.804568018628,25.262468,1.6329662,4.2826773024,8.7569228524,25,5,15.121,65.132652018628,25.918636,2.908022,4.810203566,-1.565858,0.447388,0,83.5, 2.4, 0.9,0,0,1024,1024,1024,1024,0,0,0,0,77.7,0,0,46,3.783,3.795,3.788,3.789,0,0,9.255,104,64.804568018628,25.590552,6,P-GPS,
17400,2022-07-09 13:11:32,52.1675133166827,0.0940136281121389,25.590552,25.6561688,39.148399218628,64.804568018628,25.262468,1.3645334,3.8201116708,9.2433401908,25,5,15.151,65.132652018628,25.918636,2.908022,4.810203566,-1.342164,0.223694,0,82.4, 2.8, -10.4,0,0,1024,1024,1024,1024,0,0,0,0,76.7,0,0,46,3.787,3.792,3.789,3.787,0,0,8.587,104.18,64.804568018628,25.590552,6,P-GPS,
17600,2022-07-09 13:11:32,52.1675125068885,0.094014250573657,25.590552,25.6561688,39.148399218628,64.804568018628,25.262468,0.7158208,3.534448932,9.5699806212,25,5,15.151,65.132652018628,25.918636,2.908022,4.810203566,-0.671082,0.223694,0,81.7, -2.9, -8.1,0,0,1024,1024,1024,1024,0,0,0,0,70.2,0,0,46,3.787,3.792,3.789,3.787,0,0,8.587,104.18,64.804568018628,25.590552,6,P-GPS,
17800,2022-07-09 13:11:32,52.1675120957735,0.0940151139032628,25.590552,25.6233604,39.181207618628,64.804568018628,25.590552,0.6263432,3.408136592,9.8146000516,25,5,15.151,65.132652018628,25.918636,2.908022,4.810203566,-0.447388,0.447388,0,73, 6.4, -8.8,0,0,1024,1024,1024,1024,0,0,0,0,69.6,0,0,46,3.787,3.792,3.789,3.787,0,0,8.587,104.18,64.804568018628,25.590552,6,P-GPS,
18000,2022-07-09 13:11:33,52.1675119675062,0.0940156176026143,25.590552,25.6233604,39.181207618628,64.804568018628,25.262468,0,3.3805119192,9.9366472996,25,5,15.151,65.132652018628,25.918636,2.908022,4.810203566,0,0,0,75.3, 4.7, -5.6,0,0,1024,1024,1024,1024,0,0,0,0,69.6,0,0,46,3.787,3.792,3.789,3.787,0,0,8.587,104.18,64.804568018628,25.590552,6,P-GPS,
18200,2022-07-09 13:11:33,52.1675120029326,0.0940157386970506,25.590552,25.6233604,39.181207618628,64.804568018628,25.262468,0,3.3982612636,9.9666669856,25,5,15.151,65.132652018628,25.918636,2.908022,4.810203566,0,0,0,74.5, 2.8, -4.5,0,0,1024,1024,1024,1024,0,0,0,0,69.6,0,0,46,3.787,3.792,3.789,3.787,0,0,8.587,104.18,64.804568018628,25.590552,6,P-GPS,
18400,2022-07-09 13:11:33,52.1675121358693,0.0940157472550901,25.590552,25.6233604,39.181207618628,64.804568018628,25.262468,0,3.4462599528,10.0151906092,25,5,15.142,65.132652018628,25.918636,2.908022,4.810203566,0,0,0,74.4, 2.4, -3.5,0,0,1024,1024,1024,1024,0,0,0,0,69.5,0,0,46,3.785,3.788,3.789,3.786,0,0,9.093,104.18,64.804568018628,25.590552,6,P-GPS,
18600,2022-07-09 13:11:33,52.1675122859068,0.0940157045584629,25.590552,25.6233604,39.181207618628,64.804568018628,25.262468,0,3.4982940752,10.0707680388,25,5,15.142,65.132652018628,25.918636,2.908022,4.810203566,0,0,0,74.4, 1.8, -3.2,0,0,1024,1024,1024,1024,0,0,0,0,67.4,0,0,46,3.785,3.788,3.789,3.786,0,0,9.093,104.18,64.804568018628,25.590552,6,P-GPS,
18800,2022-07-09 13:11:33,52.167512432398,0.0940156729359025,25.590552,25.6233604,39.181207618628,64.804568018628,25.262468,0,3.5496064128,10.12467224,25,5,15.142,65.132652018628,25.918636,2.908022,4.810203566,0,0,0,71.9, 2, -2.8,0,0,1024,1024,1024,1024,0,0,0,0,67.1,0,0,46,3.785,3.788,3.789,3.786,0,0,9.093,104.18,64.804568018628,25.590552,6,P-GPS,
19000,2022-07-09 13:11:34,52.167512589916,0.0940156805197759,25.590552,25.6561688,39.148399218628,64.804568018628,25.262468,0,3.6064961784,10.1821853652,25,5,15.142,65.132652018628,25.918636,2.908022,4.810203566,0,0,0,72.1, 2.4, -2,0,0,1024,1024,1024,1024,0,0,0,0,67.1,0,0,46,3.785,3.788,3.789,3.786,0,0,9.093,104.18,64.804568018628,25.590552,6,P-GPS,
19200,2022-07-09 13:11:34,52.1675127169078,0.0940157086658373,25.590552,25.6561688,39.148399218628,64.804568018628,25.262468,0,3.65321534,10.2289373352,25,5,15.142,65.132652018628,25.918636,2.908022,4.810203566,0,0,0,72.2, 2.7, -2.2,0,0,1024,1024,1024,1024,0,0,0,0,67.1,0,0,46,3.785,3.788,3.789,3.786,0,0,9.093,104.18,64.804568018628,25.590552,6,P-GPS,
19400,2022-07-09 13:11:34,52.1675127869301,0.0940157195124442,25.590552,25.6561688,39.148399218628,64.804568018628,25.262468,0,3.6787730836,10.254593504,25,5,15.158,65.132652018628,25.918636,2.908022,4.810203566,0,0,0,72, 2.5, -2.4,0,0,1024,1024,1024,1024,0,0,0,0,67.1,0,0,46,3.788,3.792,3.792,3.787,0,0,8.097,104.36,64.804568018628,25.590552,6,P-GPS,
19600,2022-07-09 13:11:34,52.1675127901497,0.0940157388032787,25.590552,25.6561688,39.148399218628,64.804568018628,25.262468,0,3.6807087792,10.2590554464,25,5,15.158,65.132652018628,25.918636,2.908022,4.810203566,0,0,0,72, 1.1, -0.3,0,0,1024,1024,1024,1024,0,0,0,0,67.3,0,0,46,3.788,3.792,3.792,3.787,0,0,8.097,104.36,64.804568018628,25.590552,6,P-GPS,
19800,2022-07-09 13:11:34,52.1675126339173,0.0940159673838068,25.590552,25.6561688,39.148399218628,64.804568018628,25.262468,0.4921268,3.6339896176,10.3356630604,25,5,15.158,65.132652018628,25.918636,2.908022,4.810203566,-0.447388,0.223694,0,72.4, 1.2, 6.1,0,0,1024,1024,1024,1024,0,0,0,0,67.4,0,0,46,3.788,3.792,3.792,3.787,0,0,8.097,104.36,64.804568018628,25.590552,6,P-GPS,
20000,2022-07-09 13:11:35,52.1675121054503,0.0940164951046999,25.590552,25.6233604,39.181207618628,64.804568018628,25.262468,0.4921268,3.4706037856,10.5617457448,25,5,15.158,65.132652018628,25.918636,2.908022,4.810203566,-0.447388,0.223694,0,72.7, 3.8, -8.1,0,0,1024,1024,1024,1024,0,0,0,0,69,0,0,46,3.788,3.792,3.792,3.787,0,0,8.097,104.36,64.804568018628,25.590552,6,P-GPS,
20200,2022-07-09 13:11:35,52.1675117984416,0.0940168123424299,25.590552,25.6233604,39.181207618628,64.804568018628,25.590552,0,3.3796589008,10.694390106,25,5,15.158,65.132652018628,25.918636,2.908022,4.810203566,0,0,0,74.4, 3.5, -6.6,0,0,1024,1024,1024,1024,0,0,0,0,69.3,0,0,46,3.788,3.792,3.792,3.787,0,0,8.097,104.36,64.804568018628,25.590552,6,P-GPS,
20400,2022-07-09 13:11:35,52.1675117572583,0.0940169026555095,25.590552,25.6233604,39.181207618628,64.804568018628,25.590552,0,3.3705053572,10.7195541488,25,5,15.144,65.132652018628,25.918636,2.908022,4.810203566,0,0,0,74.4, 3.1, -4.5,0,0,1024,1024,1024,1024,0,0,0,0,69.3,0,0,46,3.765,3.787,3.785,3.781,0,0,8.546,104,64.804568018628,25.590552,6,P-GPS,
20600,2022-07-09 13:11:35,52.1675118422642,0.0940168616196841,25.590552,25.6233604,39.181207618628,64.804568018628,25.590552,0,3.397965988,10.7519032312,25,5,15.144,65.132652018628,25.918636,2.908022,4.810203566,0,0,0,74.2, 2.9, -3.4,0,0,1024,1024,1024,1024,0,0,0,0,69.3,0,0,46,3.765,3.787,3.785,3.781,0,0,8.546,104,64.804568018628,25.590552,6,P-GPS,
20800,2022-07-09 13:11:35,52.1675120037041,0.0940167600034953,25.590552,25.6233604,39.181207618628,64.804568018628,25.590552,0,3.4490158584,10.8150265928,25,5,15.144,65.132652018628,25.918636,2.908022,4.810203566,0,0,0,74.2, 2.8, -2.3,0,0,1024,1024,1024,1024,0,0,0,0,69.3,0,0,46,3.765,3.787,3.785,3.781,0,0,8.546,104,64.804568018628,25.590552,6,P-GPS,
21000,2022-07-09 13:11:36,52.1675121436021,0.0940165984888323,25.590552,25.6233604,39.181207618628,64.804568018628,25.262468,0,3.4895998492,10.8775922116,25,5,15.144,65.132652018628,25.918636,2.908022,4.810203566,0,0,0,74.4, 1.9, -1.8,0,0,1024,1024,1024,1024,0,0,0,0,69.3,0,0,46,3.765,3.787,3.785,3.781,0,0,8.546,104,64.804568018628,25.590552,6,P-GPS,
21200,2022-07-09 13:11:36,52.1675122227407,0.0940164522195001,25.590552,25.6233604,39.181207618628,64.804568018628,25.590552,0,3.5100394824,10.9212273836,25,5,15.144,65.132652018628,25.918636,2.908022,4.810203566,0,0,0,74.5, 1.4, -1.9,0,0,1024,1024,1024,1024,0,0,0,0,69.3,0,0,46,3.765,3.787,3.785,3.781,0,0,8.546,104,64.804568018628,25.590552,6,P-GPS,
21400,2022-07-09 13:11:36,52.1675122515164,0.0940163779073098,25.590552,25.6233604,39.181207618628,64.804568018628,25.590552,0,3.5165027372,10.9409124236,25,5,15.138,65.132652018628,25.918636,2.908022,4.810203566,0,0,0,74.5, 1.2, -2.3,0,0,1024,1024,1024,1024,0,0,0,0,69.3,0,0,46,3.782,3.786,3.786,3.784,0,0,8.787,104.36,64.804568018628,25.590552,6,P-GPS,
21600,2022-07-09 13:11:36,52.1675122848969,0.0940163768954906,25.590552,25.6233604,39.181207618628,64.804568018628,25.262468,0,3.5283137612,10.95308434,25,5,15.138,65.132652018628,25.918636,2.908022,4.810203566,0,0,0,74.5, 1.6, -2.5,0,0,1024,1024,1024,1024,0,0,0,0,69.3,0,0,46,3.782,3.786,3.786,3.784,0,0,8.787,104.36,64.804568018628,25.590552,6,P-GPS,
21800,2022-07-09 13:11:36,52.1675123104494,0.0940164365149117,25.262468,25.2952764,39.181207618628,64.476484018628,25.262468,0,3.5403872524,10.9693573064,25,5,15.138,65.132652018628,25.918636,2.908022,4.810203566,0,0,0,74.6, 2.1, -2.3,0,0,1024,1024,1024,1024,0,0,0,0,69.3,0,0,46,3.782,3.786,3.786,3.784,0,0,8.787,104.36,64.476484018628,25.262468,6,P-GPS,
22000,2022-07-09 13:11:37,52.1675123416346,0.0940165154308347,25.262468,25.2952764,39.181207618628,64.476484018628,25.262468,0,3.5555119248,10.9903546824,25,5,15.138,65.132652018628,25.918636,2.908022,4.810203566,0,0,0,74.6, 2, -2.3,0,0,1024,1024,1024,1024,0,0,0,0,69.3,0,0,46,3.782,3.786,3.786,3.784,0,0,8.787,104.36,64.476484018628,25.262468,6,P-GPS,
22200,2022-07-09 13:11:37,52.1675123748047,0.0940166273243665,25.262468,25.2952764,39.181207618628,64.476484018628,25.590552,0,3.5730972272,11.0181762056,25,5,15.138,65.132652018628,25.918636,2.908022,4.810203566,0,0,0,74.4, 2.4, -2.2,0,0,1024,1024,1024,1024,0,0,0,0,69.3,0,0,46,3.782,3.786,3.786,3.784,0,0,8.787,104.36,64.476484018628,25.262468,6,P-GPS,
22400,2022-07-09 13:11:37,52.1675124281354,0.0940167366159255,25.262468,25.2952764,39.181207618628,64.476484018628,25.590552,0,3.5978019524,11.0494426108,25,5,15.138,65.132652018628,25.918636,2.908022,4.810203566,0,0,0,74.3, 2.7, -1.8,0,0,1024,1024,1024,1024,0,0,0,0,69.3,0,0,46,3.781,3.786,3.787,3.782,0,0,8.787,104.36,64.476484018628,25.262468,6,P-GPS,
22600,2022-07-09 13:11:37,52.1675124595998,0.0940167998211358,25.262468,25.2952764,39.181207618628,64.476484018628,25.590552,0,3.6226379112,11.0806762076,25,5,15.138,65.132652018628,25.918636,2.908022,4.810203566,0,0,0,74.4, 3, -1.7,0,0,1024,1024,1024,1024,0,0,0,0,69.3,0,0,46,3.781,3.786,3.787,3.782,0,0,8.787,104.36,64.476484018628,25.262468,6,P-GPS,
22800,2022-07-09 13:11:37,52.1675124910643,0.0940168630263461,25.262468,25.2952764,39.181207618628,64.476484018628,25.590552,0,3.62696862,11.0858599348,25,5,15.138,65.132652018628,25.918636,2.908022,4.810203566,0,0,0,74.5, 2.8, -1.6,0,0,1024,1024,1024,1024,0,0,0,0,69.3,0,0,46,3.781,3.786,3.787,3.782,0,0,8.787,104.36,64.476484018628,25.262468,6,P-GPS,
23000,2022-07-09 13:11:37,52.1675124860955,0.0940168668545923,25.262468,25.2952764,39.181207618628,64.476484018628,25.590552,0,3.6254266252,11.0878612472,25,5,15.138,65.132652018628,25.918636,2.908022,4.810203566,0,0,0,74.6, 2.3, -1.9,1,0,1024,1024,1024,1024,0,0,0,0,69.3,0,0,46,3.781,3.786,3.787,3.782,0,0,8.787,104.36,64.476484018628,25.262468,6,P-GPS,
23200,2022-07-09 13:11:38,52.1675124801062,0.0940168886115319,25.262468,25.2952764,39.181207618628,64.476484018628,25.262468,0,3.62450799,11.0932090164,25,5,15.138,65.132652018628,25.918636,2.908022,4.810203566,0,0,0,74.4, 2.4, -1.9,0,0,1024,1024,1024,1024,0,0,0,0,69.3,0,0,46,3.781,3.786,3.787,3.782,0,0,8.787,104.36,64.476484018628,25.262468,6,P-GPS,
23400,2022-07-09 13:11:38,52.1675124353905,0.0940169140843791,25.262468,25.2952764,39.181207618628,64.476484018628,25.590552,0,3.6101379108,11.1104990432,25,5,15.138,65.132652018628,25.918636,2.908022,4.810203566,0,0,0,74.3, 2.5, -2.4,0,0,1024,1024,1024,1024,0,0,0,0,69.3,0,0,46,3.784,3.789,3.788,3.784,0,0,8.424,104.36,64.476484018628,25.262468,6,P-GPS,
23600,2022-07-09 13:11:38,52.1675123695507,0.0940169063770095,25.262468,25.2952764,39.181207618628,64.476484018628,25.590552,0,3.5957678316,11.12778907,25,5,15.138,65.132652018628,25.918636,2.908022,4.810203566,0,0,0,74.3, 2.2, -3.1,0,0,1024,1024,1024,1024,0,0,0,0,69.3,0,0,46,3.784,3.789,3.788,3.784,0,0,8.424,104.36,64.476484018628,25.262468,6,P-GPS,
23800,2022-07-09 13:11:38,52.167512303711,0.0940168986696399,25.262468,25.2952764,39.181207618628,64.476484018628,25.262468,0,3.5627625812,11.1607943204,25,5,15.138,65.132652018628,25.918636,2.908022,4.810203566,0,0,0,74.1, 1.1, -3.4,0,0,1024,1024,1024,1024,0,0,0,0,69.3,0,0,46,3.784,3.789,3.788,3.784,0,0,8.424,104.36,64.476484018628,25.262468,6,P-GPS,
24000,2022-07-09 13:11:39,52.1675123030288,0.0940169159088604,25.262468,25.2952764,39.181207618628,64.476484018628,25.262468,0,3.5635171744,11.1646657116,25,5,15.138,65.132652018628,25.918636,2.908022,4.810203566,0,0,0,74.3, 2, -3.2,0,0,1024,1024,1024,1024,0,0,0,0,69.3,0,0,46,3.784,3.789,3.788,3.784,0,0,8.424,104.36,64.476484018628,25.262468,6,P-GPS,
24200,2022-07-09 13:11:39,52.1675123466704,0.0940169218239117,25.262468,25.2952764,39.181207618628,64.476484018628,25.262468,0,3.579232398,11.1806434024,25,5,15.138,65.132652018628,25.918636,2.908022,4.810203566,0,0,0,74.2, 2.5, -2.2,0,0,1024,1024,1024,1024,0,0,0,0,69.3,0,0,46,3.784,3.789,3.788,3.784,0,0,8.424,104.36,64.476484018628,25.262468,6,P-GPS,
24400,2022-07-09 13:11:39,52.1675124029915,0.0940168495150362,25.262468,25.2952764,39.181207618628,64.476484018628,25.262468,0,3.5950788552,11.2067916972,25,5,15.144,65.132652018628,25.918636,2.908022,4.810203566,0,0,0,74.4, 1.5, -2.1,0,0,1024,1024,1024,1024,0,0,0,0,69.3,0,0,46,3.78,3.785,3.785,3.781,0,0,8.182,104.54,64.476484018628,25.262468,6,P-GPS,
24600,2022-07-09 13:11:39,52.167512431275,0.094016771770895,25.262468,25.2952764,39.181207618628,64.476484018628,25.262468,0,3.611056546,11.232939992,25,5,15.144,65.132652018628,25.918636,2.908022,4.810203566,0,0,0,74.6, 1.1, -1.6,0,0,1024,1024,1024,1024,0,0,0,0,69.3,0,0,46,3.78,3.785,3.785,3.781,0,0,8.182,104.54,64.476484018628,25.262468,6,P-GPS,
24800,2022-07-09 13:11:39,52.1675124595584,0.0940166940267539,25.262468,25.2952764,39.181207618628,64.476484018628,24.934384,0,3.6066602204,11.2515751632,25,5,15.144,65.132652018628,25.918636,2.908022,4.810203566,0,0,0,74.7, 1, -1.9,0,0,1024,1024,1024,1024,0,0,0,0,69.3,0,0,46,3.78,3.785,3.785,3.781,0,0,8.182,104.54,64.476484018628,25.262468,6,P-GPS,
25000,2022-07-09 13:11:40,52.1675124602577,0.0940166591440789,25.262468,25.2952764,39.181207618628,64.476484018628,24.934384,0,3.6050526088,11.2593835624,25,5,15.144,65.132652018628,25.918636,2.908022,4.810203566,0,0,-0.447388,74.7, 0.6, -1.8,0,0,1024,1024,1024,1024,0,0,0,0,69.3,0,0,46,3.78,3.785,3.785,3.781,0,0,8.182,104.54,64.476484018628,25.262468,6,P-GPS,
25200,2022-07-09 13:11:40,52.1675124935332,0.0940166037898125,25.590552,25.6233604,39.181207618628,64.804568018628,25.262468,0,3.6139764936,11.2767063976,25,5,15.144,65.132652018628,25.918636,2.908022,4.810203566,0,0,-2.013246,74.8, 0.3, -1.5,0,0,1024,1024,1024,1024,0,0,0,0,69.3,0,0,46,3.78,3.785,3.785,3.781,0,0,8.182,104.54,64.804568018628,25.590552,6,P-GPS,
25400,2022-07-09 13:11:40,52.1675125260206,0.0940165613964289,26.24672,26.3123368,39.148399218628,65.460736018628,26.24672,0,3.6233268876,11.2918966868,25,5,15.126,65.460736018628,26.24672,2.908022,4.810203566,0,0,-2.013246,74.6, 0.3, -2.3,0,0,1024,1024,1024,1024,0,0,0,0,69.3,0,0,46,3.768,3.769,3.765,3.757,0,0,8.327,104.54,65.460736018628,26.24672,6,P-GPS,
25600,2022-07-09 13:11:40,52.1675125649145,0.0940165361586801,26.574804,26.6404208,39.148399218628,65.788820018628,26.902888,0,3.6358925048,11.3071854012,25,5,15.126,65.788820018628,26.574804,2.908022,4.810203566,0,0,-0.671082,74.5, 0, -1.8,0,0,1024,1024,1024,1024,0,0,0,0,69.3,0,0,46,3.768,3.769,3.765,3.757,0,0,8.327,104.54,65.788820018628,26.574804,6,P-GPS,
25800,2022-07-09 13:11:40,52.1675126073331,0.09401651813864,26.574804,26.6404208,39.148399218628,65.788820018628,26.902888,0,3.6500657336,11.323163092,25,5,15.126,65.788820018628,26.574804,2.908022,4.810203566,0,0,0,74.7, -0.2, -1,0,0,1024,1024,1024,1024,0,0,0,0,69.3,0,0,46,3.768,3.769,3.765,3.757,0,0,8.327,104.54,65.788820018628,26.574804,6,P-GPS,
26000,2022-07-09 13:11:41,52.1675126223766,0.0940165802177486,26.574804,26.6404208,39.148399218628,65.788820018628,26.902888,0,3.6585303008,11.338090914,25,5,15.126,65.788820018628,26.574804,2.908022,4.810203566,0,0,0,74.8, 0.3, -0.9,0,0,1024,1024,1024,1024,0,0,0,0,69.3,0,0,46,3.768,3.769,3.765,3.757,0,0,8.327,104.54,65.788820018628,26.574804,6,P-GPS,
26200,2022-07-09 13:11:41,52.1675125998274,0.0940166763990127,26.574804,26.6404208,39.148399218628,65.788820018628,26.902888,0,3.6554791196,11.3611552192,25,5,15.126,65.788820018628,26.574804,2.908022,4.810203566,0,0,0,74.8, 1, -0.6,0,0,1024,1024,1024,1024,0,0,0,0,69.5,0,0,46,3.768,3.769,3.765,3.757,0,0,8.327,104.54,65.788820018628,26.574804,6,P-GPS,
26400,2022-07-09 13:11:41,52.1675125536077,0.0940167438730127,26.574804,26.6404208,39.148399218628,65.788820018628,26.902888,0,3.6426510352,11.3837930152,25,5,15.126,65.788820018628,26.574804,2.908022,4.810203566,0,0,0,75.1, 0.4, -1.2,0,0,1024,1024,1024,1024,0,0,0,0,71.3,0,0,46,3.78,3.783,3.783,3.779,0,0,8.714,104.54,65.788820018628,26.574804,6,P-GPS,
26600,2022-07-09 13:11:41,52.1675125041626,0.0940167695516869,26.574804,26.6404208,39.148399218628,65.788820018628,26.902888,0,3.6265093024,11.402723462,25,5,15.126,65.788820018628,26.574804,2.908022,4.810203566,0,0,0,77.2, 0.8, -2.2,0,0,1024,1024,1024,1024,0,0,0,0,71.8,0,0,46,3.78,3.783,3.783,3.779,0,0,8.714,104.54,65.788820018628,26.574804,6,P-GPS,
26800,2022-07-09 13:11:41,52.1675125281682,0.0940167470992457,26.574804,26.6404208,39.148399218628,65.788820018628,26.902888,0,3.6337927672,11.4128284492,25,5,15.126,65.788820018628,26.574804,2.908022,4.810203566,0,0,0,77.3, 0.5, -1.9,0,0,1024,1024,1024,1024,0,0,0,0,74.5,0,0,46,3.78,3.783,3.783,3.779,0,0,8.714,104.54,65.788820018628,26.574804,6,P-GPS,
27000,2022-07-09 13:11:42,52.1675125872495,0.0940166958866446,26.574804,26.6404208,39.148399218628,65.788820018628,26.902888,0,3.6520342376,11.4372378988,25,5,15.126,65.788820018628,26.574804,2.908022,4.810203566,0,0,0,80.5, 0.5, -1.2,0,0,1024,1024,1024,1024,0,0,0,0,75.9,0,0,46,3.78,3.783,3.783,3.779,0,0,8.714,104.54,65.788820018628,26.574804,6,P-GPS,
27200,2022-07-09 13:11:42,52.1675126909837,0.0940166711719883,26.574804,26.6404208,39.148399218628,65.788820018628,26.902888,0,3.6875657348,11.4754924932,25,5,15.126,65.788820018628,26.574804,2.908022,4.810203566,0,0,0,81.8, 1.1, -0.7,0,0,1024,1024,1024,1024,0,0,0,0,78.1,0,0,46,3.78,3.783,3.783,3.779,0,0,8.714,104.54,65.788820018628,26.574804,6,P-GPS,
27400,2022-07-09 13:11:42,52.1675128151614,0.0940166433466842,26.574804,26.6404208,39.148399218628,65.788820018628,26.902888,0,3.7302494632,11.5211945944,25,5,15.135,65.788820018628,26.574804,2.908022,4.810203566,0,0,0,84.2, 1, -0.3,0,0,1024,1024,1024,1024,0,0,0,0,78.1,0,0,46,3.777,3.78,3.782,3.777,0,0,8.963,104.54,65.788820018628,26.574804,6,P-GPS,
27600,2022-07-09 13:11:42,52.1675128901769,0.0940165987565302,26.24672,26.3123368,39.148399218628,65.460736018628,26.902888,0,3.7729988084,11.566929504,25,5,15.135,65.788820018628,26.574804,2.908022,4.810203566,0,0,0,83.7, 0.9, -0.3,0,0,1024,1024,1024,1024,0,0,0,0,78.1,0,0,46,3.777,3.78,3.782,3.777,0,0,8.963,104.54,65.460736018628,26.24672,6,P-GPS,
27800,2022-07-09 13:11:42,52.1675129651924,0.0940165541663761,26.24672,26.3123368,39.148399218628,65.460736018628,27.230972,0,3.7791667876,11.5835961712,25,5,15.135,65.788820018628,26.574804,2.908022,4.810203566,0,0,0,83.7, 0.4, -0.9,0,0,1024,1024,1024,1024,0,0,0,0,78.1,0,0,46,3.777,3.78,3.782,3.777,0,0,8.963,104.54,65.460736018628,26.24672,6,P-GPS,
28000,2022-07-09 13:11:43,52.167513016436,0.0940165553502703,26.24672,26.3123368,39.148399218628,65.460736018628,27.230972,0,3.7974738748,11.6022969592,25,5,15.135,65.788820018628,26.574804,2.908022,4.810203566,0,0,0,83.6, -4.6, -0.7,0,0,1024,1024,1024,1024,0,0,0,0,78.1,0,0,46,3.777,3.78,3.782,3.777,0,0,8.963,104.54,65.460736018628,26.24672,6,P-GPS,
28200,2022-07-09 13:11:43,52.1675131108253,0.0940171484322378,26.24672,26.3123368,39.148399218628,65.460736018628,27.230972,0.894776,3.8618439556,11.7394032628,25,5,15.135,65.788820018628,26.574804,2.908022,4.810203566,0,0.894776,0,83.7, -22.2, -0.4,0,0,1024,1024,1024,1024,0,0,0,0,78.1,0,0,46,3.777,3.78,3.782,3.777,0,0,8.963,104.54,65.460736018628,26.24672,6,P-GPS,
28400,2022-07-09 13:11:43,52.1675133449166,0.0940197945756874,26.24672,26.2795284,39.181207618628,65.460736018628,26.902888,2.908022,4.1285762476,12.3376972452,25,5,15.118,65.788820018628,26.574804,2.908022,4.810203566,0.223694,2.908022,0,83.7, -26.4, -0.4,0,0,1024,1024,1024,1024,0,0,0,0,78.1,0,0,46,3.775,3.78,3.782,3.775,0,0,8.71,104.54,65.460736018628,26.24672,6,P-GPS,
28600,2022-07-09 13:11:43,52.167513884936,0.0940266144242936,26.24672,26.3123368,39.148399218628,65.460736018628,27.230972,4.9436374,4.4600723212,12.9359912276,24,5,15.118,65.788820018628,26.574804,4.9436374,4.810203566,0.447388,4.921268,0,83.6, -26, -0.2,0,0,1024,1024,1024,1024,0,0,0,0,78.1,0,0,46,3.775,3.78,3.782,3.775,0,0,8.71,104.54,65.460736018628,26.24672,6,P-GPS,
28800,2022-07-09 13:11:43,52.1675144249555,0.0940334342728997,26.24672,26.2795284,39.181207618628,65.460736018628,27.230972,6.9568834,6.2445211972,15.4154204408,25,5,15.118,65.788820018628,26.574804,6.9568834,6.2445211972,0.671082,6.934514,0,83.6, -24.3, -0.6,0,0,1024,1024,1024,1024,0,0,0,0,78.1,0,0,46,3.775,3.78,3.782,3.775,0,0,8.71,104.54,65.460736018628,26.24672,6,P-GPS,
29000,2022-07-09 13:11:44,52.1675153077035,0.0940440165927219,26.24672,26.2795284,39.181207618628,65.460736018628,27.230972,8.5451108,8.3199477728,17.8053811472,25,5,15.118,65.788820018628,26.574804,8.5451108,8.3199477728,0.894776,8.500372,0,83.4, -11.7, -0.5,0,0,1024,1024,1024,1024,0,0,0,0,78.1,0,0,46,3.775,3.78,3.782,3.775,0,0,8.71,104.54,65.460736018628,26.24672,6,P-GPS,
29200,2022-07-09 13:11:44,52.1675163721442,0.0940557673103741,26.24672,26.2795284,39.181207618628,65.460736018628,27.559056,8.7688048,10.7922903716,20.4634849068,25,5,15.118,65.788820018628,26.574804,8.7688048,10.7922903716,0.894776,8.724066,0,83.4, 0.7, -0.5,0,0,1024,1024,1024,1024,0,0,0,0,78.1,0,0,46,3.775,3.78,3.782,3.775,0,0,8.71,104.54,65.460736018628,26.24672,6,P-GPS,
29400,2022-07-09 13:11:44,52.1675175339042,0.0940671744528801,26.24672,26.2795284,39.181207618628,65.460736018628,27.559056,8.3214168,13.2801185352,23.0511490316,25,5,15.117,65.788820018628,26.574804,8.7688048,13.2801185352,0.894776,8.276678,0,83.3, 23.1, -0.5,0,0,1024,1024,1024,1024,0,0,0,0,78.1,0,0,46,3.77,3.777,3.78,3.775,0,0,8.595,104.72,65.460736018628,26.24672,6,P-GPS,
29600,2022-07-09 13:11:44,52.1675185291573,0.0940747606793338,26.24672,26.2795284,39.181207618628,65.460736018628,26.902888,5.8384134,15.800033314,25.6388131564,25,5,15.117,65.788820018628,26.574804,8.7688048,15.800033314,0.447388,5.816044,0,83.2, 30.4, 0.2,0,0,1024,1024,1024,1024,0,0,0,0,78.1,0,0,46,3.77,3.777,3.78,3.775,0,0,8.595,104.72,65.460736018628,26.24672,6,P-GPS,
29800,2022-07-09 13:11:44,52.1675195244105,0.0940823469057876,26.24672,26.2795284,39.181207618628,65.460736018628,26.574804,3.131716,16.694882424,26.5340559672,25,5,15.117,65.788820018628,26.574804,8.7688048,16.694882424,0.223694,3.131716,0,83.3, 28.2, -0.7,0,0,1024,1024,1024,1024,0,0,0,0,78.1,0,0,46,3.77,3.777,3.78,3.775,0,0,8.595,104.72,65.460736018628,26.24672,6,P-GPS,
30000,2022-07-09 13:11:45,52.1675201272855,0.0940851377092176,26.24672,26.2795284,39.181207618628,65.460736018628,26.574804,1.342164,17.3566606604,27.196195096,25,5,15.117,65.788820018628,26.574804,8.7688048,17.3566606604,0,1.342164,0,83, 12.7, -1.3,0,0,1024,1024,1024,1024,0,0,0,0,78.1,0,0,46,3.77,3.777,3.78,3.775,0,0,8.595,104.72,65.460736018628,26.24672,6,P-GPS,
30200,2022-07-09 13:11:45,52.1675205111888,0.0940862841469271,26.24672,26.2795284,39.181207618628,65.460736018628,26.574804,0.671082,17.6465884912,27.4884851316,25,5,15.117,65.788820018628,26.574804,8.7688048,17.6465884912,0,0.671082,0,81.1, 1, -1.3,0,0,1024,1024,1024,1024,0,0,0,0,78.1,0,0,46,3.77,3.777,3.78,3.775,0,0,8.595,104.72,65.460736018628,26.24672,6,P-GPS,
30400,2022-07-09 13:11:45,52.1675209364146,0.0940872828522823,26.24672,26.2795284,39.181207618628,65.460736018628,26.902888,1.11847,17.9113850876,27.7605323844,25,5,15.079,65.788820018628,26.574804,8.7688048,17.9113850876,0,1.11847,0,79.3, -15.4, -1,0,0,1024,1024,1024,1024,0,0,0,0,78.1,0,0,45,3.772,3.772,3.782,3.775,0,0,9.868,104.72,65.460736018628,26.24672,6,P-GPS,
30600,2022-07-09 13:11:45,52.1675216948034,0.0940909094462349,26.24672,26.2795284,39.181207618628,65.460736018628,26.902888,2.7290668,18.1764113428,28.0326124456,25,5,15.079,65.788820018628,26.574804,8.7688048,18.1764113428,0.447388,2.684328,0,79.2, -25, -1.4,0,0,1024,1024,1024,1024,0,0,0,0,78.1,0,0,45,3.772,3.772,3.782,3.775,0,0,9.868,104.72,65.460736018628,26.24672,6,P-GPS,
30800,2022-07-09 13:11:45,52.1675224531923,0.0940945360401876,26.24672,26.2795284,39.181207618628,65.460736018628,26.902888,4.7870516,19.6244428852,29.4877962192,25,5,15.079,65.788820018628,26.574804,8.7688048,19.6244428852,0.894776,4.697574,0,79.1, -25.5, -1.5,0,0,1024,1024,1024,1024,0,0,0,0,78.1,0,0,45,3.772,3.772,3.782,3.775,0,0,9.868,104.72,65.460736018628,26.24672,6,P-GPS,
31000,2022-07-09 13:11:46,52.167523720183,0.0941020610251764,26.24672,26.2795284,39.181207618628,65.460736018628,27.230972,6.6213424,21.3618445156,31.2340561176,25,5,15.079,65.788820018628,26.574804,8.7688048,21.3618445156,1.342164,6.487126,0,78.8, -24.5, -0.3,0,0,1024,1024,1024,1024,0,0,0,0,78.1,0,0,45,3.772,3.772,3.782,3.775,0,0,9.868,104.72,65.460736018628,26.24672,6,P-GPS,
31200,2022-07-09 13:11:46,52.1675252602317,0.0941120516473781,26.24672,26.2795284,39.181207618628,65.460736018628,27.230972,8.4332638,23.6525926204,33.539371152,25,5,15.079,65.788820018628,26.574804,8.7688048,23.6525926204,1.565858,8.276678,0,78.7, -22.3, 0,0,0,1024,1024,1024,1024,0,0,0,0,78.1,0,0,45,3.772,3.772,3.782,3.775,0,0,9.868,104.72,65.460736018628,26.24672,6,P-GPS,
31400,2022-07-09 13:11:46,52.1675269869045,0.0941242201590286,26.24672,26.24672,39.214016018628,65.460736018628,27.559056,9.9991218,26.4279536016,36.334318748,25,5,15.094,65.788820018628,26.574804,9.9991218,26.4279536016,1.789552,9.842536,0,79, -20, 0,0,0,1024,1024,1024,1024,0,0,0,0,78.2,0,0,45,3.762,3.77,3.769,3.765,0,0,8.714,104.72,65.460736018628,26.24672,6,P-GPS,
31600,2022-07-09 13:11:46,52.1675284660049,0.0941389096149914,26.24672,26.24672,39.214016018628,65.460736018628,27.559056,11.3189164,29.2070547404,39.129266344,25,5,15.094,65.788820018628,26.574804,11.3189164,29.2070547404,1.789552,11.1847,0,77.8, -13.7, 14.1,0,0,1024,1024,1024,1024,0,0,0,0,82.8,0,0,45,3.762,3.77,3.769,3.765,0,0,8.714,104.72,65.460736018628,26.24672,6,P-GPS,
31800,2022-07-09 13:11:46,52.1675299451052,0.0941535990709542,26.24672,26.2139116,39.246824418628,65.460736018628,27.88714,11.855782,33.007218904,43.00689114,25,5,15.094,65.788820018628,26.574804,11.855782,33.007218904,0.447388,11.855782,0,85.3, -6.1, 5.5,0,0,1024,1024,1024,1024,0,0,0,0,86,0,0,45,3.762,3.77,3.769,3.765,0,0,8.714,104.72,65.460736018628,26.24672,6,P-GPS,
32000,2022-07-09 13:11:47,52.1675303910609,0.0941694901809385,26.24672,26.1811032,39.279632818628,65.460736018628,27.559056,12.30317,36.460303004,46.56660254,25,5,15.094,65.788820018628,26.574804,12.30317,36.460303004,0.223694,12.30317,0,87.9, -15.8, -1,0,0,1024,1024,1024,1024,0,0,0,0,86.1,0,0,45,3.762,3.77,3.769,3.765,0,0,8.714,104.72,65.460736018628,26.24672,6,P-GPS,
32200,2022-07-09 13:11:47,52.167530805184,0.094186427038215,26.24672,25.9842528,39.476483218628,65.460736018628,27.559056,13.197946,40.155513096,50.359909748,25,5,15.094,65.788820018628,26.574804,13.197946,40.155513096,0.223694,13.197946,0,87.1, -16.8, -1.4,0,0,1024,1024,1024,1024,0,0,0,0,86.1,0,0,45,3.762,3.77,3.769,3.765,0,0,8.714,104.72,65.460736018628,26.24672,6,P-GPS,
32400,2022-07-09 13:11:47,52.1675312527288,0.0942046149624029,26.24672,25.754594,39.706142018628,65.460736018628,27.559056,14.316416,44.142389864,54.433400692,25,5,15.071,65.788820018628,26.574804,14.316416,44.142389864,0.447388,14.316416,0,86.5, -16.2, 6.5,0,0,1024,1024,1024,1024,0,0,0,0,89.2,0,0,45,3.77,3.775,3.774,3.772,0,0,9.557,104.72,65.460736018628,26.24672,6,P-GPS,
32600,2022-07-09 13:11:47,52.1675310740431,0.0942241205427052,26.24672,25.5249352,39.935800818628,65.460736018628,27.559056,14.763804,48.143702328,58.506563552,25,5,15.071,65.788820018628,26.574804,14.763804,48.143702328,-0.447388,14.763804,0,90.4, -7.6, 5.6,0,0,1024,1024,1024,1024,0,0,0,0,91.1,0,0,45,3.77,3.775,3.774,3.772,0,0,9.557,104.72,65.460736018628,26.24672,6,P-GPS,
