time(millisecond),datetime(utc),latitude,longitude,height_above_takeoff(feet),height_above_ground_at_drone_location(feet),ground_elevation_at_drone_location(feet),altitude_above_seaLevel(feet),height_sonar(feet),speed(mph),distance(feet),mileage(feet),satellites,gpslevel,voltage(v),max_altitude(feet),max_ascent(feet),max_speed(mph),max_distance(feet), xSpeed(mph), ySpeed(mph), zSpeed(mph), compass_heading(degrees), pitch(degrees), roll(degrees),isPhoto,isVideo,rc_elevator,rc_aileron,rc_throttle,rc_rudder,rc_elevator(percent),rc_aileron(percent),rc_throttle(percent),rc_rudder(percent),gimbal_heading(degrees),gimbal_pitch(degrees),gimbal_roll(degrees),battery_percent,voltageCell1,voltageCell2,voltageCell3,voltageCell4,voltageCell5,voltageCell6,current(A),battery_temperature(f),altitude(feet),ascent(feet),flycStateRaw,flycState,message
0,2023-07-11 17:26:55,52.2063837267556,0.0867231405415983,0,0,53.794629674184,53.794629674184,0,0,0,0,15,5,0,53.794629674184,0,0,0,0,0,0,267.8, 4.8, 0.6,0,0,1024,1024,1024,1024,0,0,0,0,267.8,0,0,96,4.264,4.271,4.271,4.267,0,0,0,74.3,53.794629674184,0,6,P-GPS,"Aircraft not in flight. Vision systems and obstacle avoidance disabled (Code: 180059)"
200,2023-07-11 17:26:55,52.2063835823356,0.0867229949754769,0,0,53.794629674184,53.794629674184,0,0,0.061932744764,0.061932744764,15,5,0,53.794629674184,0,0,0.061932744764,0,0,0,267.8, 4.8, 0.6,0,0,1024,1024,1024,1024,0,0,0,0,267.8,0,0,96,4.264,4.271,4.271,4.267,0,0,0,74.3,53.794629674184,0,41,Motors_Started,
400,2023-07-11 17:26:55,52.2063834371554,0.0867228450879364,0,0,53.794629674184,53.794629674184,0,0,0.12461122446,0.124613192964,15,5,0,53.794629674184,0,0,0.12461122446,0,0,0,267.8, 4.8, 0.6,0,0,1024,1024,1024,1024,0,0,0,0,267.8,0,0,96,4.264,4.271,4.271,4.267,0,0,0,74.3,53.794629674184,0,41,Motors_Started,
600,2023-07-11 17:26:55,52.2063832639088,0.0867226921345124,0,0,53.794629674184,53.794629674184,0,0,0.196388785812,0.196480321248,15,5,0,53.794629674184,0,0,0.196388785812,0,0,0,267.8, 4.8, 0.6,0,0,1024,1024,1024,1024,0,0,0,0,267.8,0,0,96,4.264,4.271,4.271,4.267,0,0,0,74.3,53.794629674184,0,41,Motors_Started,"Setting new Return-To-Home altitude to 26m (85 ft). Data Recorder File Index is 56. Setting new Maximum Flight Altitude to 120m (394 ft)"
800,2023-07-11 17:26:56,52.2063830647195,0.0867225610433103,0,0,53.794629674184,53.794629674184,0,0,0.274100730556,0.27484252848,15,5,0,53.794629674184,0,0,0.274100730556,0,0,0,267.8, 4.8, 0.6,0,0,1024,1024,1592,1024,0,0,86,0,267.8,0,0,96,4.264,4.271,4.271,4.267,0,0,0,74.3,53.794629674184,0,41,Motors_Started,
1000,2023-07-11 17:26:56,52.2063828439373,0.086722419939277,0,0,53.794629674184,53.794629674184,0,0,0.36014436848,0.3613517176,15,5,0,53.794629674184,0,0,0.36014436848,0,0,0,267.8, 4.8, 0.6,0,0,1024,1024,1647,1024,0,0,94,0,267.8,0,0,96,4.264,4.271,4.271,4.267,0,0,0,74.3,53.794629674184,0,41,Motors_Started,
1200,2023-07-11 17:26:56,52.2063826308782,0.0867222701574565,0,0,53.794629674184,53.794629674184,0,0,0.44467521108,0.44599410876,15,5,0,53.794629674184,0,0,0.44467521108,0,0,0,268.6, 4.7, 0.6,0,0,1024,1024,1640,1024,0,0,93,0,267.8,0,0,96,4.264,4.271,4.271,4.267,0,0,0,74.3,53.794629674184,0,41,Motors_Started,
1400,2023-07-11 17:26:56,52.2063823969447,0.0867221394821452,0,0,53.794629674184,53.794629674184,0,0,0.53432088324,0.53620736624,15,5,0,53.794629674184,0,0,0.53432088324,0,0,0,268.8, 4.7, 0.6,0,0,1024,1024,1024,1024,0,0,0,0,267.8,0,0,96,4.264,4.271,4.271,4.267,0,0,0,74.3,53.794629674184,0,41,Motors_Started,
1600,2023-07-11 17:26:56,52.206382150844,0.0867220335261202,0,0,53.794629674184,53.794629674184,0,0,0.62598099116,0.6290682616,15,5,17.173,53.794629674184,0,0,0.62598099116,0,0,0,268.9, 4.7, 0.6,0,0,1024,1024,1024,1024,0,0,0,0,267.9,0,0,96,4.264,4.271,4.271,4.267,0,0,1.272,74.3,53.794629674184,0,11,AutoTakeoff,
1800,2023-07-11 17:26:57,52.2063819032452,0.0867219399550763,0,0,53.794629674184,53.794629674184,0,0,0.71741800196,0.72179792336,15,5,17.173,53.794629674184,0,0,0.71741800196,0,0,0,269, 4.7, 0.5,0,0,1024,1024,1024,1024,0,0,0,0,268,0,0,96,4.264,4.271,4.271,4.267,0,0,1.272,74.3,53.794629674184,0,11,AutoTakeoff,
2000,2023-07-11 17:26:57,52.2063816694756,0.0867218159908083,0,0,53.794629674184,53.794629674184,0,0,0.80690947464,0.81147640392,15,5,17.173,53.794629674184,0,0,0.80690947464,0,0,0,268.9, 3.7, 0.5,0,0,1024,1024,1024,1024,0,0,0,0,268,0,0,96,4.264,4.271,4.271,4.267,0,0,1.272,74.3,53.794629674184,0,11,AutoTakeoff,
2200,2023-07-11 17:26:57,52.2063814575473,0.0867217936987161,0,0,53.794629674184,53.794629674184,0,0,0.88098428016,0.8889600022,15,5,17.173,53.794629674184,0,0,0.88098428016,0,0,-0.447388,269, -1.9, 0.3,0,0,1024,1024,1583,1024,0,0,85,0,268.1,0,0,96,4.264,4.271,4.271,4.267,0,0,1.272,74.3,53.794629674184,0,11,AutoTakeoff,
2400,2023-07-11 17:26:57,52.206381277852,0.0867215815332874,0.328084,0.328084,53.794629674184,54.122713674184,0.328084,0,0.95906827216,0.96988520164,14,5,17.173,54.122713674184,0.328084,0,0.95906827216,0,0,-1.11847,269.2, 0.4, -0.4,0,0,1024,1024,1684,1024,0,0,100,0,268.1,0,0,96,4.264,4.271,4.271,4.267,0,0,1.272,74.3,54.122713674184,0.328084,11,AutoTakeoff,
2600,2023-07-11 17:26:57,52.2063810943444,0.086721318381054,0.656168,0.656168,53.794629674184,54.450797674184,0.328084,0,1.04327103076,1.05901578192,18,5,16.996,54.450797674184,0.656168,0,1.04327103076,0,0,-1.789552,269.1, 0.9, -0.3,0,0,1024,1024,1684,1024,0,0,100,0,268.2,0,0,96,4.2,4.207,4.208,4.202,0,0,3.542,74.12,54.450797674184,0.656168,11,AutoTakeoff,
2800,2023-07-11 17:26:58,52.2063810066652,0.0867212470042456,1.312336,1.312336,53.794629674184,55.106965674184,1.64042,0,1.07895672744,1.09476381456,18,5,16.996,55.106965674184,1.312336,0,1.07895672744,0,0,-3.35541,269.1, 0, -0.9,0,0,1024,1024,1684,1024,0,0,100,0,268.2,0,0,96,4.2,4.207,4.208,4.202,0,0,3.542,74.12,55.106965674184,1.312336,11,AutoTakeoff,
3000,2023-07-11 17:26:58,52.2063811025194,0.0867212477075903,2.952756,2.952756,53.794629674184,56.747385674184,2.952756,0,1.04681433796,1.12973756896,18,5,16.996,56.747385674184,2.952756,0,1.07895672744,0,0,-5.144962,269.4, -0.4, -1.2,0,0,1024,1024,1684,1024,0,0,100,0,268.3,0,0,96,4.2,4.207,4.208,4.202,0,0,3.542,74.12,56.747385674184,2.952756,11,AutoTakeoff,
3200,2023-07-11 17:26:58,52.206381355647,0.0867212800684318,4.92126,4.92126,53.794629674184,58.715889674184,4.92126,0,0.95991144804,1.2223753672,18,5,16.996,58.715889674184,4.92126,0,1.07895672744,0,0,-7.381902,269.2, -0.8, -1.9,0,0,1024,1024,1684,1024,0,0,100,0,268.3,0,0,96,4.2,4.207,4.208,4.202,0,0,3.542,74.12,58.715889674184,4.92126,6,P-GPS,
3400,2023-07-11 17:26:58,52.2063816539512,0.0867213033661757,7.545932,7.545932,53.794629674184,61.340561674184,7.545932,0,0.86061682544,1.33133534444,18,5,16.996,61.340561674184,7.545932,0,1.07895672744,0,0,-9.395148,269.1, -1.3, -2.4,0,0,1024,1024,1684,1024,0,0,100,0,268.3,0,0,96,4.2,4.207,4.208,4.202,0,0,3.542,74.12,61.340561674184,7.545932,6,P-GPS,
3600,2023-07-11 17:26:58,52.2063818968875,0.0867212236147611,11.154856,11.154856,53.794629674184,64.949485674184,10.826772,0,0.79336288628,1.42174545232,19,5,16.996,64.949485674184,11.154856,0,1.07895672744,0,0,-11.408394,268.7, -1.6, -0.7,0,0,1024,1024,1684,1024,0,0,100,0,268.3,0,0,96,4.089,4.091,4.089,4.082,0,0,3.542,74.12,64.949485674184,11.154856,6,P-GPS,"Home Point updated (Code: 3000001)"
3800,2023-07-11 17:26:59,52.2063821723223,0.0867209986379759,15.419948,15.419948,53.794629674184,69.214577674184,14.435696,0,0.74228676916,1.53412406484,19,5,16.996,69.214577674184,15.419948,0,1.07895672744,0,0,-12.974252,268.2, -1.5, -0.5,0,0,1024,1024,1684,1024,0,0,100,0,268.3,0,0,96,4.089,4.091,4.089,4.082,0,0,3.542,74.12,69.214577674184,15.419948,6,P-GPS,
4000,2023-07-11 17:26:59,52.2063825175507,0.0867206101838093,20.013124,20.013124,53.794629674184,73.807753674184,18.372704,0,0.717437687,1.6871227574,19,5,16.996,73.807753674184,20.013124,0,1.07895672744,0,0,-13.645334,268.4, -0.6, -1.7,0,0,1024,1024,1684,1024,0,0,100,0,268.3,0,0,96,4.089,4.091,4.089,4.082,0,0,3.542,74.12,73.807753674184,20.013124,6,P-GPS,
4200,2023-07-11 17:26:59,52.2063828583693,0.0867201575750038,24.6063,24.6063,53.794629674184,78.400929674184,22.309712,0,0.73837928872,1.84744428484,20,5,16.996,78.400929674184,24.6063,0,1.07895672744,0,0,-13.645334,268.3, -0.2, -1.8,0,0,1024,1024,1684,1024,0,0,100,0,268.3,0,0,96,4.089,4.091,4.089,4.082,0,0,3.542,74.12,78.400929674184,24.6063,6,P-GPS,
4400,2023-07-11 17:26:59,52.2063832176368,0.0867196799996492,28.543308,28.543308,53.794629674184,82.337937674184,26.574804,0,0.79571524856,2.01651253172,20,5,16.996,82.337937674184,28.543308,0,1.07895672744,0,0,-13.42164,268.1, 0.2, -1.9,0,0,1024,1024,1684,1024,0,0,100,0,268.3,-1,0,96,4.089,4.091,4.089,4.082,0,0,3.542,74.12,82.337937674184,28.543308,6,P-GPS,
4600,2023-07-11 17:26:59,52.2063835679197,0.0867192973321301,32.480316,32.480316,53.794629674184,86.274945674184,30.839896,0,0.86124346588,2.1703084684,21,5,16.429,86.274945674184,32.480316,0,1.07895672744,0,0,-13.42164,268.3, -0.6, -1.9,0,0,1024,1024,1684,1024,0,0,100,0,268.3,-3.5,0,95,4.14,4.146,4.144,4.142,0,0,14.451,73.94,86.274945674184,32.480316,6,P-GPS,
4800,2023-07-11 17:26:59,52.2063838490601,0.0867189127852393,36.417324,36.417324,53.794629674184,90.211953674184,35.104988,0,0.94632220876,2.3041503362,21,5,16.429,90.211953674184,36.417324,0,1.07895672744,0,0,-13.197946,268.1, -0.6, -2.1,0,0,1024,1024,1684,1024,0,0,100,0,268.3,-6.4,0,95,4.14,4.146,4.144,4.142,0,0,14.451,73.94,90.211953674184,36.417324,6,P-GPS,
5000,2023-07-11 17:27:00,52.206384169756,0.0867185632238449,40.026248,40.026248,53.794629674184,93.820877674184,39.041996,0,1.03611223788,2.44485900212,21,5,16.429,93.820877674184,40.026248,0,1.07895672744,0,0,-13.197946,268.1, -1.4, -1.5,0,0,1024,1024,1684,1024,0,0,100,0,268.3,-9.3,0,95,4.14,4.146,4.144,4.142,0,0,14.451,73.94,93.820877674184,40.026248,6,P-GPS,
5200,2023-07-11 17:27:00,52.2063844367493,0.0867181902913141,43.635172,43.635172,53.794629674184,97.429801674184,42.979004,0,1.13671919648,2.57308407184,21,5,16.429,97.429801674184,43.635172,0,1.13671919648,0,0,-13.197946,268.5, -1.4, -1.2,0,0,1024,1024,1684,1024,0,0,100,0,268.3,-12.2,0,95,4.14,4.146,4.144,4.142,0,0,14.451,73.94,97.429801674184,43.635172,6,P-GPS,
5400,2023-07-11 17:27:00,52.2063848021485,0.0867177457172378,47.244096,47.244096,53.794629674184,101.03872567418,45.275592,0,1.26841867576,2.73938000892,25,5,16.429,101.03872567418,47.244096,0,1.26841867576,0,0,-13.197946,268.9, -1.4, -1.9,0,0,1024,1024,1684,1024,0,0,100,0,268.3,-15.1,0,95,4.14,4.146,4.144,4.142,0,0,14.451,73.94,101.03872567418,47.244096,6,P-GPS,
5600,2023-07-11 17:27:00,52.2063852472307,0.0867173118025456,50.85302,50.85302,53.794629674184,104.64764967418,49.2126,0,1.41638455976,2.92854011996,26,5,16.429,104.64764967418,50.85302,0,1.41638455976,0,0,-13.197946,269.8, -1.4, -2.5,0,0,1024,1024,1684,1024,0,0,100,0,268.3,-18,0,95,4.132,4.136,4.133,4.134,0,0,14.451,73.94,104.64764967418,50.85302,6,P-GPS,
5800,2023-07-11 17:27:01,52.2063856266122,0.0867168793985152,54.461944,54.461944,53.794629674184,108.25657367418,53.149608,0,1.56211947256,3.09737870804,26,5,16.429,108.25657367418,54.461944,0,1.56211947256,0,0,-13.197946,270.5, -1.6, -2.2,0,0,1024,1024,1684,1024,0,0,100,0,268.3,-20.9,0,95,4.132,4.136,4.133,4.134,0,0,14.451,73.94,108.25657367418,54.461944,6,P-GPS,
6000,2023-07-11 17:27:01,52.2063859909244,0.0867164715739761,58.398952,58.398952,53.794629674184,112.19358167418,57.086616,0,1.70462931964,3.25856965808,26,5,16.429,112.19358167418,58.398952,0,1.70462931964,0,0,-13.197946,270.2, -1.7, -2.6,0,0,1024,1024,1684,1024,0,0,100,0,268.3,-23.8,0,95,4.132,4.136,4.133,4.134,0,0,14.451,73.94,112.19358167418,58.398952,6,P-GPS,
6200,2023-07-11 17:27:01,52.2063863330473,0.0867160771400697,62.007876,62.007876,53.794629674184,115.80250567418,60.69554,0,1.84346134508,3.411417432,26,5,16.429,115.80250567418,62.007876,0,1.84346134508,0,0,-13.42164,269.1, -1.5, -2.7,0,0,1024,1024,1684,1024,0,0,100,0,268.3,-26.7,0,95,4.132,4.136,4.133,4.134,0,0,14.451,73.94,115.80250567418,62.007876,6,P-GPS,
6400,2023-07-11 17:27:01,52.2063866596475,0.0867157148852711,65.6168,65.6168,53.794629674184,119.41142967418,64.304464,0,1.97523628368,3.5554791164,27,5,16.429,119.41142967418,65.6168,0,1.97523628368,0,0,-13.42164,268.6, -1.5, -2.8,0,0,1024,1024,1684,1024,0,0,100,0,268.3,-29.7,0,95,4.132,4.136,4.133,4.134,0,0,14.451,73.94,119.41142967418,65.6168,6,P-GPS,
6600,2023-07-11 17:27:01,52.2063869453509,0.086715388120979,69.553808,69.553808,53.794629674184,123.34843767418,67.913388,0,2.093668046,3.6827757084,27,5,16.554,123.34843767418,69.553808,0,2.093668046,0,0,-13.42164,268.5, -0.9, -2.8,0,0,1024,1024,1684,1024,0,0,100,0,268.3,-32.6,0,95,4.129,4.133,4.131,4.132,0,0,10.62,74.3,123.34843767418,69.553808,6,P-GPS,
6800,2023-07-11 17:27:01,52.2063871665481,0.0867151225345617,73.162732,73.162732,53.794629674184,126.95736167418,71.522312,0,2.1883530884,3.782972562,27,5,16.554,126.95736167418,73.162732,0,2.1883530884,0,0,-13.42164,268.3, -0.8, -2.7,0,0,1024,1024,1684,1024,0,0,100,0,268.3,-35.5,0,95,4.129,4.133,4.131,4.132,0,0,10.62,74.3,126.95736167418,73.162732,6,P-GPS,
7000,2023-07-11 17:27:02,52.2063875157917,0.0867149652509814,76.771656,76.771656,53.794629674184,130.56628567418,75.131236,0,2.29178485024,3.9151576056,28,5,16.554,130.56628567418,76.771656,0,2.29178485024,0,0,-13.42164,268.7, -2.7, -3.2,0,0,1024,1024,1684,1024,0,0,100,0,268.3,-38.4,0,95,4.129,4.133,4.131,4.132,0,0,10.62,74.3,130.56628567418,76.771656,6,P-GPS,
7200,2023-07-11 17:27:02,52.2063878337762,0.0867147536010474,80.708664,80.708664,53.794629674184,134.50329367418,78.74016,0,2.4003609692,4.0404528852,27,5,16.554,134.50329367418,80.708664,0,2.4003609692,0,0,-13.197946,268.6, -2.6, -4.3,0,0,1024,1024,1684,1024,0,0,100,0,268.3,-41.3,0,95,4.129,4.133,4.131,4.132,0,0,10.62,74.3,134.50329367418,80.708664,6,P-GPS,
7400,2023-07-11 17:27:02,52.2063880647076,0.0867143636667991,84.973756,84.973756,53.794629674184,138.76838567418,82.677168,0,2.5210958812,4.1617127316,28,5,16.554,138.76838567418,84.973756,0,2.5210958812,0,0,-13.197946,268.2, -0.2, -3.5,0,0,1024,1024,1684,1024,0,0,100,0,268.3,-44.2,0,95,4.129,4.133,4.131,4.132,0,0,10.62,74.3,138.76838567418,84.973756,6,P-GPS,
7600,2023-07-11 17:27:02,52.206388196381,0.0867140128629748,88.910764,88.910764,53.794629674184,142.70539367418,83.66142,0,2.61233276076,4.2536746768,28,5,16.489,142.70539367418,88.910764,0,2.61233276076,0,0,-13.42164,268.3, -0.1, -4.2,0,0,1024,1024,1684,1024,0,0,100,0,268.3,-47.2,0,95,4.12,4.122,4.126,4.125,0,0,11.33,74.3,142.70539367418,88.910764,6,P-GPS,
7800,2023-07-11 17:27:03,52.2063883732219,0.0867137726755981,92.519688,92.519688,53.794629674184,146.31431767418,83.66142,0,2.69461622796,4.3376313724,28,5,16.489,146.31431767418,92.519688,0,2.69461622796,0,0,-13.197946,268.1, 0, -5.2,0,0,1024,1024,1684,1024,0,0,100,0,268.3,-50.1,0,95,4.12,4.122,4.126,4.125,0,0,11.33,74.3,146.31431767418,92.519688,6,P-GPS,
8000,2023-07-11 17:27:03,52.2063884603415,0.0867137004556499,96.456696,96.456696,53.794629674184,150.25132567418,83.66142,0,2.72720481168,4.3732612948,28,5,16.489,150.25132567418,96.456696,0,2.72720481168,0,0,-13.197946,268.5, -2.2, -5.6,0,0,1024,1024,1684,1024,0,0,100,0,268.3,-53,0,95,4.12,4.122,4.126,4.125,0,0,11.33,74.3,150.25132567418,96.456696,6,P-GPS,
8200,2023-07-11 17:27:03,52.2063885440103,0.0867136086136979,100.721788,100.721788,53.794629674184,154.51641767418,83.66142,0,2.76244759496,4.4100723196,27,5,16.489,154.51641767418,100.721788,0,2.76244759496,0,0,-13.197946,268.3, -1.1, -5.6,0,0,1024,1024,1684,1024,0,0,100,0,268.3,-55.9,0,95,4.12,4.122,4.126,4.125,0,0,11.33,74.3,154.51641767418,100.721788,6,P-GPS,
8400,2023-07-11 17:27:03,52.2063885525547,0.0867135267758399,104.658796,104.658796,53.794629674184,158.45342567418,83.66142,0,2.77856308104,4.4286090656,27,5,16.489,158.45342567418,104.658796,0,2.77856308104,0,0,-13.197946,268.5, -1.6, -6.1,0,0,1024,1024,1684,1024,0,0,100,0,268.3,-58.8,0,95,4.12,4.122,4.126,4.125,0,0,11.33,74.3,158.45342567418,104.658796,6,P-GPS,
8600,2023-07-11 17:27:03,52.206388544746,0.0867135488599868,108.26772,108.26772,53.794629674184,162.06234967418,83.66142,0,2.77293972128,4.4343177272,27,5,16.557,162.06234967418,108.26772,0,2.77856308104,0,0,-13.197946,268.3, -2.4, -6.2,0,0,1024,1024,1684,1024,0,0,100,0,268.3,-61.8,0,95,4.114,4.117,4.114,4.108,0,0,10.831,74.48,162.06234967418,108.26772,6,P-GPS,
8800,2023-07-11 17:27:04,52.2063885283966,0.0867136688322281,112.204728,112.204728,53.794629674184,165.99935767418,83.66142,0,2.748441689,4.4618111664,27,5,16.557,165.99935767418,112.204728,0,2.77856308104,0,0,-13.197946,268.5, -3.6, -6.6,0,0,1024,1024,1684,1024,0,0,100,0,268.3,-64.7,0,95,4.114,4.117,4.114,4.108,0,0,10.831,74.48,165.99935767418,112.204728,6,P-GPS,
9000,2023-07-11 17:27:04,52.2063884106111,0.0867137498435469,116.141736,116.141736,53.794629674184,169.93636567418,83.66142,0,2.70717856432,4.5084319028,27,5,16.557,169.93636567418,116.141736,0,2.77856308104,0,0,-13.42164,268.5, -3.8, -5.6,0,0,1024,1024,1675,1024,0,0,99,0,268.3,-67.6,0,95,4.114,4.117,4.114,4.108,0,0,10.831,74.48,169.93636567418,116.141736,6,P-GPS,
9200,2023-07-11 17:27:04,52.2063883053345,0.0867138007482218,120.078744,120.078744,53.794629674184,173.87337367418,83.66142,0,2.67419956064,4.5484909592,27,5,16.557,173.87337367418,120.078744,0,2.77856308104,0,0,-13.42164,268.5, -3.7, -6.2,0,0,1024,1024,1669,1024,0,0,98,0,268.3,-69.3,0,95,4.114,4.117,4.114,4.108,0,0,10.831,74.48,173.87337367418,120.078744,6,P-GPS,
9400,2023-07-11 17:27:04,52.2063882942023,0.086713818337953,124.015752,124.015752,53.794629674184,177.81038167418,83.66142,0,2.66859260508,4.5541668124,28,5,16.557,177.81038167418,124.015752,0,2.77856308104,0,0,-12.974252,268.6, -4.1, -6.6,0,0,1024,1024,1671,1024,0,0,98,0,268.3,-69.6,0,95,4.114,4.117,4.114,4.108,0,0,10.831,74.48,177.81038167418,124.015752,6,P-GPS,
9600,2023-07-11 17:27:04,52.2063883324322,0.0867138054558252,127.624676,127.624676,53.794629674184,181.41930567418,83.66142,0,2.67956701488,4.568405658,28,5,16.483,181.41930567418,127.624676,0,2.77856308104,0,0,-12.750558,268.8, -4.5, -8.5,0,0,1024,1024,1083,1024,0,0,9,0,268.3,-69.6,0,95,4.11,4.111,4.11,4.109,0,0,11.132,74.66,181.41930567418,127.624676,6,P-GPS,
9800,2023-07-11 17:27:05,52.2063883264343,0.0867137145033202,131.561684,131.561684,53.794629674184,185.35631367418,83.66142,0,2.69407488936,4.5888452912,28,5,16.483,185.35631367418,131.561684,0,2.77856308104,0,0,-12.750558,268.7, -3.8, -8.7,0,0,1024,1024,1024,1024,0,0,0,0,268.3,-69.6,0,95,4.11,4.111,4.11,4.109,0,0,11.132,74.66,185.35631367418,131.561684,6,P-GPS,
10000,2023-07-11 17:27:05,52.2063883087516,0.0867136390593452,135.170608,135.170608,53.794629674184,188.96523767418,83.66142,0,2.70329404976,4.6069227196,28,5,16.483,188.96523767418,135.170608,0,2.77856308104,0,0,-11.1847,268.8, -5.3, -10.4,0,0,1024,1024,1024,1024,0,0,0,0,268.3,-69.6,0,95,4.11,4.111,4.11,4.109,0,0,11.132,74.66,188.96523767418,135.170608,6,P-GPS,
10200,2023-07-11 17:27:05,52.2063884050282,0.086713590754861,137.79528,137.79528,53.794629674184,191.58990967418,83.66142,0.223694,2.73358604548,4.6436681276,27,5,16.483,191.58990967418,137.79528,0.223694,2.77856308104,0.223694,0,-8.94776,269.1, -6.1, -12.5,0,0,1024,1024,1024,1024,0,0,0,0,268.3,-69.6,0,95,4.11,4.111,4.11,4.109,0,0,11.132,74.66,191.58990967418,137.79528,6,P-GPS,
10400,2023-07-11 17:27:05,52.2063885348753,0.0867135520665392,139.763784,139.763784,53.794629674184,193.55841367418,83.66142,0.223694,2.77010179468,4.6918308588,27,5,16.483,193.55841367418,139.763784,0.223694,2.77856308104,0.223694,0,-6.487126,269.3, -6.5, -14.7,0,0,1024,1024,1024,1024,0,0,0,0,268.3,-69.6,0,95,4.11,4.111,4.11,4.109,0,0,11.132,74.66,193.55841367418,139.763784,6,P-GPS,
10600,2023-07-11 17:27:05,52.2063886893491,0.0867135145280329,141.07612,141.07612,53.794629674184,194.87074967418,83.66142,0.223694,2.8125493026,4.7487862412,27,5,16.418,194.87074967418,141.07612,0.223694,2.8125493026,0.223694,0,-3.802798,269.5, -7.1, -17,0,0,1024,1024,1024,1024,0,0,0,0,268.3,-69.7,0,95,4.186,4.198,4.196,4.193,0,0,12.049,74.66,194.87074967418,141.07612,6,P-GPS,
10800,2023-07-11 17:27:06,52.2063887958497,0.0867135003772637,141.404204,141.404204,53.794629674184,195.19883367418,83.66142,0.223694,2.84012148196,4.7877954288,27,5,16.418,195.19883367418,141.404204,0.223694,2.84012148196,0.223694,0,-1.565858,269.9, -8.3, -18.7,0,0,1024,1024,1024,1024,0,0,0,0,268.3,-70.5,0,95,4.186,4.198,4.196,4.193,0,0,12.049,74.66,195.19883367418,141.404204,6,P-GPS,
11000,2023-07-11 17:27:06,52.2063884497009,0.0867132194500706,141.732288,141.732288,53.794629674184,195.52691767418,83.66142,0,2.80888132348,4.9288387404,28,5,16.418,195.52691767418,141.732288,0.223694,2.84012148196,0,0,-0.223694,269.5, -7.8, -15.4,0,0,1024,1024,1024,1024,0,0,0,0,268.3,-72.8,0,95,4.186,4.198,4.196,4.193,0,0,12.049,74.66,195.52691767418,141.732288,6,P-GPS,
11200,2023-07-11 17:27:06,52.2063878440533,0.0867127670780432,141.732288,141.732288,53.794629674184,195.52691767418,83.66142,0.447388,2.76333998344,5.1718505592,28,5,16.418,195.52691767418,141.732288,0.447388,2.84012148196,-0.447388,0,0,269.1, -7.7, -14.3,0,0,1024,1024,1024,1024,0,0,0,0,268.3,-75.7,0,95,4.186,4.198,4.196,4.193,0,0,12.049,74.66,195.52691767418,141.732288,6,P-GPS,
11400,2023-07-11 17:27:06,52.2063869108964,0.0867119093034286,141.732288,141.732288,53.794629674184,195.52691767418,83.66142,0.7158208,2.76686032476,5.5626314116,28,5,16.418,195.52691767418,141.732288,0.7158208,2.84012148196,-0.671082,-0.223694,0,271.2, -6.3, -10.8,0,0,1024,1024,1024,1024,0,0,0,0,268.3,-78.6,0,95,4.186,4.198,4.196,4.193,0,0,12.049,74.66,195.52691767418,141.732288,6,P-GPS,
11600,2023-07-11 17:27:06,52.2063858212364,0.0867108135432116,141.732288,141.732288,53.794629674184,195.52691767418,83.66142,0.8052984,2.86012804428,6.0295933688,27,5,16.694,195.52691767418,141.732288,0.8052984,2.86012804428,-0.671082,-0.447388,0,272.5, -4, -8.1,0,0,1024,1024,1024,1024,0,0,0,0,268.3,-81.5,0,95,4.175,4.181,4.182,4.176,0,0,9.739,74.84,195.52691767418,141.732288,6,P-GPS,
11800,2023-07-11 17:27:07,52.2063847682449,0.0867096722866465,141.404204,141.404204,53.794629674184,195.19883367418,83.66142,0.6263432,3.03520022836,6.490813856,27,5,16.694,195.52691767418,141.732288,0.8052984,3.03520022836,-0.447388,-0.447388,0,273.5, -2.4, -6.6,0,0,1026,1024,1024,1024,0,0,0,0,268.3,-84.4,0,95,4.175,4.181,4.182,4.176,0,0,9.739,74.84,195.19883367418,141.404204,6,P-GPS,
12000,2023-07-11 17:27:07,52.20638389187,0.0867086705841354,141.404204,141.404204,53.794629674184,195.19883367418,83.66142,0.4921268,3.23584984108,6.8812010076,27,5,16.694,195.52691767418,141.732288,0.8052984,3.23584984108,-0.447388,-0.223694,0,273.9, -1.5, -5.9,0,0,1218,1024,1024,1024,29,0,0,0,268.3,-87.3,0,95,4.175,4.181,4.182,4.176,0,0,9.739,74.84,195.19883367418,141.404204,6,P-GPS,
12200,2023-07-11 17:27:07,52.2063832526187,0.0867079161793345,141.404204,141.404204,53.794629674184,195.19883367418,83.66142,0,3.4083662508,7.1690291008,27,5,16.694,195.52691767418,141.732288,0.8052984,3.4083662508,0,0,0,273.8, 0.6, 0.1,0,0,1368,1024,1024,1024,52,0,0,0,268.3,-89.9,0,95,4.175,4.181,4.182,4.176,0,0,9.739,74.84,195.19883367418,141.404204,6,P-GPS,
12400,2023-07-11 17:27:07,52.2063831144611,0.0867075258519121,141.404204,141.404204,53.794629674184,195.19883367418,83.66142,0.223694,3.4983925004,7.2698165056,27,5,16.694,195.52691767418,141.732288,0.8052984,3.4983925004,0.223694,0,0,273.9, -3.5, -2.1,0,0,1684,1024,1024,1024,100,0,0,0,268.3,-89.9,0,95,4.175,4.181,4.182,4.176,0,0,9.739,74.84,195.19883367418,141.404204,6,P-GPS,
12600,2023-07-11 17:27:07,52.2063833757724,0.0867071801733295,141.404204,141.404204,53.794629674184,195.19883367418,83.66142,0.671082,3.5708334476,7.39255273,27,5,16.747,195.52691767418,141.732288,0.8052984,3.5708334476,0.671082,0,0,274.4, -14.4, -4.7,0,0,1684,1024,1024,1024,100,0,0,0,268.3,-89.9,0,95,4.162,4.186,4.18,4.187,0,0,5.069,75.2,195.19883367418,141.404204,6,P-GPS,
12800,2023-07-11 17:27:08,52.2063839933001,0.0867059446615977,141.404204,141.404204,53.794629674184,195.19883367418,83.66142,1.6105968,3.8459974984,7.749015996,28,5,16.747,195.52691767418,141.732288,1.6105968,3.8459974984,0.894776,-1.342164,0.223694,276.9, -27.5, -7,0,0,1684,1024,1024,1024,100,0,0,0,268.3,-89.9,0,95,4.162,4.186,4.18,4.187,0,0,5.069,75.2,195.19883367418,141.404204,6,P-GPS,
13000,2023-07-11 17:27:08,52.2063848770008,0.0867025463730726,141.404204,141.404204,53.794629674184,195.19883367418,83.66142,3.3330406,4.6236550036,8.5744097232,28,5,16.747,195.52691767418,141.732288,3.3330406,4.6236550036,1.11847,-3.131716,0,277.5, -28, -8.2,0,0,1684,1024,1024,1024,100,0,0,0,268.3,-89.9,0,95,4.162,4.186,4.18,4.187,0,0,5.069,75.2,195.19883367418,141.404204,6,P-GPS,
13200,2023-07-11 17:27:08,52.2063860493674,0.0866967455572375,141.404204,141.404204,53.794629674184,195.19883367418,83.66142,5.1673314,5.96210649,9.9400921816,28,5,16.747,195.52691767418,141.732288,5.1673314,5.96210649,1.565858,-4.921268,0,278.9, -28.2, -8.9,0,0,1684,1024,1024,1024,100,0,0,0,268.3,-89.9,0,95,4.162,4.186,4.18,4.187,0,0,5.069,75.2,195.19883367418,141.404204,6,P-GPS,
13400,2023-07-11 17:27:08,52.206387538608,0.086688727890078,141.404204,141.404204,53.794629674184,195.19883367418,83.66142,6.7331894,7.818897888,11.8132877796,28,5,16.747,195.52691767418,141.732288,6.7331894,7.818897888,1.789552,-6.487126,0,280.9, -27.8, -10,0,0,1684,1024,1024,1024,100,0,0,0,268.3,-89.9,0,95,4.162,4.186,4.18,4.187,0,0,5.069,75.2,195.19883367418,141.404204,6,P-GPS,
13600,2023-07-11 17:27:08,52.2063892431154,0.0866786205153293,141.404204,141.404204,53.794629674184,195.19883367418,83.66142,8.3661556,10.155512136,14.157152684,28,5,16.715,195.52691767418,141.732288,8.3661556,10.155512136,2.23694,-8.052984,0,282.3, -27.8, -10.1,0,0,1684,1024,1024,1024,100,0,0,0,268.3,-90,0,95,4.131,4.143,4.144,4.14,0,0,6.769,75.02,195.19883367418,141.404204,6,P-GPS,
13800,2023-07-11 17:27:09,52.2063911190296,0.0866664960531031,141.732288,141.6994796,53.827438074184,195.52691767418,83.66142,9.9320136,12.9489505456,16.953084532,28,5,16.715,195.52691767418,141.732288,9.9320136,12.9489505456,2.460634,-9.618842,0,282.3, -28.1, -10.6,0,0,1668,1024,917,1024,98,0,-16,0,268.3,-90,0,95,4.131,4.143,4.144,4.14,0,0,6.769,75.02,195.52691767418,141.732288,6,P-GPS,
14000,2023-07-11 17:27:09,52.2063931419063,0.0866524207523452,141.732288,141.6994796,53.827438074184,195.52691767418,83.66142,11.4531328,16.1808404128,20.185532142,28,5,16.715,195.52691767418,141.732288,11.4531328,16.1808404128,2.460634,-11.1847,0,282.2, -27.7, -11.1,0,0,1636,1024,419,1024,93,0,-92,0,268.3,-90,0,95,4.131,4.143,4.144,4.14,0,0,6.769,75.02,195.52691767418,141.732288,6,P-GPS,
14200,2023-07-11 17:27:09,52.2063952866151,0.0866366144235343,141.732288,141.6666712,53.860246474184,195.52691767418,83.66142,12.3702782,19.8004927596,23.8051844888,28,5,16.715,195.52691767418,141.732288,12.3702782,19.8004927596,2.684328,-12.079476,0.894776,282.1, -29.1, -11.4,0,0,1615,1024,797,1024,90,0,-34,0,268.3,-89.9,0,95,4.131,4.143,4.144,4.14,0,0,6.769,75.02,195.52691767418,141.732288,6,P-GPS,
14400,2023-07-11 17:27:09,52.2063976048209,0.0866201059803174,141.07612,140.9776948,53.893054874184,194.87074967418,83.66142,12.862405,23.5870414372,27.5919300168,28,5,16.715,195.52691767418,141.732288,12.862405,23.5870414372,2.908022,-12.526864,3.131716,282.4, -29.1, -12.2,0,0,1555,1024,873,1024,80,0,-23,0,268.3,-89.9,0,95,4.131,4.143,4.144,4.14,0,0,6.769,75.02,194.87074967418,141.07612,6,P-GPS,
14600,2023-07-11 17:27:09,52.2063999917156,0.0866025036047057,140.091868,139.9606344,53.925863274184,193.88649767418,83.66142,14.3387854,27.6178814612,31.6227700408,28,5,16.555,195.52691767418,141.732288,14.3387854,27.6178814612,2.684328,-14.092722,2.460634,282.4, -24.2, -12.3,0,0,1438,1024,905,1024,63,0,-18,0,268.3,-89.9,0,95,4.17,4.185,4.185,4.178,0,0,8.08,75.2,193.88649767418,140.091868,6,P-GPS,
14800,2023-07-11 17:27:09,52.206402265602,0.0865827698765145,139.4357,139.271658,53.958671674184,193.23032967418,83.66142,15.882274,32.1055784552,36.11220588,28,5,16.555,195.52691767418,141.732288,15.882274,32.1055784552,2.684328,-15.65858,0.894776,282.9, -24, -14.3,0,0,1440,1024,382,1024,63,0,-97,0,268.3,-89.9,0,95,4.17,4.185,4.185,4.178,0,0,8.08,75.2,193.23032967418,139.4357,6,P-GPS,
15000,2023-07-11 17:27:10,52.2064043791639,0.0865614777673432,139.4357,139.271658,53.958671674184,193.23032967418,83.66142,16.329662,36.92257336,40.93504068,27,5,16.555,195.52691767418,141.732288,16.329662,36.92257336,2.684328,-16.105968,1.11847,282.9, -21.7, -14.3,0,0,1417,1024,942,1024,60,0,-12,0,268.3,-90,0,95,4.17,4.185,4.185,4.178,0,0,8.08,75.2,193.23032967418,139.4357,6,P-GPS,
15200,2023-07-11 17:27:10,52.2064065362903,0.0865400480577558,138.451448,138.2217892,54.024288474184,192.24607767418,83.66142,16.5086172,41.774279552,45.79068388,27,5,16.555,195.52691767418,141.732288,16.5086172,41.774279552,2.460634,-16.329662,3.131716,281.8, -20.4, -15.3,0,0,1079,1024,1024,1024,8,0,0,0,268.3,-89.9,0,95,4.17,4.185,4.185,4.178,0,0,8.08,75.2,192.24607767418,138.451448,6,P-GPS,
15400,2023-07-11 17:27:10,52.2064084535141,0.0865182050855959,137.467196,137.2375372,54.024288474184,191.26182567418,83.66142,17.0678522,46.700460812,50.724082988,27,5,16.555,195.52691767418,141.732288,17.0678522,46.700460812,1.565858,-17.000744,1.565858,279.1, -9.5, -11.7,0,0,1024,1024,1024,1024,0,0,0,0,268.3,-90,0,95,4.17,4.185,4.185,4.178,0,0,8.08,75.2,191.26182567418,137.467196,6,P-GPS,
15600,2023-07-11 17:27:10,52.2064099473215,0.0864963209297699,137.139112,136.8766448,54.057096874184,190.93374167418,83.66142,16.1507068,51.608269368,55.647639576,27,5,16.466,195.52691767418,141.732288,17.0678522,51.608269368,1.342164,-16.105968,0,278.4, 17.9, -2.8,0,0,1024,1024,739,1024,0,0,-43,0,268.3,-89.9,0,95,4.175,4.197,4.203,4.097,0,0,10.334,75.2,190.93374167418,137.139112,6,P-GPS,
15800,2023-07-11 17:27:11,52.2064114025328,0.0864772279528813,136.811028,136.5485608,54.057096874184,190.60565767418,83.66142,13.2874236,55.90223276,59.9491489,27,5,16.466,195.52691767418,141.732288,17.0678522,55.90223276,1.565858,-13.197946,-0.671082,277.1, 26.2, -4.4,0,0,1024,1024,364,1024,0,0,-100,0,268.3,-90,0,95,4.175,4.197,4.203,4.097,0,0,10.334,75.2,190.60565767418,136.811028,6,P-GPS,
16000,2023-07-11 17:27:11,52.2064127141572,0.0864617037237958,136.811028,136.5157524,54.089905274184,190.60565767418,83.66142,10.8044202,59.40288904,63.45308602,27,5,16.466,195.52691767418,141.732288,17.0678522,59.40288904,1.11847,-10.737312,-0.223694,276.1, 27.4, -8.4,0,0,1024,1024,961,1024,0,0,-10,0,268.3,-90,0,95,4.175,4.197,4.203,4.097,0,0,10.334,75.2,190.60565767418,136.811028,6,P-GPS,
16200,2023-07-11 17:27:11,52.2064136095078,0.0864493791831834,136.811028,136.5157524,54.089905274184,190.60565767418,83.66142,8.2990474,62.172902252,66.228020492,28,5,16.466,195.52691767418,141.732288,17.0678522,62.172902252,0.671082,-8.276678,0.223694,276.2, 27.5, -7.8,0,0,1024,1024,891,1024,0,0,-20,0,268.3,-90,0,95,4.175,4.197,4.203,4.097,0,0,10.334,75.2,190.60565767418,136.811028,6,P-GPS,
16400,2023-07-11 17:27:11,52.206414023883,0.0864403270525076,136.811028,136.5157524,54.089905274184,190.60565767418,83.66142,5.816044,64.192259272,68.257548116,28,5,16.466,195.52691767418,141.732288,17.0678522,64.192259272,0,-5.816044,0,277.4, 27.8, -4.9,0,0,1024,1024,364,1024,0,0,-100,0,268.3,-90,0,95,4.175,4.197,4.203,4.097,0,0,10.334,75.2,190.60565767418,136.811028,6,P-GPS,
16600,2023-07-11 17:27:11,52.2064141210639,0.0864344543400008,136.482944,136.1876684,54.089905274184,190.27757367418,83.66142,3.802798,65.49212808,69.571196452,28,5,16.7,195.52691767418,141.732288,17.0678522,65.49212808,0,-3.802798,0.671082,278.1, 24.5, -2.5,0,0,1024,1024,962,1024,0,0,-9,0,268.3,-89.9,0,95,4.193,4.18,4.164,4.151,0,0,7.98,75.74,190.27757367418,136.482944,6,P-GPS,
16800,2023-07-11 17:27:12,52.2064140734597,0.0864307539610366,136.15486,135.8595844,54.089905274184,189.94948967418,83.66142,2.23694,66.304792148,70.3986243,27,5,16.7,195.52691767418,141.732288,17.0678522,66.304792148,0,-2.23694,1.789552,278, 17.7, -2,0,0,1024,1024,405,1024,0,0,-94,0,268.3,-90,0,95,4.193,4.18,4.164,4.151,0,0,7.98,75.74,189.94948967418,136.15486,6,P-GPS,
17000,2023-07-11 17:27:12,52.2064139444592,0.086429036381282,135.826776,135.5315004,54.089905274184,189.62140567418,83.66142,0.894776,66.675527068,70.785435336,27,5,16.7,195.52691767418,141.732288,17.0678522,66.675527068,0,-0.894776,1.11847,278.3, 7.1, -2.7,0,0,1024,1024,949,1024,0,0,-11,0,268.3,-90,0,95,4.193,4.18,4.164,4.151,0,0,7.98,75.74,189.62140567418,135.826776,6,P-GPS,
17200,2023-07-11 17:27:12,52.2064138491094,0.0864283380483361,135.498692,135.2034164,54.089905274184,189.29332167418,83.66142,0.447388,66.823821036,70.945540328,27,5,16.7,195.52691767418,141.732288,17.0678522,66.823821036,0,-0.447388,2.013246,278.9, 3.2, -4.5,0,0,1024,1024,954,1024,0,0,-11,0,268.3,-90,0,95,4.193,4.18,4.164,4.151,0,0,7.98,75.74,189.29332167418,135.498692,6,P-GPS,
17400,2023-07-11 17:27:12,52.2064137294211,0.086428163192499,135.498692,135.2034164,54.089905274184,189.29332167418,83.66142,0,66.8553171,71.004267364,27,5,16.7,195.52691767418,141.732288,17.0678522,66.8553171,0,0,0.671082,279, -0.5, -4.7,0,0,1024,1024,364,1024,0,0,-100,0,268.3,-89.9,0,95,4.193,4.18,4.164,4.151,0,0,7.98,75.74,189.29332167418,135.498692,6,P-GPS,
17600,2023-07-11 17:27:12,52.2064137356835,0.0864282162307981,135.170608,134.8753324,54.089905274184,188.96523767418,83.66142,0,66.84383416,71.016406472,27,5,16.7,195.52691767418,141.732288,17.0678522,66.8553171,0,0,1.11847,278.8, -2.6, -7.6,0,0,1024,1024,993,1024,0,0,-5,0,268.3,-89.9,0,95,4.151,4.134,4.128,4.125,0,0,7.98,75.74,188.96523767418,135.170608,6,P-GPS,
17800,2023-07-11 17:27:13,52.2064138360427,0.0864283392785339,134.842524,134.5472484,54.089905274184,188.63715367418,83.66142,0.223694,66.822836784,71.062010148,27,5,16.7,195.52691767418,141.732288,17.0678522,66.8553171,0.223694,0,2.460634,279.6, -3.4, -8.9,0,0,1024,1024,1024,1024,0,0,0,0,268.3,-90,0,95,4.151,4.134,4.128,4.125,0,0,7.98,75.74,188.63715367418,134.842524,6,P-GPS,
18000,2023-07-11 17:27:13,52.2064138831415,0.0864284141808024,134.186356,133.8910804,54.089905274184,187.98098567418,83.66142,0,66.809057256,71.08596028,28,5,16.7,195.52691767418,141.732288,17.0678522,66.8553171,0,0,1.11847,279, -1.6, -7.3,0,0,1024,1024,999,1024,0,0,-4,0,268.3,-89.9,0,95,4.151,4.134,4.128,4.125,0,0,7.98,75.74,187.98098567418,134.186356,6,P-GPS,
18200,2023-07-11 17:27:13,52.2064138942035,0.0864285720095841,134.186356,133.8910804,54.089905274184,187.98098567418,83.66142,0,66.77493652,71.121393352,27,5,16.7,195.52691767418,141.732288,17.0678522,66.8553171,0,0,0.223694,279, -3.3, -7.9,0,0,1024,1024,364,1024,0,0,-100,0,268.3,-90,0,95,4.151,4.134,4.128,4.125,0,0,7.98,75.74,187.98098567418,134.186356,6,P-GPS,
18400,2023-07-11 17:27:13,52.2064139133741,0.0864287381422007,134.186356,133.8910804,54.089905274184,187.98098567418,83.66142,0,66.739503448,71.159451096,28,5,16.7,195.52691767418,141.732288,17.0678522,66.8553171,0,0,0.671082,279, -5.2, -9.9,0,0,1024,1024,364,1024,0,0,-100,0,268.3,-90,0,95,4.151,4.134,4.128,4.125,0,0,7.98,75.74,187.98098567418,134.186356,6,P-GPS,
18600,2023-07-11 17:27:13,52.206413979335,0.0864289246569575,133.530188,133.2349124,54.089905274184,187.32481767418,83.66142,0,66.702429956,71.20735136,28,5,16.765,195.52691767418,141.732288,17.0678522,66.8553171,0,0,2.908022,279.3, -5.8, -11,0,0,1024,1024,1024,1024,0,0,0,0,268.3,-90,0,95,4.145,4.151,4.159,4.157,0,0,5.659,75.92,187.32481767418,133.530188,6,P-GPS,
18800,2023-07-11 17:27:14,52.2064141018376,0.086429067723366,132.217852,131.9225764,54.089905274184,186.01248167418,83.66142,0,66.67815174,71.262469472,28,5,16.765,195.52691767418,141.732288,17.0678522,66.8553171,0,0,4.47388,279.4, -5, -10.2,0,0,1024,1024,1024,1024,0,0,0,0,268.3,-89.9,0,95,4.145,4.151,4.159,4.157,0,0,5.659,75.92,186.01248167418,132.217852,6,P-GPS,
19000,2023-07-11 17:27:14,52.2064141572463,0.0864290604260565,131.2336,130.9383244,54.089905274184,185.02822967418,83.66142,0,66.683073,71.28281068,28,5,16.765,195.52691767418,141.732288,17.0678522,66.8553171,0,0,3.35541,279.6, -2.9, -7.5,0,0,1024,1024,1024,1024,0,0,0,0,268.3,-89.9,0,95,4.145,4.151,4.159,4.157,0,0,5.659,75.92,185.02822967418,131.2336,6,P-GPS,
19200,2023-07-11 17:27:14,52.2064140791053,0.0864288918050853,130.577432,130.2821564,54.089905274184,184.37206167418,83.66142,0,66.715553316,71.330054776,28,5,16.765,195.52691767418,141.732288,17.0678522,66.8553171,0,0,1.342164,279.3, -2.3, -7.7,0,0,1024,1684,1024,1024,0,100,0,0,268.3,-89.9,0,95,4.145,4.151,4.159,4.157,0,0,5.659,75.92,184.37206167418,130.577432,6,P-GPS,
19400,2023-07-11 17:27:14,52.2064140516634,0.0864287937247725,130.577432,130.2821564,54.089905274184,184.37206167418,83.66142,0,66.73556644,71.354004908,28,5,16.765,195.52691767418,141.732288,17.0678522,66.8553171,0,0,0.223694,279.2, 0.1, -2.1,0,0,1024,1684,1024,1024,0,100,0,0,268.3,-90,0,95,4.145,4.151,4.159,4.157,0,0,5.659,75.92,184.37206167418,130.577432,6,P-GPS,
19600,2023-07-11 17:27:14,52.2064144956779,0.0864290438183866,130.577432,130.2821564,54.089905274184,184.37206167418,83.66142,1.1408394,66.707351216,71.52559284,28,5,16.54,195.52691767418,141.732288,17.0678522,66.8553171,1.11847,0.223694,0,277.9, -1, 19.2,0,0,1024,1090,1024,1024,0,10,0,0,268.3,-90,0,95,4.129,4.131,4.152,4.16,0,0,7.909,75.74,184.37206167418,130.577432,6,P-GPS,
19800,2023-07-11 17:27:15,52.2064163375708,0.0864297795325692,130.577432,130.249348,54.122713674184,184.37206167418,83.66142,2.9751302,66.662075624,72.217193912,28,5,16.54,195.52691767418,141.732288,17.0678522,66.8553171,2.908022,0.671082,0,278.4, -1.6, 14.9,0,0,1024,1024,1024,1024,0,0,0,0,268.3,-89.9,0,95,4.129,4.131,4.152,4.16,0,0,7.909,75.74,184.37206167418,130.577432,6,P-GPS,
20000,2023-07-11 17:27:15,52.2064193130761,0.0864308205874293,130.577432,130.2165396,54.155522074184,184.37206167418,83.66142,3.6462122,66.635828904,73.327758252,28,5,16.54,195.52691767418,141.732288,17.0678522,66.8553171,3.579104,0.671082,0.223694,280, -0.8, -17.4,0,0,1024,1024,1024,1465,0,0,0,67,268.3,-89.9,0,95,4.129,4.131,4.152,4.16,0,0,7.909,75.74,184.37206167418,130.577432,6,P-GPS,
20200,2023-07-11 17:27:15,52.2064218130728,0.0864318811017813,130.249348,129.8556472,54.188330474184,184.04397767418,83.66142,2.125093,66.587600556,74.2700155,28,5,16.54,195.52691767418,141.732288,17.0678522,66.8553171,2.013246,0.671082,0.223694,279.5, -2.7, -27.3,0,0,1024,1024,1024,1024,0,0,0,0,269,-90,0,95,4.129,4.131,4.152,4.16,0,0,7.909,75.74,184.04397767418,130.249348,6,P-GPS,
20400,2023-07-11 17:27:15,52.2064229673895,0.0864327507118072,130.249348,129.8556472,54.188330474184,184.04397767418,83.66142,0.6263432,66.486878768,74.733926276,28,5,16.54,195.52691767418,141.732288,17.0678522,66.8553171,0.447388,0.447388,0,281.1, -4.6, -18.9,0,0,1024,1024,1024,1024,0,0,0,0,272.8,-89.9,0,95,4.129,4.131,4.152,4.16,0,0,7.909,75.74,184.04397767418,130.249348,6,P-GPS,
20600,2023-07-11 17:27:15,52.2064232730677,0.0864333093334294,130.577432,130.1837312,54.188330474184,184.37206167418,83.66142,0,66.389109736,74.901249116,28,5,16.471,195.52691767418,141.732288,17.0678522,66.8553171,0,0,0,284.3, -5.5, -11.5,0,0,1024,1024,1024,1024,0,0,0,0,273,-90,0,95,4.144,4.15,4.157,4.155,0,0,6.758,75.92,184.37206167418,130.577432,6,P-GPS,
20800,2023-07-11 17:27:16,52.2064233674665,0.0864335892313804,130.577432,130.1837312,54.188330474184,184.37206167418,83.66142,0,66.335632044,74.972771428,28,5,16.471,195.52691767418,141.732288,17.0678522,66.8553171,0,0,0,283.7, -3.9, -9.3,0,0,1024,1024,1024,1024,0,0,0,0,273,-90,0,95,4.144,4.15,4.157,4.155,0,0,6.758,75.92,184.37206167418,130.577432,6,P-GPS,
21000,2023-07-11 17:27:16,52.2064234443074,0.0864337272092435,130.577432,130.1837312,54.188330474184,184.37206167418,83.66142,0,66.311681912,75.014438096,28,5,16.471,195.52691767418,141.732288,17.0678522,66.8553171,0,0,0,283.6, -2.8, -9,0,0,625,1024,1024,1024,-60,0,0,0,273,-90,0,95,4.144,4.15,4.157,4.155,0,0,6.758,75.92,184.37206167418,130.577432,6,P-GPS,
21200,2023-07-11 17:27:16,52.2064235251427,0.0864338885049462,130.577432,130.1509228,54.221138874184,184.37206167418,83.66142,0,66.28281052,75.061026024,28,5,16.471,195.52691767418,141.732288,17.0678522,66.8553171,0,0,0,283.8, -1.1, -4.4,0,0,399,1024,1024,1024,-95,0,0,0,273,-89.9,0,95,4.144,4.15,4.157,4.155,0,0,6.758,75.92,184.37206167418,130.577432,6,P-GPS,
21400,2023-07-11 17:27:16,52.206423742391,0.0864343433985294,130.577432,130.1509228,54.221138874184,184.37206167418,83.66142,0.4921268,66.201117604,75.189963036,28,5,16.471,195.52691767418,141.732288,17.0678522,66.8553171,0.223694,0.447388,0,283.4, 13.1, -3.5,0,0,381,1024,1024,1024,-97,0,0,0,273.1,-90,0,95,4.144,4.15,4.157,4.155,0,0,6.758,75.92,184.37206167418,130.577432,6,P-GPS,
21600,2023-07-11 17:27:16,52.2064240518472,0.0864361743242328,130.577432,130.1509228,54.221138874184,184.37206167418,83.66142,1.8119214,65.827101844,75.614831816,27,5,16.619,195.52691767418,141.732288,17.0678522,66.8553171,0.223694,1.789552,0,282.3, 20.5, -6.1,0,0,573,1024,1024,1024,-68,0,0,0,273.1,-90,0,95,4.159,4.165,4.163,4.162,0,0,7.743,75.74,184.37206167418,130.577432,6,P-GPS,
21800,2023-07-11 17:27:16,52.2064241700899,0.0864401993356122,130.577432,130.1509228,54.221138874184,184.37206167418,83.66142,3.802798,64.959975832,76.51575048,27,5,16.619,195.52691767418,141.732288,17.0678522,66.8553171,0,3.802798,0,281.9, 21.3, -7.9,0,0,1024,1024,1024,1024,0,0,0,0,273,-89.9,0,95,4.159,4.165,4.163,4.162,0,0,7.743,75.74,184.37206167418,130.577432,6,P-GPS,
22000,2023-07-11 17:27:17,52.2064239808532,0.0864464206414317,130.577432,130.1509228,54.221138874184,184.37206167418,83.66142,5.144962,63.590225132,77.90846706,27,5,16.619,195.52691767418,141.732288,17.0678522,66.8553171,-0.223694,5.144962,0,282.2, 2.8, -7.5,0,0,1024,1024,1024,1024,0,0,0,0,273,-90,0,95,4.159,4.165,4.163,4.162,0,0,7.743,75.74,184.37206167418,130.577432,6,P-GPS,
22200,2023-07-11 17:27:17,52.2064237311684,0.0864530775211377,130.905516,130.4790068,54.221138874184,184.70014567418,83.66142,4.47388,62.121393064,79.39960884,27,5,16.619,195.52691767418,141.732288,17.0678522,66.8553171,0,4.47388,0,286.1, -25.8, -9.8,0,0,1024,1189,1024,1024,0,25,0,0,273.1,-89.9,0,95,4.159,4.165,4.163,4.162,0,0,7.743,75.74,184.70014567418,130.905516,6,P-GPS,
22400,2023-07-11 17:27:17,52.2064237395961,0.0864574521882732,130.905516,130.4790068,54.221138874184,184.70014567418,83.66142,2.23694,61.171917968,80.377627244,27,5,16.619,195.52691767418,141.732288,17.0678522,66.8553171,0,2.23694,0,285.6, -19.6, -7.2,0,0,1024,1684,1024,1024,0,100,0,0,273.1,-90,0,95,4.159,4.165,4.163,4.162,0,0,7.743,75.74,184.70014567418,130.905516,6,P-GPS,
22600,2023-07-11 17:27:17,52.2064241119934,0.0864597376720514,130.905516,130.4790068,54.221138874184,184.70014567418,83.66142,1.4316416,60.70866336,80.906498652,27,5,16.663,195.52691767418,141.732288,17.0678522,66.8553171,0.894776,1.11847,0,282, -8.8, 13.4,0,0,1015,1684,1024,1024,-1,100,0,0,273,-89.9,0,94,4.133,4.148,4.159,4.155,0,0,7.376,75.92,184.70014567418,130.905516,6,P-GPS,
22800,2023-07-11 17:27:18,52.2064256674707,0.086461507451334,130.905516,130.4790068,54.221138874184,184.70014567418,83.66142,2.908022,60.4658812,81.598427808,28,5,16.663,195.52691767418,141.732288,17.0678522,66.8553171,2.684328,1.11847,0,282.7, -5.1, 22.9,0,0,935,1684,1024,1024,-13,100,0,0,273.1,-90,0,94,4.133,4.148,4.159,4.155,0,0,7.376,75.92,184.70014567418,130.905516,6,P-GPS,
23000,2023-07-11 17:27:18,52.2064289363672,0.0864634804648794,130.577432,130.1181144,54.253947274184,184.37206167418,83.66142,5.368656,60.35433264,82.869753308,28,5,16.663,195.52691767418,141.732288,17.0678522,66.8553171,5.144962,1.565858,0,283.2, -3.3, 23.9,0,0,929,1684,1024,1024,-14,100,0,0,273.1,-90,0,94,4.133,4.148,4.159,4.155,0,0,7.376,75.92,184.37206167418,130.577432,6,P-GPS,
23200,2023-07-11 17:27:18,52.206433990737,0.086465934066366,130.577432,130.0524976,54.319564074184,184.37206167418,83.66142,7.4266408,60.361222404,84.793965968,28,5,16.663,195.52691767418,141.732288,17.0678522,66.8553171,7.158208,2.013246,0,283.7, -2, 21.8,0,0,897,1684,1024,1024,-19,100,0,0,273.1,-90,0,94,4.133,4.148,4.159,4.155,0,0,7.376,75.92,184.37206167418,130.577432,6,P-GPS,
23400,2023-07-11 17:27:18,52.2064407175117,0.0864689869978374,130.577432,129.9540724,54.417989274184,184.37206167418,83.66142,9.4846256,60.51017254,87.341210144,28,5,16.663,195.52691767418,141.732288,17.0678522,66.8553171,9.171454,2.460634,0,283.6, -1.4, 19.7,0,0,840,1684,1024,1024,-28,100,0,0,273.1,-89.9,0,94,4.133,4.148,4.159,4.155,0,0,7.376,75.92,184.37206167418,130.577432,6,P-GPS,
23600,2023-07-11 17:27:18,52.2064489253816,0.0864727075073105,130.249348,129.5275632,54.516414474184,184.04397767418,83.66142,11.3412858,60.836944204,90.449149876,28,5,16.582,195.52691767418,141.732288,17.0678522,66.8553171,10.961006,2.908022,0,283.3, -1.1, 19.7,0,0,556,1097,1024,1024,-71,11,0,0,273.1,-90,0,94,4.148,4.151,4.151,4.15,0,0,7.576,75.92,184.04397767418,130.249348,6,P-GPS,
23800,2023-07-11 17:27:19,52.2064584319142,0.0864771456694261,130.249348,129.429138,54.614839674184,184.04397767418,83.66142,12.8176662,61.384188316,94.05676154,28,5,16.582,195.52691767418,141.732288,17.0678522,66.8553171,12.30317,3.579104,0,284, 3, 9.4,0,0,542,1024,1024,1024,-73,0,0,0,273,-90,0,94,4.148,4.151,4.151,4.15,0,0,7.576,75.92,184.04397767418,130.249348,6,P-GPS,
24000,2023-07-11 17:27:19,52.2064685714732,0.086482489900156,130.249348,129.2979044,54.746073274184,184.04397767418,83.66142,13.0189908,62.075461304,97.94455694,28,5,16.582,195.52691767418,141.732288,17.0678522,66.8553171,12.30317,4.250186,0,283.1, 11.4, -7.1,0,0,1024,1024,1024,1024,0,0,0,0,273,-90,0,94,4.148,4.151,4.151,4.15,0,0,7.576,75.92,184.04397767418,130.249348,6,P-GPS,
24200,2023-07-11 17:27:19,52.2064782538245,0.0864890254655868,129.921264,128.8713952,54.844498474184,183.71589367418,83.66142,12.6163416,62.685041376,101.767391708,28,5,16.582,195.52691767418,141.732288,17.0678522,66.8553171,11.408394,5.368656,0,282.8, 9.4, -10.5,0,0,1024,1024,1024,1024,0,0,0,0,273,-89.9,0,94,4.148,4.151,4.151,4.15,0,0,7.576,75.92,183.71589367418,129.921264,6,P-GPS,
24400,2023-07-11 17:27:19,52.2064871668414,0.0864963897649267,129.921264,128.77297,54.942923674184,183.71589367418,83.66142,11.8110432,63.203086012,105.412404948,28,5,16.582,195.52691767418,141.732288,17.0678522,66.8553171,10.513618,5.368656,0,285.9, -12.2, -24.3,0,0,1024,1024,1024,1024,0,0,0,0,273.1,-90,0,94,4.148,4.151,4.151,4.15,0,0,7.576,75.92,183.71589367418,129.921264,6,P-GPS,
24600,2023-07-11 17:27:19,52.2064949209519,0.0865026381910152,129.921264,128.6745448,55.041348874184,183.71589367418,83.66142,9.618842,63.847114904,108.567588776,27,5,16.617,195.52691767418,141.732288,17.0678522,66.8553171,8.724066,4.026492,0,286.8, -11.4, -27,0,0,1024,1024,1024,1024,0,0,0,0,273,-90,0,94,4.146,4.153,4.152,4.112,0,0,7.766,75.92,183.71589367418,129.921264,6,P-GPS,
24800,2023-07-11 17:27:20,52.2065011593183,0.086507219223826,129.921264,128.608928,55.106965674184,183.71589367418,83.66142,7.4266408,64.547574244,111.063651848,28,5,16.617,195.52691767418,141.732288,17.0678522,66.8553171,6.934514,2.684328,0,286.3, -10.3, -27.9,0,0,1024,1024,1024,1024,0,0,0,0,273,-90,0,94,4.146,4.153,4.152,4.112,0,0,7.766,75.92,183.71589367418,129.921264,6,P-GPS,
25000,2023-07-11 17:27:20,52.2065058723544,0.0865102660881857,129.921264,128.5433112,55.172582474184,183.71589367418,83.66142,5.368656,65.202757992,112.913061356,28,5,16.617,195.52691767418,141.732288,17.0678522,66.8553171,5.144962,1.565858,0,285.8, -7.5, -28.9,0,0,1024,1024,1024,1024,0,0,0,0,273.1,-90,0,94,4.146,4.153,4.152,4.112,0,0,7.766,75.92,183.71589367418,129.921264,6,P-GPS,
25200,2023-07-11 17:27:20,52.2065090391397,0.0865120628339625,129.921264,128.5105028,55.205390874184,183.71589367418,83.66142,3.2659324,65.70866352,114.136486592,28,5,16.617,195.52691767418,141.732288,17.0678522,66.8553171,3.131716,0.894776,0,285.3, -5.7, -28.2,0,0,1024,1024,1024,1024,0,0,0,0,273,-90,0,94,4.146,4.153,4.152,4.112,0,0,7.766,75.92,183.71589367418,129.921264,6,P-GPS,
25400,2023-07-11 17:27:20,52.2065107686881,0.0865129664421811,130.249348,128.8057784,55.238199274184,184.04397767418,83.66142,1.5882274,66.005251456,114.798888188,28,5,16.617,195.52691767418,141.732288,17.0678522,66.8553171,1.565858,0.223694,0,284.7, -5.2, -20.6,0,0,1024,1024,1024,1024,0,0,0,0,273,-90,0,94,4.146,4.153,4.152,4.112,0,0,7.766,75.92,184.04397767418,130.249348,6,P-GPS,
25600,2023-07-11 17:27:20,52.2065116019319,0.0865133584698626,130.249348,128.8057784,55.238199274184,184.04397767418,83.66142,0.894776,66.156826264,115.115489248,28,5,16.611,195.52691767418,141.732288,17.0678522,66.8553171,0.894776,0,0,284.3, -4.8, -14.4,0,0,1024,1024,1024,1024,0,0,0,0,273.1,-89.9,0,94,4.115,4.125,4.127,4.124,0,0,7.655,76.1,184.04397767418,130.249348,6,P-GPS,
25800,2023-07-11 17:27:21,52.2065120015527,0.0865134900590851,130.249348,128.8057784,55.238199274184,184.04397767418,83.66142,0.447388,66.238847264,115.2641113,28,5,16.611,195.52691767418,141.732288,17.0678522,66.8553171,0.447388,0,0,284.1, -4.1, -11.1,0,0,1024,1024,1024,1024,0,0,0,0,273.1,-90,0,94,4.115,4.125,4.127,4.124,0,0,7.655,76.1,184.04397767418,130.249348,6,P-GPS,
26000,2023-07-11 17:27:21,52.2065121991657,0.0865134977757802,130.577432,129.1338624,55.238199274184,184.37206167418,83.66142,0.447388,66.288716032,115.33628978,28,5,16.611,195.52691767418,141.732288,17.0678522,66.8553171,0.447388,0,0,284.2, -4.4, -10,0,0,1024,1024,1024,1024,0,0,0,0,273,-90,0,94,4.115,4.125,4.127,4.124,0,0,7.655,76.1,184.37206167418,130.577432,6,P-GPS,
26200,2023-07-11 17:27:21,52.2065123238999,0.0865134491829684,130.577432,129.1338624,55.238199274184,184.37206167418,83.66142,0.223694,66.328414196,115.382877708,28,5,16.611,195.52691767418,141.732288,17.0678522,66.8553171,0.223694,0,0,284, -3.9, -9.8,0,0,1024,1024,1024,1024,0,0,0,0,273.1,-90,0,94,4.115,4.125,4.127,4.124,0,0,7.655,76.1,184.37206167418,130.577432,6,P-GPS,
26400,2023-07-11 17:27:21,52.2065123681395,0.0865133492014408,130.577432,129.1338624,55.238199274184,184.37206167418,83.66142,0.223694,66.355645168,115.410436764,28,5,16.611,195.52691767418,141.732288,17.0678522,66.8553171,0.223694,0,0,284.1, -4.2, -9.6,0,0,1024,1024,1024,1024,0,0,0,0,273,-90,0,94,4.115,4.125,4.127,4.124,0,0,7.655,76.1,184.37206167418,130.577432,6,P-GPS,
26600,2023-07-11 17:27:21,52.2065123700156,0.0865132352124341,130.577432,129.1338624,55.238199274184,184.37206167418,83.66142,0,66.374345956,115.436027316,28,5,16.466,195.52691767418,141.732288,17.0678522,66.8553171,0,0,0,284.1, -3.8, -9.7,0,0,1024,1024,1024,1024,0,0,0,0,273.1,-89.9,0,94,4.15,4.157,4.156,4.153,0,0,9.903,76.1,184.37206167418,130.577432,6,P-GPS,
26800,2023-07-11 17:27:22,52.2065123167208,0.0865131576680363,130.577432,129.1338624,55.238199274184,184.37206167418,83.66142,0,66.372705536,115.462274036,28,5,16.466,195.52691767418,141.732288,17.0678522,66.8553171,0,0,0,284.1, -4.2, -9.3,0,0,1024,1024,1024,1024,0,0,0,0,273,-89.9,0,94,4.15,4.157,4.156,4.153,0,0,9.903,76.1,184.37206167418,130.577432,6,P-GPS,
27000,2023-07-11 17:27:22,52.2065122487938,0.0865130695970598,130.577432,129.1338624,55.238199274184,184.37206167418,83.66142,0,66.369096612,115.4937701,28,5,16.466,195.52691767418,141.732288,17.0678522,66.8553171,0,0,0,284.1, -4.3, -8.9,0,0,1024,1024,1024,1024,0,0,0,0,273.1,-90,0,94,4.15,4.157,4.156,4.153,0,0,9.903,76.1,184.37206167418,130.577432,6,P-GPS,
27200,2023-07-11 17:27:22,52.2065121645639,0.0865129337440837,130.577432,129.1338624,55.238199274184,184.37206167418,83.66142,0,66.369096612,115.537077188,28,5,16.466,195.52691767418,141.732288,17.0678522,66.8553171,0,0,0,284, -4.3, -7.9,0,0,1024,1024,1024,1024,0,0,0,0,273,-90,0,94,4.15,4.157,4.156,4.153,0,0,9.903,76.1,184.37206167418,130.577432,6,P-GPS,
27400,2023-07-11 17:27:22,52.2065120733263,0.0865127706310435,130.577432,129.1338624,55.238199274184,184.37206167418,83.66142,0,66.3713932,115.586289788,28,5,16.466,195.52691767418,141.732288,17.0678522,66.8553171,0,0,0,284.1, -4.3, -7.9,0,0,1024,1024,1024,1024,0,0,0,0,273,-90,0,94,4.15,4.157,4.156,4.153,0,0,9.903,76.1,184.37206167418,130.577432,6,P-GPS,
27600,2023-07-11 17:27:22,52.2065120421427,0.0865126246708743,130.577432,129.1338624,55.238199274184,184.37206167418,83.66142,0,66.386485064,115.621066692,28,5,16.61,195.52691767418,141.732288,17.0678522,66.8553171,0,0,0,283.9, -3.6, -8.5,0,0,1024,1024,1024,1024,0,0,0,0,273,-90,0,94,4.152,4.161,4.16,4.155,0,0,7.658,76.1,184.37206167418,130.577432,6,P-GPS,
27800,2023-07-11 17:27:23,52.2065119968323,0.0865125004628385,130.577432,129.1338624,55.238199274184,184.37206167418,83.66142,0,66.39435908,115.653218924,28,5,16.61,195.52691767418,141.732288,17.0678522,66.8553171,0,0,0,284, -3.9, -8.3,0,0,1024,1024,1024,1024,0,0,0,0,273.1,-89.9,0,94,4.152,4.161,4.16,4.155,0,0,7.658,76.1,184.37206167418,130.577432,6,P-GPS,
28000,2023-07-11 17:27:23,52.2065119620078,0.0865124011802869,130.577432,129.1338624,55.238199274184,184.37206167418,83.66142,0,66.401248844,115.678809476,28,5,16.61,195.52691767418,141.732288,17.0678522,66.8553171,0,0,0,284, -4.1, -8.4,0,0,1024,1024,1024,1024,0,0,0,0,273,-90,0,94,4.152,4.161,4.16,4.155,0,0,7.658,76.1,184.37206167418,130.577432,6,P-GPS,
28200,2023-07-11 17:27:23,52.206511913579,0.0865123269909738,130.577432,129.1338624,55.238199274184,184.37206167418,83.66142,0,66.400592676,115.703087692,28,5,16.61,195.52691767418,141.732288,17.0678522,66.8553171,0,0,0,284, -4.3, -8.3,0,0,1024,1024,1024,1024,0,0,0,0,273,-90,0,94,4.152,4.161,4.16,4.155,0,0,7.658,76.1,184.37206167418,130.577432,6,P-GPS,
28400,2023-07-11 17:27:23,52.2065118528396,0.0865122623356935,130.577432,129.1338624,55.238199274184,184.37206167418,83.66142,0,66.395343332,115.729662496,28,5,16.61,195.52691767418,141.732288,17.0678522,66.8553171,0,0,0,284, -4.1, -8.2,0,0,1024,1024,1024,1024,0,0,0,0,273,-90,0,94,4.152,4.161,4.16,4.155,0,0,7.658,76.1,184.37206167418,130.577432,6,P-GPS,
28600,2023-07-11 17:27:23,52.2065118133633,0.08651219165524,130.577432,129.1338624,55.238199274184,184.37206167418,83.66142,0,66.396327584,115.750987956,28,5,16.611,195.52691767418,141.732288,17.0678522,66.8553171,0,0,0,284, -4.2, -8,0,0,1024,1024,1024,1024,0,0,0,0,273,-89.9,0,94,4.149,4.159,4.157,4.154,0,0,7.159,76.46,184.37206167418,130.577432,6,P-GPS,
28800,2023-07-11 17:27:24,52.2065117725077,0.0865121057930277,130.905516,129.4619464,55.238199274184,184.70014567418,83.66142,0,66.399608424,115.775266172,28,5,16.611,195.52691767418,141.732288,17.0678522,66.8553171,0,0,0,284, -4, -7.5,0,0,1024,1024,1024,1024,0,0,0,0,273,-89.9,0,94,4.149,4.159,4.157,4.154,0,0,7.159,76.46,184.70014567418,130.905516,6,P-GPS,
29000,2023-07-11 17:27:24,52.2065117442197,0.086512029758418,130.905516,129.4619464,55.238199274184,184.70014567418,83.66142,0,66.4042016,115.794951212,28,5,16.611,195.52691767418,141.732288,17.0678522,66.8553171,0,0,0,284, -4, -7.5,0,0,1024,1024,1024,1024,0,0,0,0,273,-90,0,94,4.149,4.159,4.157,4.154,0,0,7.159,76.46,184.70014567418,130.905516,6,P-GPS,
29200,2023-07-11 17:27:24,52.2065117408701,0.0865119806483639,130.905516,129.4619464,55.238199274184,184.70014567418,83.66142,0,66.411419448,115.806106068,28,5,16.611,195.52691767418,141.732288,17.0678522,66.8553171,0,0,0,284.1, -4, -7.8,0,0,1024,1024,1024,1024,0,0,0,0,273,-90,0,94,4.149,4.159,4.157,4.154,0,0,7.159,76.46,184.70014567418,130.905516,6,P-GPS,
29400,2023-07-11 17:27:24,52.20651177626,0.0865119108346407,130.905516,129.4619464,55.238199274184,184.70014567418,83.66142,0,66.431432572,115.826447276,28,5,16.611,195.52691767418,141.732288,17.0678522,66.8553171,0,0,0,283.9, -3.7, -7.8,0,0,1024,1024,1024,1024,0,0,0,0,273,-90,0,94,4.149,4.159,4.157,4.154,0,0,7.159,76.46,184.70014567418,130.905516,6,P-GPS,
29600,2023-07-11 17:27:24,52.2065117715996,0.0865118222604015,130.905516,129.4619464,55.238199274184,184.70014567418,83.66142,0,66.444227848,115.846132316,28,5,16.622,195.52691767418,141.732288,17.0678522,66.8553171,0,0,0,283.9, -3.4, -7.5,0,0,1024,1024,1024,1024,0,0,0,0,273,-90,0,94,4.151,4.156,4.154,4.149,0,0,6.972,76.46,184.70014567418,130.905516,6,P-GPS,
29800,2023-07-11 17:27:25,52.2065117659968,0.0865117340496298,130.905516,129.4619464,55.238199274184,184.70014567418,83.66142,0,66.457023124,115.86614544,28,5,16.622,195.52691767418,141.732288,17.0678522,66.8553171,0,0,0,283.8, -3.4, -7.8,0,0,1024,1024,1024,1024,0,0,0,0,273,-90,0,94,4.151,4.156,4.154,4.149,0,0,6.972,76.46,184.70014567418,130.905516,6,P-GPS,
30000,2023-07-11 17:27:25,52.2065117613364,0.086511631132403,130.905516,129.4619464,55.238199274184,184.70014567418,83.66142,0,66.472114988,115.88911132,28,5,16.622,195.52691767418,141.732288,17.0678522,66.8553171,0,0,0,283.9, -3.1, -7.7,0,1,1024,1024,1024,1024,0,0,0,0,273,-90,0,94,4.151,4.156,4.154,4.149,0,0,6.972,76.46,184.70014567418,130.905516,6,P-GPS,
30200,2023-07-11 17:27:25,52.2065117059256,0.0865115036252004,130.905516,129.4619464,55.238199274184,184.70014567418,83.66142,0,66.4780205,115.924216308,28,5,16.622,195.52691767418,141.732288,17.0678522,66.8553171,0,0,0,283.9, -2.5, -7.2,0,1,1024,1024,1024,1024,0,0,0,0,273,-89.9,0,94,4.151,4.156,4.154,4.149,0,0,6.972,76.46,184.70014567418,130.905516,6,P-GPS,
30400,2023-07-11 17:27:25,52.2065116484759,0.0865114511041435,130.905516,129.4619464,55.238199274184,184.70014567418,83.66142,0,66.471786904,115.94816644,28,5,16.622,195.52691767418,141.732288,17.0678522,66.8553171,0,0,0,283.8, -2.8, -6.8,0,1,1024,1024,1024,1024,0,0,0,0,273,-89.9,0,94,4.151,4.156,4.154,4.149,0,0,6.972,76.46,184.70014567418,130.905516,6,P-GPS,
30600,2023-07-11 17:27:25,52.2065116105073,0.0865114684527279,130.905516,129.4619464,55.238199274184,184.70014567418,83.66142,0,66.459319712,115.962602136,28,5,16.611,195.52691767418,141.732288,17.0678522,66.8553171,0,0,0,284, -3, -6.8,0,1,1024,1024,1024,1024,0,0,0,0,273,-89.9,0,94,4.155,4.16,4.159,4.16,0,0,7.173,76.46,184.70014567418,130.905516,6,P-GPS,
30800,2023-07-11 17:27:26,52.2065116128632,0.0865115104052676,130.905516,129.4619464,55.238199274184,184.70014567418,83.66142,0,66.453086116,115.971788488,28,5,16.611,195.52691767418,141.732288,17.0678522,66.8553171,0,0,0,284, -3.3, -7.2,0,1,1024,1024,1024,1024,0,0,0,0,273,-90,0,94,4.155,4.16,4.159,4.16,0,0,7.173,76.46,184.70014567418,130.905516,6,P-GPS,
31000,2023-07-11 17:27:26,52.2065116048018,0.086511506113555,130.905516,129.4619464,55.238199274184,184.70014567418,83.66142,0,66.45177378,115.975069328,28,5,16.611,195.52691767418,141.732288,17.0678522,66.8553171,0,0,0,283.8, -2.6, -7.3,0,1,1024,1024,1024,1024,0,0,0,0,273,-90,0,94,4.155,4.16,4.159,4.16,0,0,7.173,76.46,184.70014567418,130.905516,6,P-GPS,
31200,2023-07-11 17:27:26,52.2065115751517,0.0865115216168427,130.905516,129.4619464,55.238199274184,184.70014567418,83.66142,0,66.44193126,115.986552268,28,5,16.611,195.52691767418,141.732288,17.0678522,66.8553171,0,0,0,284, -3.2, -6.8,0,1,1024,1024,1024,1024,0,0,0,0,273,-90,0,94,4.155,4.16,4.159,4.16,0,0,7.173,76.46,184.70014567418,130.905516,6,P-GPS,
31400,2023-07-11 17:27:26,52.2065115538972,0.0865115636812186,130.905516,129.4619464,55.238199274184,184.70014567418,83.66142,0,66.429792152,115.998691376,28,5,16.611,195.52691767418,141.732288,17.0678522,66.8553171,0,0,0,284, -3.5, -6.7,0,1,1024,1024,1024,1024,0,0,0,0,273,-90,0,94,4.155,4.16,4.159,4.16,0,0,7.173,76.46,184.70014567418,130.905516,6,P-GPS,
31600,2023-07-11 17:27:26,52.2065115830846,0.0865115929822927,130.905516,129.4619464,55.238199274184,184.70014567418,83.66142,0,66.432416824,116.011158568,28,5,16.635,195.52691767418,141.732288,17.0678522,66.8553171,0,0,0,283.9, -3.2, -7.1,0,1,1024,1024,1024,1024,0,0,0,0,273,-89.9,0,94,4.156,4.164,4.162,4.154,0,0,6.863,76.46,184.70014567418,130.905516,6,P-GPS,
31800,2023-07-11 17:27:27,52.206511603234,0.0865116764819661,130.905516,129.4619464,55.238199274184,184.70014567418,83.66142,0,66.424214724,116.031171692,28,5,16.635,195.52691767418,141.732288,17.0678522,66.8553171,0,0,0,284, -3.5, -7.1,0,1,1021,1024,1024,1024,-0,0,0,0,273.1,-90,0,94,4.156,4.164,4.162,4.154,0,0,6.863,76.46,184.70014567418,130.905516,6,P-GPS,
