time(millisecond),datetime(utc),latitude,longitude,height_above_takeoff(feet),height_above_ground_at_drone_location(feet),ground_elevation_at_drone_location(feet),altitude_above_seaLevel(feet),height_sonar(feet),speed(mph),distance(feet),mileage(feet),satellites,gpslevel,voltage(v),max_altitude(feet),max_ascent(feet),max_speed(mph),max_distance(feet), xSpeed(mph), ySpeed(mph), zSpeed(mph), compass_heading(degrees), pitch(degrees), roll(degrees),isPhoto,isVideo,rc_elevator,rc_aileron,rc_throttle,rc_rudder,rc_elevator(percent),rc_aileron(percent),rc_throttle(percent),rc_rudder(percent),gimbal_heading(degrees),gimbal_pitch(degrees),gimbal_roll(degrees),battery_percent,voltageCell1,voltageCell2,voltageCell3,voltageCell4,voltageCell5,voltageCell6,current(A),battery_temperature(f),altitude(feet),ascent(feet),flycStateRaw,flycState,message
100,2023-06-01 18:39:55,0,0,0,,,53.688311429312,0.328084,0,0,0,18,2,0,53.688311429312,0,0,0,0,0,0,292.7, 4.6, 0.4,0,0,1024,1024,1024,1024,0,0,0,0,292.8,0,0,100,4.304,4.301,4.301,4.296,0,0,0,74.66,53.688311429312,0,41,Motors_Started,"No GPS signal. Aircraft unable to hover. Fly with caution (Code: 30008). GPS signal weak. Hovering unstable. Fly with caution (Code: 30002)"
300,2023-06-01 18:39:55,0,0,0,,,53.688311429312,0.328084,0,0,0,18,2,0,53.688311429312,0,0,0,0,0,0,292.7, 4.6, 0.4,0,0,1024,1024,1024,1024,0,0,0,0,292.8,0,0,100,4.304,4.301,4.301,4.296,0,0,0,74.66,53.688311429312,0,41,Motors_Started,"Setting new Return-To-Home altitude to 26m (85 ft). Data Recorder File Index is 28. Setting new Maximum Flight Altitude to 30m (98 ft)"
500,2023-06-01 18:39:56,0,0,0,,,53.688311429312,0,0,0,0,18,2,0,53.688311429312,0,0,0,0,0,0,292.7, 4.6, 0.4,0,0,1024,1024,1024,1024,0,0,0,0,292.8,0,0,100,4.304,4.301,4.301,4.296,0,0,0,74.66,53.688311429312,0,41,Motors_Started,
700,2023-06-01 18:39:56,0,0,0,,,53.688311429312,0,0,0,0,18,2,0,53.688311429312,0,0,0,0,0,0,292.7, 4.6, 0.4,0,0,1024,1024,1024,1024,0,0,0,0,292.8,0,0,100,4.304,4.301,4.301,4.296,0,0,0,74.66,53.688311429312,0,41,Motors_Started,
900,2023-06-01 18:39:56,0,0,0,,,53.688311429312,0,0,0,0,18,2,0,53.688311429312,0,0,0,0,0,0,292.7, 4.6, 0.4,0,0,1024,1024,1024,1024,0,0,0,0,292.8,0,0,100,4.304,4.301,4.301,4.296,0,0,0,74.66,53.688311429312,0,41,Motors_Started,
1100,2023-06-01 18:39:56,0,0,0,,,53.688311429312,0,0,0,0,19,2,0,53.688311429312,0,0,0,0,0,0,292.7, 4.6, 0.4,0,0,1024,1024,1024,1024,0,0,0,0,292.8,0,0,100,4.304,4.301,4.301,4.296,0,0,0,74.66,53.688311429312,0,41,Motors_Started,
1300,2023-06-01 18:39:56,0,0,0,,,53.688311429312,0,0,0,0,19,2,17.213,53.688311429312,0,0,0,0,0,0,292.7, 4.6, 0.4,0,0,1024,1024,1024,1024,0,0,0,0,292.8,0,0,100,4.304,4.301,4.301,4.296,0,0,3.348,74.66,53.688311429312,0,41,Motors_Started,
1500,2023-06-01 18:39:57,0,0,0,,,53.688311429312,0,0,0,0,19,2,17.213,53.688311429312,0,0,0,0,0,0,292.9, 4.6, 0.4,0,0,1024,1024,1024,1024,0,0,0,0,292.8,0,0,100,4.304,4.301,4.301,4.296,0,0,3.348,74.66,53.688311429312,0,41,Motors_Started,"GPS signal weak. Hovering unstable. Fly with caution (Code: 30002)"
1700,2023-06-01 18:39:57,0,0,0,,,53.688311429312,0,0,0,0,19,2,17.213,53.688311429312,0,0,0,0,0,0,293.1, 4.5, 0.5,0,0,1024,1024,1024,1024,0,0,0,0,292.8,0,0,100,4.304,4.301,4.301,4.296,0,0,3.348,74.66,53.688311429312,0,11,AutoTakeoff,
1900,2023-06-01 18:39:57,0,0,0,,,53.688311429312,0,0,0,0,19,2,17.213,53.688311429312,0,0,0,0,0,0,293, 3.2, 0.7,0,0,1024,1024,1024,1024,0,0,0,0,292.8,0,0,100,4.304,4.301,4.301,4.296,0,0,3.348,74.66,53.688311429312,0,11,AutoTakeoff,
2100,2023-06-01 18:39:57,0,0,0,,,53.688311429312,0,0,0,0,19,2,17.213,53.688311429312,0,0,0,0,0,-0.447388,293.2, -1.2, 0.9,0,0,1024,1024,1024,1024,0,0,0,0,292.8,0,0,100,4.304,4.301,4.301,4.296,0,0,3.348,74.66,53.688311429312,0,11,AutoTakeoff,
2300,2023-06-01 18:39:57,0,0,0.328084,,,54.016395429312,0.328084,0,0,0,19,2,17.304,54.016395429312,0.328084,0,0,0,0,-0.894776,293, 0, 1.2,0,0,1024,1024,1024,1024,0,0,0,0,292.8,0,0,100,4.307,4.303,4.298,4.291,0,0,3.389,74.66,54.016395429312,0.328084,11,AutoTakeoff,
2500,2023-06-01 18:39:58,0,0,0.656168,,,54.344479429312,0.328084,0,0,0,19,2,17.304,54.344479429312,0.656168,0,0,0,0,-1.11847,293.1, 0.4, 0.8,0,0,1024,1024,1024,1024,0,0,0,0,292.8,0,0,100,4.307,4.303,4.298,4.291,0,0,3.389,74.66,54.344479429312,0.656168,11,AutoTakeoff,
2700,2023-06-01 18:39:58,0,0,0.984252,,,54.672563429312,0.984252,0.223694,0,0,19,2,17.304,54.672563429312,0.984252,0.223694,0,-0.223694,0,-0.894776,293, 0.2, 1.6,0,0,1024,1024,1024,1024,0,0,0,0,292.8,0,0,100,4.307,4.303,4.298,4.291,0,0,3.389,74.66,54.672563429312,0.984252,11,AutoTakeoff,
2900,2023-06-01 18:39:58,0,0,1.312336,,,55.000647429312,1.312336,0.223694,0,0,19,2,17.304,55.000647429312,1.312336,0.223694,0,-0.223694,0,-0.894776,292.9, -0.2, 3.1,0,0,1024,1024,1024,1024,0,0,0,0,292.8,0,0,100,4.307,4.303,4.298,4.291,0,0,3.389,74.66,55.000647429312,1.312336,11,AutoTakeoff,
3100,2023-06-01 18:39:58,0,0,1.64042,,,55.328731429312,1.64042,0,0,0,20,2,17.304,55.328731429312,1.64042,0.223694,0,0,0,-0.894776,293, -1.1, 4.1,0,0,1024,1024,1024,1024,0,0,0,0,292.8,0,0,100,4.307,4.303,4.298,4.291,0,0,3.389,74.66,55.328731429312,1.64042,11,AutoTakeoff,
3300,2023-06-01 18:39:58,0,0,1.968504,,,55.656815429312,1.968504,0,0,0,21,2,17.059,55.656815429312,1.968504,0.223694,0,0,0,-1.11847,292.8, -1.1, 4.1,0,0,1024,1024,1024,1024,0,0,0,0,292.8,0,0,100,4.264,4.265,4.264,4.259,0,0,6.663,74.66,55.656815429312,1.968504,11,AutoTakeoff,
3500,2023-06-01 18:39:59,0,0,2.296588,,,55.984899429312,2.296588,0,0,0,21,2,17.059,55.984899429312,2.296588,0.223694,0,0,0,-0.894776,292.7, -0.7, 4.4,0,0,1024,1024,1024,1024,0,0,0,0,292.8,0,0,100,4.264,4.265,4.264,4.259,0,0,6.663,74.66,55.984899429312,2.296588,11,AutoTakeoff,
3700,2023-06-01 18:39:59,0,0,2.624672,,,56.312983429312,2.624672,0,0,0,21,2,17.059,56.312983429312,2.624672,0.223694,0,0,0,-1.11847,292.8, -0.8, 2.7,0,0,1024,1024,1066,1024,0,0,6,0,292.8,0,0,100,4.264,4.265,4.264,4.259,0,0,6.663,74.66,56.312983429312,2.624672,11,AutoTakeoff,
3900,2023-06-01 18:39:59,0,0,2.952756,,,56.641067429312,2.952756,0,0,0,21,2,17.059,56.641067429312,2.952756,0.223694,0,0,0,-1.11847,292.8, -0.5, 2.7,0,0,1024,1024,1549,1024,0,0,80,0,292.8,0,0,100,4.264,4.265,4.264,4.259,0,0,6.663,74.66,56.641067429312,2.952756,11,AutoTakeoff,
4100,2023-06-01 18:39:59,0,0,3.28084,,,56.969151429312,3.28084,0,0,0,21,2,17.059,56.969151429312,3.28084,0.223694,0,0,0,-1.565858,293.2, -0.4, 2.2,0,0,1024,1024,1629,1024,0,0,92,0,292.8,0,0,100,4.264,4.265,4.264,4.259,0,0,6.663,74.66,56.969151429312,3.28084,11,AutoTakeoff,
4300,2023-06-01 18:39:59,0,0,4.265092,,,57.953403429312,4.265092,0,0,0,21,2,17.033,57.953403429312,4.265092,0.223694,0,0,0,-3.579104,293.2, -0.2, 2.2,0,0,1024,1024,1644,1024,0,0,94,0,292.8,0,0,100,4.259,4.263,4.262,4.257,0,0,7.082,74.48,57.953403429312,4.265092,6,P-GPS,
4500,2023-06-01 18:40:00,0,0,5.577428,,,59.265739429312,5.577428,0,0,0,21,2,17.033,59.265739429312,5.577428,0.223694,0,0,0,-5.816044,293.4, -0.8, 2,0,0,1024,1024,1630,1024,0,0,92,0,292.8,0,0,100,4.259,4.263,4.262,4.257,0,0,7.082,74.48,59.265739429312,5.577428,6,P-GPS,
4700,2023-06-01 18:40:00,0,0,7.874016,,,61.562327429312,7.874016,0.223694,0,0,21,2,17.033,61.562327429312,7.874016,0.223694,0,0.223694,0,-8.052984,292.8, -0.4, 0.6,0,0,1024,1024,1535,1024,0,0,77,0,292.8,0,0,100,4.259,4.263,4.262,4.257,0,0,7.082,74.48,61.562327429312,7.874016,6,P-GPS,
4900,2023-06-01 18:40:00,0,0,11.48294,,,65.171251429312,10.498688,0,0,0,21,2,17.033,65.171251429312,11.48294,0.223694,0,0,0,-10.06623,293.2, -0.3, 0,0,0,1024,1024,1024,1024,0,0,0,0,292.8,0,0,100,4.259,4.263,4.262,4.257,0,0,7.082,74.48,65.171251429312,11.48294,6,P-GPS,
5100,2023-06-01 18:40:00,0,0,15.419948,,,69.108259429312,13.451444,0,0,0,21,2,17.033,69.108259429312,15.419948,0.223694,0,0,0,-8.94776,292.8, -0.8, 0.9,0,0,1024,1024,1024,1024,0,0,0,0,292.8,0,0,100,4.259,4.263,4.262,4.257,0,0,7.082,74.48,69.108259429312,15.419948,6,P-GPS,
5300,2023-06-01 18:40:00,0,0,18.372704,,,72.061015429312,15.748032,0,0,0,21,2,16.672,72.061015429312,18.372704,0.223694,0,0,0,-6.71082,292.7, -0.2, 2.1,0,0,1024,1024,1024,1024,0,0,0,0,292.8,0,0,100,4.156,4.172,4.183,4.193,0,0,11.699,74.48,72.061015429312,18.372704,6,P-GPS,
5500,2023-06-01 18:40:01,0,0,18.04462,,,71.732931429312,17.388452,0,0,0,20,2,16.672,72.061015429312,18.372704,0.223694,0,0,0,-4.47388,292.9, 1.4, 3.9,0,0,1024,1024,1024,1024,0,0,0,0,292.8,0,0,100,4.156,4.172,4.183,4.193,0,0,11.699,74.48,71.732931429312,18.04462,6,P-GPS,
5700,2023-06-01 18:40:01,0,0,19.356956,,,73.045267429312,18.372704,0,0,0,20,2,16.672,73.045267429312,19.356956,0.223694,0,0,0,-1.789552,293.1, 1.7, 3.8,0,0,1024,1024,1024,1024,0,0,0,0,292.8,0,0,100,4.156,4.172,4.183,4.193,0,0,11.699,74.48,73.045267429312,19.356956,6,P-GPS,
5900,2023-06-01 18:40:01,0,0,19.68504,,,73.373351429312,18.700788,0.223694,0,0,20,2,16.672,73.373351429312,19.68504,0.223694,0,-0.223694,0,-0.447388,292.9, 1.3, 5.2,0,0,1024,1024,1024,1024,0,0,0,0,292.8,0,0,100,4.156,4.172,4.183,4.193,0,0,11.699,74.48,73.373351429312,19.68504,6,P-GPS,
6100,2023-06-01 18:40:01,0,0,19.68504,,,73.373351429312,18.700788,0.223694,0,0,20,2,16.672,73.373351429312,19.68504,0.223694,0,-0.223694,0,0,292.5, -0.3, 6.4,0,0,1024,1024,1024,1024,0,0,0,0,292.8,0,0,100,4.156,4.172,4.183,4.193,0,0,11.699,74.48,73.373351429312,19.68504,6,P-GPS,
6300,2023-06-01 18:40:01,0,0,20.013124,,,73.701435429312,18.700788,0,0,0,20,2,17.185,73.701435429312,20.013124,0.223694,0,0,0,0,292.6, -1.5, 6.6,0,0,1071,1024,1024,1024,7,0,0,0,292.8,0,0,100,4.285,4.284,4.279,4.272,0,0,5.505,74.66,73.701435429312,20.013124,6,P-GPS,
6500,2023-06-01 18:40:02,0,0,20.013124,,,73.701435429312,18.700788,0,0,0,20,2,17.185,73.701435429312,20.013124,0.223694,0,0,0,0,292.6, -1.2, 3.7,0,0,1024,1024,1024,1024,0,0,0,0,292.8,0,0,100,4.285,4.284,4.279,4.272,0,0,5.505,74.66,73.701435429312,20.013124,6,P-GPS,
6700,2023-06-01 18:40:02,0,0,20.013124,,,73.701435429312,18.700788,0.223694,0,0,21,2,17.185,73.701435429312,20.013124,0.223694,0,-0.223694,0,0,292.7, -0.4, 4.9,0,0,1024,1024,1024,1024,0,0,0,0,292.8,0,0,100,4.285,4.284,4.279,4.272,0,0,5.505,74.66,73.701435429312,20.013124,6,P-GPS,
6900,2023-06-01 18:40:02,0,0,20.013124,,,73.701435429312,18.700788,0.223694,0,0,21,2,17.185,73.701435429312,20.013124,0.223694,0,-0.223694,0,0,292.7, -0.9, 7.4,0,0,1024,1024,1024,1024,0,0,0,0,292.8,0,0,100,4.285,4.284,4.279,4.272,0,0,5.505,74.66,73.701435429312,20.013124,6,P-GPS,
7100,2023-06-01 18:40:02,0,0,20.341208,,,74.029519429312,18.372704,0,0,0,21,2,17.185,74.029519429312,20.341208,0.223694,0,0,0,0,293, -0.5, 7.3,0,0,1024,1024,1024,1024,0,0,0,0,292.8,0,0,100,4.285,4.284,4.279,4.272,0,0,5.505,74.66,74.029519429312,20.341208,6,P-GPS,
7300,2023-06-01 18:40:02,0,0,20.341208,,,74.029519429312,18.372704,0,0,0,21,2,16.979,74.029519429312,20.341208,0.223694,0,0,0,0,293.1, -0.4, 7,0,0,1024,1024,1024,1024,0,0,0,0,292.8,-0.9,0,100,4.242,4.248,4.25,4.248,0,0,7.149,74.66,74.029519429312,20.341208,6,P-GPS,
7500,2023-06-01 18:40:03,0,0,20.341208,,,74.029519429312,18.372704,0,0,0,21,2,16.979,74.029519429312,20.341208,0.223694,0,0,0,0,293.1, -0.1, 6.7,0,0,1024,1024,1024,1024,0,0,0,0,292.8,-3.4,0,100,4.242,4.248,4.25,4.248,0,0,7.149,74.66,74.029519429312,20.341208,6,P-GPS,
7700,2023-06-01 18:40:03,0,0,20.341208,,,74.029519429312,18.372704,0,0,0,21,2,16.979,74.029519429312,20.341208,0.223694,0,0,0,0,293.3, -0.2, 5.9,0,0,1024,1024,1024,1024,0,0,0,0,292.8,-6.2,0,100,4.242,4.248,4.25,4.248,0,0,7.149,74.66,74.029519429312,20.341208,6,P-GPS,
7900,2023-06-01 18:40:03,52.2063842309481,0.0866986164733354,20.341208,20.341208,53.688311429312,74.029519429312,18.372704,0,0,0,21,2,16.979,74.029519429312,20.341208,0.223694,0,0,0,0,292.8, -0.9, 5.8,0,0,1024,1024,1024,1024,0,0,0,0,292.8,-9.1,0,100,4.242,4.248,4.25,4.248,0,0,7.149,74.66,74.029519429312,20.341208,6,P-GPS,"No GPS. Fly with caution GPS signal weak. Hovering unstable. Fly with caution (Code: 30002)"
8100,2023-06-01 18:40:03,52.2063844411449,0.086698910057965,20.341208,20.341208,53.688311429312,74.029519429312,18.700788,0,0.10094652554,0.10094652554,21,2,16.979,74.029519429312,20.341208,0.223694,0.10094652554,0,0,0,292.4, -1.7, 4.8,0,0,1024,1024,1024,1024,0,0,0,0,292.8,-12.1,0,100,4.242,4.248,4.25,4.248,0,0,7.149,74.66,74.029519429312,20.341208,6,P-GPS,
8300,2023-06-01 18:40:03,52.206384631602,0.0866992366630784,20.669292,20.669292,53.688311429312,74.357603429312,18.700788,0,0.201485570752,0.201749350288,21,2,16.985,74.357603429312,20.669292,0.223694,0.201485570752,0,0,0,292.5, -2, 4.1,0,0,1024,1024,1024,1024,0,0,0,0,292.8,-15,0,100,4.252,4.252,4.253,4.247,0,0,7.225,74.84,74.357603429312,20.669292,6,P-GPS,
8500,2023-06-01 18:40:04,52.2063847454629,0.0866994595052554,20.669292,20.669292,53.688311429312,74.357603429312,18.700788,0,0.26602199014,0.266620087272,22,2,16.985,74.357603429312,20.669292,0.223694,0.26602199014,0,0,0,292.4, -2.2, 4.2,0,0,1024,1024,1024,1024,0,0,0,0,292.8,-17.9,0,100,4.252,4.252,4.253,4.247,0,0,7.225,74.84,74.357603429312,20.669292,6,P-GPS,
8700,2023-06-01 18:40:04,52.2063848097513,0.0866995892652809,20.669292,20.669292,53.688311429312,74.357603429312,18.700788,0,0.303155193428,0.303928159332,22,2,16.985,74.357603429312,20.669292,0.223694,0.303155193428,0,0,0,291.6, -1.7, 4.6,0,0,1024,1024,1024,1024,0,0,0,0,292.8,-20.8,0,100,4.252,4.252,4.253,4.247,0,0,7.225,74.84,74.357603429312,20.669292,6,P-GPS,
8900,2023-06-01 18:40:04,52.2063849006554,0.0866997096011486,20.669292,20.669292,53.688311429312,74.357603429312,18.700788,0,0.34560040476,0.3466371502,22,5,16.985,74.357603429312,20.669292,0.223694,0.34560040476,0,0,0,292.2, -0.1, 4,0,0,1024,1024,1024,1024,0,0,0,0,292.8,-23.7,0,100,4.252,4.252,4.253,4.247,0,0,7.225,74.84,74.357603429312,20.669292,6,P-GPS,
9100,2023-06-01 18:40:04,52.2063850175687,0.0866999018616115,20.669292,20.669292,53.688311429312,74.357603429312,18.700788,0,0.40615814948,0.40719489492,22,5,16.985,74.357603429312,20.669292,0.223694,0.40615814948,0,0,0,293, 0.2, 3.5,0,0,1024,1024,1024,1024,0,0,0,0,292.8,-26.6,0,100,4.252,4.252,4.253,4.247,0,0,7.225,74.84,74.357603429312,20.669292,6,P-GPS,
9300,2023-06-01 18:40:04,52.2063851193566,0.0867002002014599,20.341208,20.341208,53.688311429312,74.029519429312,18.700788,0,0.4800525088,0.48354004172,22,5,16.997,74.357603429312,20.669292,0.223694,0.4800525088,0,0,0,292.8, -0.9, 1.9,0,0,1024,1024,1024,1024,0,0,0,0,292.8,-29.6,0,100,4.253,4.251,4.249,4.247,0,0,6.906,74.84,74.029519429312,20.341208,6,P-GPS,"Setting new Maximum Flight Altitude to 120m (394 ft)"
9500,2023-06-01 18:40:05,52.2063851710155,0.0867004464588845,20.341208,20.341208,53.688311429312,74.029519429312,18.700788,0,0.53390093572,0.54173558164,22,5,16.997,74.357603429312,20.669292,0.223694,0.53390093572,0,0,0,293.1, -0.7, 2,0,0,1024,1024,1024,1024,0,0,0,0,292.8,-32.5,0,100,4.253,4.251,4.249,4.247,0,0,6.906,74.84,74.029519429312,20.341208,6,P-GPS,
9700,2023-06-01 18:40:05,52.2063852000636,0.0867006209092293,20.341208,20.341208,53.688311429312,74.029519429312,18.700788,0,0.57085303664,0.58215553044,22,5,16.997,74.357603429312,20.669292,0.223694,0.57085303664,0,0,0,292.8, -0.5, 1.9,0,0,1024,1024,1024,1024,0,0,0,0,292.8,-35.4,0,100,4.253,4.251,4.249,4.247,0,0,6.906,74.84,74.029519429312,20.341208,6,P-GPS,
9900,2023-06-01 18:40:05,52.2063851873374,0.0867007338134567,20.341208,20.341208,53.688311429312,74.029519429312,18.700788,0,0.58811025504,0.60782154176,22,5,16.997,74.357603429312,20.669292,0.223694,0.58811025504,0,0,0,292.7, 0.1, 2.7,0,0,1024,1024,1024,1024,0,0,0,0,292.8,-38.3,0,100,4.253,4.251,4.249,4.247,0,0,6.906,74.84,74.029519429312,20.341208,6,P-GPS,
10100,2023-06-01 18:40:05,52.2063852035006,0.0867008036843741,20.341208,20.341208,53.688311429312,74.029519429312,18.700788,0,0.60420277524,0.62452101736,22,5,16.997,74.357603429312,20.669292,0.223694,0.60420277524,0,0,0,292.7, -1.1, 3.2,0,0,1024,1024,1024,1024,0,0,0,0,292.8,-41.2,0,100,4.253,4.251,4.249,4.247,0,0,6.906,74.84,74.029519429312,20.341208,6,P-GPS,
10300,2023-06-01 18:40:05,52.2063853253629,0.0867006979763194,20.341208,20.341208,53.688311429312,74.029519429312,19.028872,0,0.61321524272,0.67487534968,22,5,16.991,74.357603429312,20.669292,0.223694,0.61321524272,0,0,0,292.9, -1.9, 3.3,0,0,1024,1024,1024,1024,0,0,0,0,292.8,-44.2,0,100,4.247,4.248,4.249,4.244,0,0,6.87,75.02,74.029519429312,20.341208,6,P-GPS,"Home Point updated (Code: 3000001)"
10500,2023-06-01 18:40:06,52.2063855663382,0.0867003610774789,20.341208,20.341208,53.688311429312,74.029519429312,19.028872,0,0.62412731656,0.7906496316,22,5,16.991,74.357603429312,20.669292,0.223694,0.62412731656,0,0,0,292.9, 0, 3.7,0,0,1024,1024,1024,1024,0,0,0,0,292.8,-47.1,0,100,4.247,4.248,4.249,4.244,0,0,6.87,75.02,74.029519429312,20.341208,6,P-GPS,
10700,2023-06-01 18:40:06,52.2063858566671,0.0866999351492351,20.341208,20.341208,53.688311429312,74.029519429312,19.028872,0,0.66238191096,0.93309058104,21,5,16.991,74.357603429312,20.669292,0.223694,0.66238191096,0,0,0,293, 1.1, 4.1,0,0,1024,1024,1024,1024,0,0,0,0,292.8,-50,0,100,4.247,4.248,4.249,4.244,0,0,6.87,75.02,74.029519429312,20.341208,6,P-GPS,
10900,2023-06-01 18:40:06,52.2063861500756,0.0866995961978088,20.341208,20.341208,53.688311429312,74.029519429312,19.028872,0,0.73365815996,1.06425200256,21,5,16.991,74.357603429312,20.669292,0.223694,0.73365815996,0,0,0,292.7, 0.9, 3.9,0,0,1024,1024,1024,1024,0,0,0,0,292.8,-52.9,0,100,4.247,4.248,4.249,4.244,0,0,6.87,75.02,74.029519429312,20.341208,6,P-GPS,
11100,2023-06-01 18:40:06,52.2063863510163,0.0866993980849537,20.341208,20.341208,53.688311429312,74.029519429312,19.028872,0,0.79300199388,1.14990817328,21,5,16.991,74.357603429312,20.669292,0.223694,0.79300199388,0,0,0,292.6, -1.2, 4.9,0,0,1024,1024,1024,1024,0,0,0,0,292.8,-55.8,0,100,4.247,4.248,4.249,4.244,0,0,6.87,75.02,74.029519429312,20.341208,6,P-GPS,
11300,2023-06-01 18:40:06,52.2063864886442,0.0866992927414586,20.669292,20.669292,53.688311429312,74.357603429312,18.700788,0,0.83748034176,1.20537077348,21,5,16.985,74.357603429312,20.669292,0.223694,0.83748034176,0,0,0,292.6, -1.3, 5.2,0,0,1024,1024,1024,1024,0,0,0,0,292.8,-58.7,0,100,4.245,4.243,4.242,4.239,0,0,6.864,75.02,74.357603429312,20.669292,6,P-GPS,
11500,2023-06-01 18:40:07,52.20638658407,0.0866992352105197,20.669292,20.669292,53.688311429312,74.357603429312,18.700788,0,0.86960960788,1.2424869164,21,5,16.985,74.357603429312,20.669292,0.223694,0.86960960788,0,0,0,292.7, -1.6, 5.4,0,0,1024,1024,1024,1024,0,0,0,0,292.8,-61.6,0,100,4.245,4.243,4.242,4.239,0,0,6.864,75.02,74.357603429312,20.669292,6,P-GPS,
11700,2023-06-01 18:40:07,52.2063866475449,0.0866992125416469,20.669292,20.669292,53.688311429312,74.357603429312,18.700788,0,0.89170934612,1.26619426624,21,5,16.985,74.357603429312,20.669292,0.223694,0.89170934612,0,0,0,292.8, -1.8, 5,0,0,1024,1024,1024,1024,0,0,0,0,292.8,-64.5,0,100,4.245,4.243,4.242,4.239,0,0,6.864,75.02,74.357603429312,20.669292,6,P-GPS,
11900,2023-06-01 18:40:07,52.2063866801589,0.0866991781590343,20.669292,20.669292,53.688311429312,74.357603429312,18.700788,0,0.90237535696,1.28036093336,22,5,16.985,74.357603429312,20.669292,0.223694,0.90237535696,0,0,0,292.8, -1.8, 4.7,0,0,1024,1024,1024,1024,0,0,0,0,292.8,-67.5,0,100,4.245,4.243,4.242,4.239,0,0,6.864,75.02,74.357603429312,20.669292,6,P-GPS,
12100,2023-06-01 18:40:07,52.2063866869112,0.0866990929312941,20.341208,20.341208,53.688311429312,74.029519429312,18.700788,0,0.90236551444,1.2995735324,22,5,16.985,74.357603429312,20.669292,0.223694,0.90237535696,0,0,0,292.8, -1.1, 4.3,0,0,1024,1024,1024,1024,0,0,0,0,292.8,-70.4,0,100,4.245,4.243,4.242,4.239,0,0,6.864,75.02,74.029519429312,20.341208,6,P-GPS,
12300,2023-06-01 18:40:07,52.2063867514032,0.0866989784453066,20.341208,20.341208,53.688311429312,74.029519429312,18.700788,0,0.92313979332,1.33434387472,22,5,16.972,74.357603429312,20.669292,0.223694,0.92313979332,0,0,0,292.9, -0.2, 3.7,0,0,1024,1024,1024,1024,0,0,0,0,292.8,-73.3,0,100,4.244,4.245,4.242,4.24,0,0,7.041,75.02,74.029519429312,20.341208,6,P-GPS,
12500,2023-06-01 18:40:08,52.2063868401489,0.0866989335745642,20.341208,20.341208,53.688311429312,74.029519429312,19.028872,0,0.95460304892,1.3682415136,22,5,16.972,74.357603429312,20.669292,0.223694,0.95460304892,0,0,0,292.8, -0.6, 3.2,0,0,1024,1024,1024,1024,0,0,0,0,292.8,-76.2,0,100,4.244,4.245,4.242,4.24,0,0,7.041,75.02,74.029519429312,20.341208,6,P-GPS,
12700,2023-06-01 18:40:08,52.2063869112269,0.0866988056136365,20.341208,20.341208,53.688311429312,74.029519429312,18.700788,0,0.97881236728,1.40685371956,22,5,16.972,74.357603429312,20.669292,0.223694,0.97881236728,0,0,0,292.9, 0.1, 3.4,0,0,1024,1024,1024,1024,0,0,0,0,292.8,-79.1,0,100,4.244,4.245,4.242,4.24,0,0,7.041,75.02,74.029519429312,20.341208,6,P-GPS,
12900,2023-06-01 18:40:08,52.2063869336243,0.0866986534649839,20.341208,20.341208,53.688311429312,74.029519429312,18.700788,0,0.9861056746,1.44184059732,22,5,16.972,74.357603429312,20.669292,0.223694,0.9861056746,0,0,0,292.7, 1.1, 5,0,0,1024,1024,1024,1024,0,0,0,0,292.8,-82,0,100,4.244,4.245,4.242,4.24,0,0,7.041,75.02,74.029519429312,20.341208,6,P-GPS,
13100,2023-06-01 18:40:08,52.2063869746941,0.0866986379725161,20.341208,20.341208,53.688311429312,74.029519429312,18.700788,0,1.001066305,1.45722117524,22,5,16.972,74.357603429312,20.669292,0.223694,1.001066305,0,0,0,293, -0.3, 5,0,0,1024,1024,1024,1024,0,0,0,0,292.8,-85,0,100,4.244,4.245,4.242,4.24,0,0,7.041,75.02,74.029519429312,20.341208,6,P-GPS,
13300,2023-06-01 18:40:08,52.2063870929124,0.0866985730076433,20.669292,20.669292,53.688311429312,74.357603429312,18.700788,0,1.04423231688,1.50273298772,22,5,16.96,74.357603429312,20.669292,0.223694,1.04423231688,0,0,0,292.7, 0, 5.3,0,0,1024,1024,1024,1024,0,0,0,0,292.8,-87.9,0,100,4.241,4.242,4.245,4.239,0,0,6.937,75.02,74.357603429312,20.669292,6,P-GPS,
13500,2023-06-01 18:40:09,52.2063873205944,0.0866984605988149,20.669292,20.669292,53.688311429312,74.357603429312,18.700788,0,1.12779531168,1.58952104824,22,5,16.96,74.357603429312,20.669292,0.223694,1.12779531168,0,0,0,292.9, 0.5, 3.2,0,0,1024,1024,1024,1024,0,0,0,0,292.8,-89.9,0,100,4.241,4.242,4.245,4.239,0,0,6.937,75.02,74.357603429312,20.669292,6,P-GPS,
13700,2023-06-01 18:40:09,52.2063875697614,0.0866982476616691,20.669292,20.669292,53.688311429312,74.357603429312,18.700788,0,1.22095148264,1.6921424426,22,5,16.96,74.357603429312,20.669292,0.223694,1.22095148264,0,0,0,292.8, 1.9, 4.1,0,0,1024,1024,1024,1024,0,0,0,0,292.8,-90,0,100,4.241,4.242,4.245,4.239,0,0,6.937,75.02,74.357603429312,20.669292,6,P-GPS,
13900,2023-06-01 18:40:09,52.2063878203832,0.0866980733832833,20.669292,20.669292,53.688311429312,74.357603429312,19.028872,0,1.31521985836,1.79153877124,22,5,16.96,74.357603429312,20.669292,0.223694,1.31521985836,0,0,0,293, 2, 3.9,0,0,1024,1024,1024,1024,0,0,0,0,292.8,-90,0,100,4.241,4.242,4.245,4.239,0,0,6.937,75.02,74.357603429312,20.669292,6,P-GPS,
14100,2023-06-01 18:40:09,52.2063881039755,0.0866980528320883,20.669292,20.669292,53.688311429312,74.357603429312,19.028872,0,1.41868114776,1.89510832836,22,5,16.96,74.357603429312,20.669292,0.223694,1.41868114776,0,0,0,292.9, 1.4, 4.2,0,0,1024,1024,1024,1024,0,0,0,0,292.8,-89.9,0,100,4.241,4.242,4.245,4.239,0,0,6.937,75.02,74.357603429312,20.669292,6,P-GPS,
14300,2023-06-01 18:40:09,52.2063884154612,0.0866981655598244,20.341208,20.341208,53.688311429312,74.029519429312,19.028872,0,1.53004269988,2.0115158124,22,5,16.949,74.357603429312,20.669292,0.223694,1.53004269988,0,0,0,292.8, 0.1, 3.6,0,0,1024,1024,1024,1024,0,0,0,0,292.8,-90,0,100,4.238,4.239,4.242,4.236,0,0,7.33,75.2,74.029519429312,20.341208,6,P-GPS,
14500,2023-06-01 18:40:10,52.2063887614391,0.0866983176658286,20.341208,20.341208,53.688311429312,74.029519429312,18.700788,0.223694,1.6542979532,2.14224416304,22,5,16.949,74.357603429312,20.669292,0.223694,1.6542979532,0,0.223694,0,292.8, -0.4, 3.3,0,0,1024,1024,1024,1024,0,0,0,0,292.8,-89.9,0,100,4.238,4.239,4.242,4.236,0,0,7.33,75.2,74.029519429312,20.341208,6,P-GPS,
14700,2023-06-01 18:40:10,52.2063891317749,0.086698485405461,20.341208,20.341208,53.688311429312,74.029519429312,18.700788,0.223694,1.788303863,2.28247054548,22,5,16.949,74.357603429312,20.669292,0.223694,1.788303863,0,0.223694,0,292.8, -1.9, 2.9,0,0,1024,1024,1024,1024,0,0,0,0,292.8,-90,0,100,4.238,4.239,4.242,4.236,0,0,7.33,75.2,74.029519429312,20.341208,6,P-GPS,
14900,2023-06-01 18:40:10,52.2063895389056,0.0866985617500943,20.341208,20.341208,53.688311429312,74.029519429312,18.700788,0,1.93664376276,2.4319882668,22,5,16.949,74.357603429312,20.669292,0.223694,1.93664376276,0,0,0,293, -1.9, 1.9,0,0,1024,1024,1024,1024,0,0,0,0,292.8,-90,0,100,4.238,4.239,4.242,4.236,0,0,7.33,75.2,74.029519429312,20.341208,6,P-GPS,
15100,2023-06-01 18:40:10,52.2063899539719,0.0866984590466521,20.341208,20.341208,53.688311429312,74.029519429312,18.700788,0,2.08833996184,2.58515756304,22,5,16.949,74.357603429312,20.669292,0.223694,2.08833996184,0,0,0,292.8, -0.9, 2.3,0,0,1024,1024,1024,364,0,0,0,-100,292.8,-90,0,100,4.238,4.239,4.242,4.236,0,0,7.33,75.2,74.029519429312,20.341208,6,P-GPS,
15300,2023-06-01 18:40:10,52.2063902991724,0.0866982364931302,20.341208,20.341208,53.688311429312,74.029519429312,18.700788,0,2.2156168688,2.72057751488,24,5,16.952,74.357603429312,20.669292,0.223694,2.2156168688,0,0,0,292.5, -0.7, 3.2,0,0,1024,1024,1024,953,0,0,0,-11,290.1,-89.9,0,100,4.238,4.24,4.24,4.235,0,0,6.873,75.2,74.029519429312,20.341208,6,P-GPS,
15500,2023-06-01 18:40:11,52.2063905319354,0.0866979730312388,20.341208,20.3083996,53.721119829312,74.029519429312,18.700788,0,2.30340886636,2.82393053656,24,5,16.952,74.357603429312,20.669292,0.223694,2.30340886636,0,0,0,286, -0.6, 4.8,0,0,1024,1024,1024,1024,0,0,0,0,280.9,-90,0,100,4.238,4.24,4.24,4.235,0,0,6.873,75.2,74.029519429312,20.341208,6,P-GPS,
15700,2023-06-01 18:40:11,52.2063907078344,0.0866977128371679,20.341208,20.3083996,53.721119829312,74.029519429312,18.700788,0.223694,2.37170939348,2.91055127424,24,5,16.952,74.357603429312,20.669292,0.223694,2.37170939348,0,-0.223694,0,279.2, 0.7, 6,0,0,1024,1024,1024,1024,0,0,0,0,279.8,-89.9,0,100,4.238,4.24,4.24,4.235,0,0,6.873,75.2,74.029519429312,20.341208,6,P-GPS,
15900,2023-06-01 18:40:11,52.206390914766,0.0866975508480301,20.341208,20.3083996,53.721119829312,74.029519429312,18.700788,0,2.45020020964,2.99428815356,23,5,16.952,74.357603429312,20.669292,0.223694,2.45020020964,0,0,0,279.9, 1.8, 7,0,0,1024,1024,1024,386,0,0,0,-97,279.8,-89.9,0,100,4.238,4.24,4.24,4.235,0,0,6.873,75.2,74.029519429312,20.341208,6,P-GPS,
16100,2023-06-01 18:40:11,52.2063912094201,0.0866976410978831,20.341208,20.3083996,53.721119829312,74.029519429312,18.700788,0,2.5554134676,3.10367135916,23,5,16.952,74.357603429312,20.669292,0.223694,2.5554134676,0,0,0,280, 2, 6.7,0,0,1024,1024,1024,1024,0,0,0,0,278.9,-89.9,0,100,4.238,4.24,4.24,4.235,0,0,6.873,75.2,74.029519429312,20.341208,6,P-GPS,
16300,2023-06-01 18:40:11,52.206391563316,0.0866979843136343,20.669292,20.6364836,53.721119829312,74.357603429312,18.700788,0,2.67894037444,3.2538714952,23,5,16.946,74.357603429312,20.669292,0.223694,2.67894037444,0,0,0,276.2, 1.9, 6.3,0,0,1024,1024,1024,1024,0,0,0,0,273,-90,0,100,4.235,4.238,4.239,4.235,0,0,7.017,75.2,74.357603429312,20.669292,6,P-GPS,
16500,2023-06-01 18:40:12,52.2063919547768,0.0866985118604883,20.669292,20.6364836,53.721119829312,74.357603429312,18.700788,0,2.81813001144,3.4391077216,23,5,16.946,74.357603429312,20.669292,0.223694,2.81813001144,0,0,0,272.3, 1.5, 5.3,0,0,1024,1024,1024,1024,0,0,0,0,272.7,-89.9,0,100,4.235,4.238,4.239,4.235,0,0,7.017,75.2,74.357603429312,20.669292,6,P-GPS,
16700,2023-06-01 18:40:12,52.2063923394241,0.0866991655206807,20.669292,20.6364836,53.721119829312,74.357603429312,18.700788,0,2.96091872992,3.6417324,23,5,16.946,74.357603429312,20.669292,0.223694,2.96091872992,0,0,0,272.9, 1.3, 5.6,0,0,1684,1024,1024,1024,100,0,0,0,272.7,-89.9,0,100,4.235,4.238,4.239,4.235,0,0,7.017,75.2,74.357603429312,20.669292,6,P-GPS,
16900,2023-06-01 18:40:12,52.2063926630413,0.0866998396270032,20.669292,20.6364836,53.721119829312,74.357603429312,18.700788,0,3.08857621432,3.8332022224,23,5,16.946,74.357603429312,20.669292,0.223694,3.08857621432,0,0,0,272.8, -4, 0.7,0,0,1684,1024,1024,1024,100,0,0,0,272.7,-89.9,0,100,4.235,4.238,4.239,4.235,0,0,7.017,75.2,74.357603429312,20.669292,6,P-GPS,
17100,2023-06-01 18:40:12,52.2063927093155,0.0867001048779992,20.669292,20.6364836,53.721119829312,74.357603429312,18.700788,0.4921268,3.11117792108,3.894849206,23,5,16.946,74.357603429312,20.669292,0.4921268,3.11117792108,-0.223694,-0.447388,0,272.3, -6.5, 3.5,0,0,1684,1024,1024,1024,100,0,0,0,272.7,-89.9,0,100,4.235,4.238,4.239,4.235,0,0,7.017,75.2,74.357603429312,20.669292,6,P-GPS,
17300,2023-06-01 18:40:12,52.2063926163565,0.086699632193963,20.669292,20.6364836,53.721119829312,74.357603429312,19.028872,1.2079476,3.06782818216,4.0058400232,23,5,16.937,74.357603429312,20.669292,1.2079476,3.11117792108,-0.447388,-1.11847,0,272, -7.8, 5.4,0,0,1684,1024,1024,1024,100,0,0,0,272.7,-89.9,0,100,4.235,4.235,4.236,4.229,0,0,6.982,75.2,74.357603429312,20.669292,6,P-GPS,
17500,2023-06-01 18:40:13,52.2063925495838,0.086698268800768,20.669292,20.6364836,53.721119829312,74.357603429312,19.028872,1.8119214,3.03604340424,4.3116471196,23,5,16.937,74.357603429312,20.669292,1.8119214,3.11117792108,-0.223694,-1.789552,0,273.3, -7.2, 6.4,0,0,1677,1024,1024,1024,99,0,0,0,272.7,-90,0,100,4.235,4.235,4.236,4.229,0,0,6.982,75.2,74.357603429312,20.669292,6,P-GPS,
17700,2023-06-01 18:40:13,52.2063926106756,0.0866960744843142,20.669292,20.6364836,53.721119829312,74.357603429312,19.028872,2.23694,3.10971794728,4.8027888676,23,5,16.937,74.357603429312,20.669292,2.23694,3.11117792108,0,-2.23694,0,275.3, -7.7, 6.6,0,0,1684,1024,1024,1024,100,0,0,0,272.7,-89.9,0,100,4.235,4.235,4.236,4.229,0,0,6.982,75.2,74.357603429312,20.669292,6,P-GPS,
17900,2023-06-01 18:40:13,52.206392830283,0.0866930399529215,20.669292,20.6364836,53.721119829312,74.357603429312,18.700788,2.908022,3.3761155936,5.4859581808,23,5,16.937,74.357603429312,20.669292,2.908022,3.3761155936,0,-2.908022,0,276.7, -6.5, 6.4,0,0,1351,1159,1024,1024,50,20,0,0,272.7,-90,0,100,4.235,4.235,4.236,4.229,0,0,6.982,75.2,74.357603429312,20.669292,6,P-GPS,
18100,2023-06-01 18:40:13,52.2063932426298,0.0866893481351817,20.669292,20.6364836,53.721119829312,74.357603429312,18.700788,3.35541,3.886483064,6.3250002024,24,5,16.937,74.357603429312,20.669292,3.35541,3.886483064,0.223694,-3.35541,0,277.9, -6.7, 4.1,0,0,1490,1526,1024,1024,71,76,0,0,272.7,-89.9,0,100,4.235,4.235,4.236,4.229,0,0,6.982,75.2,74.357603429312,20.669292,6,P-GPS,
18300,2023-06-01 18:40:13,52.2063937612728,0.0866850685981762,20.669292,20.6036752,53.753928229312,74.357603429312,18.700788,3.6014734,4.6115158956,7.3003939344,24,5,16.929,74.357603429312,20.669292,3.6014734,4.6115158956,0.447388,-3.579104,0,278.7, -6.7, 10.3,0,0,1621,1244,1024,1024,90,33,0,0,272.7,-89.9,0,100,4.229,4.232,4.233,4.231,0,0,7.23,75.38,74.357603429312,20.669292,6,P-GPS,
18500,2023-06-01 18:40:14,52.2063946419138,0.086680251535784,20.669292,20.6036752,53.753928229312,74.357603429312,18.700788,4.1830778,5.5936353496,8.4243112932,24,5,16.929,74.357603429312,20.669292,4.1830778,5.5936353496,1.11847,-4.026492,0,278.7, -9.2, 13.2,0,0,1627,1207,1024,1024,91,28,0,0,272.7,-90,0,100,4.229,4.232,4.233,4.231,0,0,7.23,75.38,74.357603429312,20.669292,6,P-GPS,
18700,2023-06-01 18:40:14,52.206396136918,0.0866748167152103,20.669292,20.5708668,53.786736629312,74.357603429312,18.700788,4.809421,6.8691931332,9.7562995248,24,5,16.929,74.357603429312,20.669292,4.809421,6.8691931332,1.789552,-4.47388,0,280.1, -5.9, 7.6,0,0,1642,1159,1024,1024,94,20,0,0,272.7,-90,0,100,4.229,4.232,4.233,4.231,0,0,7.23,75.38,74.357603429312,20.669292,6,P-GPS,
18900,2023-06-01 18:40:14,52.206397993252,0.0866689505043348,20.341208,20.2427828,53.786736629312,74.029519429312,18.700788,5.1002232,8.3191275628,11.232447866,24,5,16.929,74.357603429312,20.669292,5.1002232,8.3191275628,2.013246,-4.697574,0,280.8, -5.7, 5.4,0,0,1340,1024,1024,1024,48,0,0,0,272.7,-89.9,0,100,4.229,4.232,4.233,4.231,0,0,7.23,75.38,74.029519429312,20.341208,6,P-GPS,
19100,2023-06-01 18:40:14,52.2064000431019,0.0866626815209685,20.341208,20.2099744,53.819545029312,74.029519429312,18.700788,5.4133948,9.891240474,12.8211290192,24,5,16.929,74.357603429312,20.669292,5.4133948,9.891240474,2.23694,-4.921268,0,281.5, -5.5, 4.2,0,0,1252,1024,1024,1024,35,0,0,0,272.7,-90,0,100,4.229,4.232,4.233,4.231,0,0,7.23,75.38,74.029519429312,20.341208,6,P-GPS,
19300,2023-06-01 18:40:14,52.2064021609431,0.0866560501501775,20.341208,20.177166,53.852353429312,74.029519429312,18.372704,5.816044,11.548720842,14.4930778916,25,5,16.89,74.357603429312,20.669292,5.816044,11.548720842,2.23694,-5.368656,0,281.1, -5.6, 3,0,0,1024,1024,1024,1024,0,0,0,0,272.7,-90,0,100,4.235,4.237,4.237,4.232,0,0,7.439,75.38,74.029519429312,20.341208,6,P-GPS,
19500,2023-06-01 18:40:15,52.2064042450905,0.0866491253144564,20.341208,20.177166,53.852353429312,74.029519429312,18.372704,5.5252418,13.2577432064,16.2180451384,25,5,16.89,74.357603429312,20.669292,5.816044,13.2577432064,2.013246,-5.144962,0,280.6, 16.6, -2.8,0,0,1024,1024,1024,1024,0,0,0,0,272.7,-90,0,100,4.235,4.237,4.237,4.232,0,0,7.439,75.38,74.029519429312,20.341208,6,P-GPS,
19700,2023-06-01 18:40:15,52.206405793986,0.0866434862549428,20.341208,20.1443576,53.885161829312,74.029519429312,18.372704,3.467257,14.623031964,17.5997052876,25,5,16.89,74.357603429312,20.669292,5.816044,14.623031964,0.894776,-3.35541,0,281.4, 29, -2.1,0,0,1024,1024,1024,1024,0,0,0,0,272.7,-90,0,100,4.235,4.237,4.237,4.232,0,0,7.439,75.38,74.029519429312,20.341208,6,P-GPS,
19900,2023-06-01 18:40:15,52.2064065478378,0.0866406966675558,20.341208,20.1115492,53.917970229312,74.029519429312,18.04462,1.3645334,15.2971133504,18.2813654144,25,5,16.89,74.357603429312,20.669292,5.816044,15.2971133504,0.223694,-1.342164,0,282.3, 17, 3.4,0,0,1024,1024,1024,1024,0,0,0,0,272.7,-90,0,100,4.235,4.237,4.237,4.232,0,0,7.439,75.38,74.029519429312,20.341208,6,P-GPS,
20100,2023-06-01 18:40:15,52.2064069230835,0.0866398835911114,20.669292,20.4396332,53.917970229312,74.357603429312,17.716536,0.447388,15.5239178196,18.5089572852,25,5,16.89,74.357603429312,20.669292,5.816044,15.5239178196,0,-0.447388,0,282, 8.2, 5.4,0,0,1024,1024,1024,1024,0,0,0,0,272.7,-89.9,0,100,4.235,4.237,4.237,4.232,0,0,7.439,75.38,74.357603429312,20.669292,6,P-GPS,
20300,2023-06-01 18:40:15,52.2064072626716,0.0866398565337636,20.669292,20.4396332,53.917970229312,74.357603429312,17.716536,0,15.5954401316,18.6330058456,25,5,16.89,74.357603429312,20.669292,5.816044,15.5954401316,0,0,0,281.9, 4.4, 4.7,0,0,1024,1024,1684,1024,0,0,100,0,272.7,-90,0,99,4.211,4.225,4.225,4.227,0,0,7.179,75.38,74.357603429312,20.669292,6,P-GPS,
20500,2023-06-01 18:40:16,52.2064075767024,0.0866400915922877,20.669292,20.4396332,53.917970229312,74.357603429312,18.04462,0,15.6133863264,18.7590557184,25,5,16.89,74.357603429312,20.669292,5.816044,15.6133863264,0,0,-0.671082,281.9, 2.1, 3.3,0,0,1024,1024,1684,1024,0,0,100,0,272.7,-89.9,0,99,4.211,4.225,4.225,4.227,0,0,7.179,75.38,74.357603429312,20.669292,6,P-GPS,
20700,2023-06-01 18:40:16,52.2064078695858,0.0866402845619925,21.32546,21.0958012,53.917970229312,75.013771429312,18.372704,0,15.6359256972,18.8742788192,25,5,16.89,75.013771429312,21.32546,5.816044,15.6359256972,0,0,-2.908022,281.9, 2.6, 2.6,0,0,1024,1024,1683,1024,0,0,100,0,272.7,-90,0,99,4.211,4.225,4.225,4.227,0,0,7.179,75.38,75.013771429312,21.32546,6,P-GPS,
20900,2023-06-01 18:40:16,52.2064080692655,0.086640491437818,22.637796,22.4081372,53.917970229312,76.326107429312,19.68504,0,15.637795776,18.9605977196,23,5,16.89,76.326107429312,22.637796,5.816044,15.637795776,0,0,-5.144962,282, 2.5, 2.6,0,0,1024,1024,1653,1024,0,0,95,0,272.7,-89.9,0,99,4.211,4.225,4.225,4.227,0,0,7.179,75.38,76.326107429312,22.637796,6,P-GPS,
21100,2023-06-01 18:40:16,52.2064081973002,0.0866408421977827,24.934384,24.7047252,53.917970229312,78.622695429312,21.653544,0,15.5987865884,19.0518706884,23,5,16.89,78.622695429312,24.934384,5.816044,15.637795776,0,0,-7.605596,281.9, 2.3, 2.6,0,0,1024,1024,1485,1024,0,0,70,0,272.7,-90,0,99,4.211,4.225,4.225,4.227,0,0,7.179,75.38,78.622695429312,24.934384,6,P-GPS,
21300,2023-06-01 18:40:16,52.2064082545935,0.0866413214085041,28.543308,28.3136492,53.917970229312,82.231619429312,24.6063,0.223694,15.521982124,19.1610242352,23,5,16.787,82.231619429312,28.543308,5.816044,15.637795776,0,0.223694,-9.618842,281.7, 0.7, 1.5,0,0,1024,1024,1024,1024,0,0,0,0,272.7,-89.9,0,99,4.141,4.142,4.137,4.128,0,0,8.773,75.56,82.231619429312,28.543308,6,P-GPS,
21500,2023-06-01 18:40:17,52.2064081502464,0.0866417105177682,31.824148,31.5944892,53.917970229312,85.512459429312,27.230972,0,15.4287078428,19.2560045532,24,5,16.787,85.512459429312,31.824148,5.816044,15.637795776,0,0,-8.276678,281.8, 0, 2.7,0,0,1024,1024,1024,1024,0,0,0,0,272.7,-90,0,99,4.141,4.142,4.137,4.128,0,0,8.773,75.56,85.512459429312,31.824148,6,P-GPS,
21700,2023-06-01 18:40:17,52.2064078169122,0.0866418959245564,32.480316,32.2506572,53.917970229312,86.168627429312,29.855644,0,15.3259191256,19.3844822476,24,5,16.787,86.168627429312,32.480316,5.816044,15.637795776,0,0,-6.039738,281.8, 0.7, 3,0,0,1024,1024,1024,1024,0,0,0,0,272.7,-90,0,99,4.141,4.142,4.137,4.128,0,0,8.773,75.56,86.168627429312,32.480316,6,P-GPS,
21900,2023-06-01 18:40:17,52.2064072807906,0.0866419097817488,33.792652,33.5629932,53.917970229312,87.480963429312,31.496064,0,15.2143705656,19.5801187368,24,5,16.787,87.480963429312,33.792652,5.816044,15.637795776,0,0,-3.802798,281.7, 1.6, 3.1,0,0,1024,1024,1024,1024,0,0,0,0,272.7,-90,0,99,4.141,4.142,4.137,4.128,0,0,8.773,75.56,87.480963429312,33.792652,6,P-GPS,
22100,2023-06-01 18:40:17,52.2064067396723,0.0866417742958022,34.44882,34.2191612,53.917970229312,88.137131429312,32.480316,0,15.131562164,19.779856276,25,5,16.787,88.137131429312,34.44882,5.816044,15.637795776,0,0,-1.342164,281.9, 3, 3.4,0,0,1024,1024,1024,1024,0,0,0,0,272.7,-89.9,0,99,4.141,4.142,4.137,4.128,0,0,8.773,75.56,88.137131429312,34.44882,6,P-GPS,
22300,2023-06-01 18:40:17,52.2064062222052,0.0866415318001771,34.776904,34.5800536,53.885161829312,88.465215429312,32.8084,0.223694,15.0758206924,19.9762801668,24,5,16.881,88.465215429312,34.776904,5.816044,15.637795776,0,-0.223694,-0.223694,281.8, 4.1, 3.8,0,0,1024,1024,1024,1024,0,0,0,0,272.7,-89.9,0,99,4.269,4.269,4.27,4.266,0,0,11.628,75.56,88.465215429312,34.776904,6,P-GPS,
22500,2023-06-01 18:40:18,52.2064057548545,0.0866413125315132,34.776904,34.5800536,53.885161829312,88.465215429312,32.8084,0,15.0275267276,20.153707994,25,5,16.881,88.465215429312,34.776904,5.816044,15.637795776,0,0,0,281.5, 5, 4.9,0,0,1024,1024,494,1024,0,0,-80,0,272.7,-90,0,99,4.269,4.269,4.27,4.266,0,0,11.628,75.56,88.465215429312,34.776904,6,P-GPS,
22700,2023-06-01 18:40:18,52.2064054038788,0.0866412118545543,34.776904,34.5800536,53.885161829312,88.465215429312,33.136484,0,14.9802826316,20.2837276832,25,5,16.881,88.465215429312,34.776904,5.816044,15.637795776,0,0,0.223694,281.8, 5.6, 4.2,0,0,1024,1024,894,1024,0,0,-20,0,272.7,-90,0,99,4.269,4.269,4.27,4.266,0,0,11.628,75.56,88.465215429312,34.776904,6,P-GPS,
22900,2023-06-01 18:40:18,52.2064051235031,0.0866412422669852,34.120736,33.9238856,53.885161829312,87.809047429312,29.52756,0,14.9219492964,20.3862539332,25,5,16.881,88.465215429312,34.776904,5.816044,15.637795776,0,0,2.013246,281.9, 5.1, 3.7,0,0,1024,1024,1024,1024,0,0,0,0,272.7,-90,0,99,4.269,4.269,4.27,4.266,0,0,11.628,75.56,87.809047429312,34.120736,6,P-GPS,
23100,2023-06-01 18:40:18,52.2064049090947,0.086641423032575,33.464568,33.2677176,53.885161829312,87.152879429312,28.871392,0,14.8473101864,20.4742788704,24,5,16.881,88.465215429312,34.776904,5.816044,15.637795776,0,0,1.565858,281.8, 3.2, 1.8,0,0,1024,1024,1024,1024,0,0,0,0,272.7,-90,0,99,4.269,4.269,4.27,4.266,0,0,11.628,75.56,87.152879429312,33.464568,6,P-GPS,
23300,2023-06-01 18:40:18,52.2064046548074,0.0866416274445113,33.464568,33.2677176,53.885161829312,87.152879429312,28.871392,0,14.7609256692,20.5777237556,24,5,16.933,88.465215429312,34.776904,5.816044,15.637795776,0,0,0.447388,281.9, 4.7, 3,0,0,1024,1024,1024,1024,0,0,0,0,272.7,-90,0,99,4.269,4.255,4.187,4.164,0,0,5.196,75.74,87.152879429312,33.464568,6,P-GPS,
23500,2023-06-01 18:40:19,52.2064044063134,0.0866419028479103,33.464568,33.300526,53.852353429312,87.152879429312,28.871392,0,14.66207396,20.6873038116,25,5,16.933,88.465215429312,34.776904,5.816044,15.637795776,0,0,0,281.9, 4.1, 3.7,0,0,1024,1024,1024,1024,0,0,0,0,272.7,-90,0,99,4.269,4.255,4.187,4.164,0,0,5.196,75.74,87.152879429312,33.464568,6,P-GPS,
23700,2023-06-01 18:40:19,52.2064042666363,0.0866422354659618,33.464568,33.300526,53.852353429312,87.152879429312,29.855644,0,14.572178944,20.7774612948,25,5,16.933,88.465215429312,34.776904,5.816044,15.637795776,0,0,0,281.7, 2.8, 3.7,0,0,1024,1024,1024,1024,0,0,0,0,272.7,-89.9,0,99,4.269,4.255,4.187,4.164,0,0,5.196,75.74,87.152879429312,33.464568,6,P-GPS,
23900,2023-06-01 18:40:19,52.2064042137613,0.0866424954080193,33.464568,33.300526,53.852353429312,87.152879429312,30.511812,0,14.5122379972,20.8387145776,25,5,16.933,88.465215429312,34.776904,5.816044,15.637795776,0,0,0,281.8, 3.2, 2.9,0,0,1334,1024,1024,1024,47,0,0,0,272.7,-89.9,0,99,4.269,4.255,4.187,4.164,0,0,5.196,75.74,87.152879429312,33.464568,6,P-GPS,
24100,2023-06-01 18:40:19,52.2064041873624,0.0866426910652855,33.464568,33.300526,53.852353429312,87.152879429312,31.16798,0,14.4695870772,20.8834980436,25,5,16.933,88.465215429312,34.776904,5.816044,15.637795776,0,0,0,281.8, -0.3, 0.5,0,0,1581,1024,1024,1024,84,0,0,0,272.7,-89.9,0,99,4.269,4.255,4.187,4.164,0,0,5.196,75.74,87.152879429312,33.464568,6,P-GPS,
24300,2023-06-01 18:40:19,52.2064041080285,0.0866425548419195,33.464568,33.300526,53.852353429312,87.152879429312,31.496064,0.223694,14.4813981012,20.925525604,25,5,16.86,88.465215429312,34.776904,5.816044,15.637795776,0,-0.223694,0,281.6, -4.5, 0.5,0,0,1403,1024,1024,1024,57,0,0,0,272.7,-89.9,0,99,4.226,4.227,4.227,4.22,0,0,7.468,75.74,87.152879429312,33.464568,6,P-GPS,
24500,2023-06-01 18:40:20,52.2064039816794,0.0866416685477749,33.464568,33.300526,53.852353429312,87.152879429312,31.824148,0.894776,14.6304794708,21.1289704924,25,5,16.86,88.465215429312,34.776904,5.816044,15.637795776,0,-0.894776,0,281.6, -6.5, 2.3,0,0,1028,1024,1024,1024,1,0,0,0,272.7,-89.9,0,99,4.226,4.227,4.227,4.22,0,0,7.468,75.74,87.152879429312,33.464568,6,P-GPS,
24700,2023-06-01 18:40:20,52.2064038715775,0.0866398554014231,33.464568,33.300526,53.852353429312,87.152879429312,32.152232,1.565858,14.9653548096,21.5363523952,25,5,16.86,88.465215429312,34.776904,5.816044,15.637795776,0,-1.565858,0,281.5, -1.6, 3.4,0,0,1247,1024,1024,1024,34,0,0,0,272.7,-90,0,99,4.226,4.227,4.227,4.22,0,0,7.468,75.74,87.152879429312,33.464568,6,P-GPS,
24900,2023-06-01 18:40:20,52.206403785465,0.0866376594121239,33.464568,33.300526,53.852353429312,87.152879429312,32.152232,1.565858,15.3835962928,22.0283471616,25,5,16.86,88.465215429312,34.776904,5.816044,15.637795776,0,-1.565858,0,282.6, 13.1, 4.1,0,0,1387,1024,1024,1024,55,0,0,0,272.7,-89.9,0,99,4.226,4.227,4.227,4.22,0,0,7.468,75.74,87.152879429312,33.464568,6,P-GPS,
25100,2023-06-01 18:40:20,52.2064035995095,0.0866361334434161,33.464568,33.300526,53.852353429312,87.152879429312,32.152232,0.9171454,15.6559388212,22.3762146268,25,5,16.86,88.465215429312,34.776904,5.816044,15.6559388212,-0.223694,-0.894776,0,281.9, 2.1, 3.3,0,0,1024,1024,1024,1024,0,0,0,0,272.7,-89.9,0,99,4.226,4.227,4.227,4.22,0,0,7.468,75.74,87.152879429312,33.464568,6,P-GPS,
25300,2023-06-01 18:40:20,52.2064033946575,0.0866347446137324,33.464568,33.300526,53.852353429312,87.152879429312,32.480316,1.11847,15.9006238684,22.6956044008,25,5,16.894,88.465215429312,34.776904,5.816044,15.9006238684,0,-1.11847,0,281.8, 4.3, 3.9,0,0,1024,1024,1024,1024,0,0,0,0,272.7,-90,0,99,4.201,4.193,4.216,4.203,0,0,6.998,75.92,87.152879429312,33.464568,6,P-GPS,
25500,2023-06-01 18:40:21,52.206403221833,0.0866335573895977,33.464568,33.300526,53.852353429312,87.152879429312,32.480316,0.671082,16.1122380484,22.9684390552,25,5,16.894,88.465215429312,34.776904,5.816044,16.1122380484,0,-0.671082,0,282.4, 10.1, 6.5,0,0,1024,1024,1024,1024,0,0,0,0,272.7,-89.9,0,99,4.201,4.193,4.216,4.203,0,0,6.998,75.92,87.152879429312,33.464568,6,P-GPS,
25700,2023-06-01 18:40:21,52.2064030793031,0.0866331593089809,33.136484,32.972442,53.852353429312,86.824795429312,32.152232,0,16.1704729584,23.071523048,25,5,16.894,88.465215429312,34.776904,5.816044,16.1704729584,0,0,0,282.1, 7.3, 5.7,0,0,1024,1024,1024,1024,0,0,0,0,272.7,-89.9,0,99,4.201,4.193,4.216,4.203,0,0,6.998,75.92,86.824795429312,33.136484,6,P-GPS,
25900,2023-06-01 18:40:21,52.2064030014106,0.0866333929555742,33.136484,32.972442,53.852353429312,86.824795429312,32.152232,0,16.1110897544,23.1310046772,25,5,16.894,88.465215429312,34.776904,5.816044,16.1704729584,0,0,0,281.9, 4.8, 5.2,0,0,1024,1024,1024,1024,0,0,0,0,272.7,-90,0,99,4.201,4.193,4.216,4.203,0,0,6.998,75.92,86.824795429312,33.136484,6,P-GPS,
26100,2023-06-01 18:40:21,52.2064029626496,0.0866339652418942,33.136484,32.972442,53.852353429312,86.824795429312,31.824148,0.223694,15.9893049736,23.2597120304,25,5,16.894,88.465215429312,34.776904,5.816044,16.1704729584,0,0.223694,0,281.8, 2.3, 4.9,0,0,1024,1024,1024,1024,0,0,0,0,272.7,-90,0,99,4.201,4.193,4.216,4.203,0,0,6.998,75.92,86.824795429312,33.136484,6,P-GPS,
26300,2023-06-01 18:40:21,52.206402941802,0.0866346358740892,33.136484,32.972442,53.852353429312,86.824795429312,31.824148,0.223694,15.8506238668,23.4098760772,25,5,16.801,88.465215429312,34.776904,5.816044,16.1704729584,0,0.223694,0,281.7, 0, 4.2,0,0,1024,1024,1024,1024,0,0,0,0,272.7,-90,0,99,4.22,4.223,4.225,4.219,0,0,8.375,75.74,86.824795429312,33.136484,6,P-GPS,
26500,2023-06-01 18:40:22,52.2064029235588,0.0866351643276457,33.136484,32.972442,53.852353429312,86.824795429312,32.152232,0.223694,15.7411750444,23.528215976,24,5,16.801,88.465215429312,34.776904,5.816044,16.1704729584,0,0.223694,0,281.8, 0.3, 4.3,0,0,1024,1024,1024,1024,0,0,0,0,272.7,-90,0,99,4.22,4.223,4.225,4.219,0,0,8.375,75.74,86.824795429312,33.136484,6,P-GPS,
26700,2023-06-01 18:40:22,52.2064028930435,0.0866355577251256,33.136484,32.972442,53.852353429312,86.824795429312,31.824148,0,15.6570871152,23.6168642728,24,5,16.801,88.465215429312,34.776904,5.816044,16.1704729584,0,0,0,281.8, 0.6, 4.1,0,0,1024,1024,1024,1024,0,0,0,0,272.7,-90,0,99,4.22,4.223,4.225,4.219,0,0,8.375,75.74,86.824795429312,33.136484,6,P-GPS,
26900,2023-06-01 18:40:22,52.2064028176139,0.0866358295637487,33.136484,32.972442,53.852353429312,86.824795429312,31.824148,0,15.5904204464,23.6835965584,24,5,16.801,88.465215429312,34.776904,5.816044,16.1704729584,0,0,0,281.6, 0.8, 4.6,0,0,1024,1024,1024,1024,0,0,0,0,272.7,-90,0,99,4.22,4.223,4.225,4.219,0,0,8.375,75.74,86.824795429312,33.136484,6,P-GPS,
27100,2023-06-01 18:40:22,52.2064027424264,0.0866360015327299,33.136484,32.972442,53.852353429312,86.824795429312,31.824148,0,15.5438653268,23.730807846,24,5,16.801,88.465215429312,34.776904,5.816044,16.1704729584,0,0,0,281.9, 1.8, 4.1,0,0,1024,1024,1024,1024,0,0,0,0,272.7,-90,0,99,4.22,4.223,4.225,4.219,0,0,8.375,75.74,86.824795429312,33.136484,6,P-GPS,
27300,2023-06-01 18:40:22,52.2064026797188,0.0866361970362214,33.136484,32.972442,53.852353429312,86.824795429312,31.824148,0,15.4945543016,23.7801516796,24,5,16.879,88.465215429312,34.776904,5.816044,16.1704729584,0,0,0,281.9, 1.4, 3.6,0,0,1024,1024,1024,1024,0,0,0,0,272.7,-89.9,0,99,4.219,4.221,4.221,4.216,0,0,7.085,75.92,86.824795429312,33.136484,6,P-GPS,
27500,2023-06-01 18:40:23,52.2064026105453,0.086636395699083,33.136484,32.972442,53.852353429312,86.824795429312,31.824148,0,15.443570048,23.8312343584,24,5,16.879,88.465215429312,34.776904,5.816044,16.1704729584,0,0,0,281.7, 0.6, 3.8,0,0,1024,1024,1024,1024,0,0,0,0,272.7,-90,0,99,4.219,4.221,4.221,4.216,0,0,7.085,75.92,86.824795429312,33.136484,6,P-GPS,
27700,2023-06-01 18:40:23,52.20640257187,0.0866365387234821,33.136484,32.972442,53.852353429312,86.824795429312,31.824148,0,15.408629102,23.8662081128,25,5,16.879,88.465215429312,34.776904,5.816044,16.1704729584,0,0,0,281.7, 0.5, 3.4,0,0,1024,1024,1024,1024,0,0,0,0,272.7,-89.9,0,99,4.219,4.221,4.221,4.216,0,0,7.085,75.92,86.824795429312,33.136484,6,P-GPS,
27900,2023-06-01 18:40:23,52.2064025469124,0.0866366115217969,33.136484,32.972442,53.852353429312,86.824795429312,31.824148,0,15.3900267392,23.884843284,25,5,16.879,88.465215429312,34.776904,5.816044,16.1704729584,0,0,0,281.4, 1.1, 2.9,0,0,1024,1024,1024,1024,0,0,0,0,272.7,-90,0,99,4.219,4.221,4.221,4.216,0,0,7.085,75.92,86.824795429312,33.136484,6,P-GPS,
28100,2023-06-01 18:40:23,52.206402504926,0.086636612178834,33.136484,32.972442,53.852353429312,86.824795429312,31.824148,0,15.3832354004,23.9001648068,25,5,16.879,88.465215429312,34.776904,5.816044,16.1704729584,0,0,0,281.4, 2.2, 3.1,0,0,1024,1024,1024,1024,0,0,0,0,272.7,-89.9,0,99,4.219,4.221,4.221,4.216,0,0,7.085,75.92,86.824795429312,33.136484,6,P-GPS,
28300,2023-06-01 18:40:23,52.206402464443,0.0866366964752984,32.8084,32.644358,53.852353429312,86.496711429312,31.496064,0,15.3598430112,23.9241149388,25,5,16.888,88.465215429312,34.776904,5.816044,16.1704729584,0,0,0,281.3, 1.4, 2.8,0,0,1024,1024,1024,1024,0,0,0,0,272.7,-90,0,99,4.22,4.222,4.219,4.217,0,0,6.996,75.92,86.496711429312,32.8084,6,P-GPS,
28500,2023-06-01 18:40:24,52.2064024079614,0.0866368431064119,32.8084,32.644358,53.852353429312,86.496711429312,31.496064,0,15.3213915664,23.9628288508,25,5,16.888,88.465215429312,34.776904,5.816044,16.1704729584,0,0,0,281.6, 1.1, 2.7,0,0,1024,1024,1024,1024,0,0,0,0,272.7,-89.9,0,99,4.22,4.222,4.219,4.217,0,0,6.996,75.92,86.496711429312,32.8084,6,P-GPS,
28700,2023-06-01 18:40:24,52.2064022998491,0.0866370116574021,32.8084,32.644358,53.852353429312,86.496711429312,31.496064,0,15.270341696,24.01738922,25,5,16.888,88.465215429312,34.776904,5.816044,16.1704729584,0,0,0,281.4, 0.1, 3.7,0,0,1024,1024,1024,1024,0,0,0,0,272.7,-90,0,99,4.22,4.222,4.219,4.217,0,0,6.996,75.92,86.496711429312,32.8084,6,P-GPS,
28900,2023-06-01 18:40:24,52.2064021638644,0.0866370951849932,32.8084,32.644358,53.852353429312,86.496711429312,31.496064,0,15.23211991,24.0704075944,25,5,16.888,88.465215429312,34.776904,5.816044,16.1704729584,0,0,0,281.6, 1.1, 3.8,0,0,1024,1024,1024,1024,0,0,0,0,272.7,-89.9,0,99,4.22,4.222,4.219,4.217,0,0,6.996,75.92,86.496711429312,32.8084,6,P-GPS,
29100,2023-06-01 18:40:24,52.2064020062182,0.0866371506557014,32.8084,32.644358,53.852353429312,86.496711429312,31.496064,0,15.1962931372,24.1292330556,25,5,16.888,88.465215429312,34.776904,5.816044,16.1704729584,0,0,0,281.6, 0.4, 5.2,0,0,1024,1024,1024,1024,0,0,0,0,272.7,-90,0,99,4.22,4.222,4.219,4.217,0,0,6.996,75.92,86.496711429312,32.8084,6,P-GPS,
29300,2023-06-01 18:40:24,52.206401876694,0.0866371062427881,32.8084,32.644358,53.852353429312,86.496711429312,31.496064,0,15.1851710896,24.1775270204,25,5,16.87,88.465215429312,34.776904,5.816044,16.1704729584,0,0,0,281.9, 1.2, 6.1,0,0,1024,1024,1024,1024,0,0,0,0,272.7,-90,0,99,4.215,4.219,4.223,4.216,0,0,7.155,75.92,86.496711429312,32.8084,6,P-GPS,
29500,2023-06-01 18:40:25,52.2064017842624,0.0866370837217924,32.8084,32.644358,53.852353429312,86.496711429312,31.496064,0,15.1754598032,24.211614948,25,5,16.87,88.465215429312,34.776904,5.816044,16.1704729584,0,0,0,282.2, 1.4, 5.7,0,0,1024,1024,1024,1024,0,0,0,0,272.7,-90,0,99,4.215,4.219,4.223,4.216,0,0,7.155,75.92,86.496711429312,32.8084,6,P-GPS,
29700,2023-06-01 18:40:25,52.2064016704735,0.0866371745606689,33.136484,32.972442,53.852353429312,86.824795429312,31.16798,0,15.1395674136,24.2578419836,25,5,16.87,88.465215429312,34.776904,5.816044,16.1704729584,0,0,0,281.9, 0.3, 5.7,0,0,1024,1024,1024,1024,0,0,0,0,272.7,-90,0,99,4.215,4.219,4.223,4.216,0,0,7.155,75.92,86.824795429312,33.136484,6,P-GPS,
29900,2023-06-01 18:40:25,52.2064015551639,0.0866372290458215,33.136484,32.972442,53.852353429312,86.824795429312,31.496064,0,15.1108600636,24.3016411976,25,5,16.87,88.465215429312,34.776904,5.816044,16.1704729584,0,0,0,281.9, 0, 5.9,0,0,1024,1024,1024,1024,0,0,0,0,272.7,-90,0,99,4.215,4.219,4.223,4.216,0,0,7.155,75.92,86.824795429312,33.136484,6,P-GPS,
30100,2023-06-01 18:40:25,52.2064014403223,0.0866371970327363,33.136484,33.0052504,53.819545029312,86.824795429312,31.496064,0,15.099902058,24.344160884,25,5,16.87,88.465215429312,34.776904,5.816044,16.1704729584,0,0,0,281.8, 0.3, 6.7,0,0,1024,1024,1024,1024,0,0,0,0,272.7,-90,0,99,4.215,4.219,4.223,4.216,0,0,7.155,75.92,86.824795429312,33.136484,6,P-GPS,
30300,2023-06-01 18:40:25,52.2064013596006,0.0866371366342497,33.136484,33.0052504,53.819545029312,86.824795429312,31.824148,0,15.0999676748,24.3765427748,25,5,16.878,88.465215429312,34.776904,5.816044,16.1704729584,0,0,0,281.7, 0.8, 6.5,0,0,1024,1024,1024,1024,0,0,0,0,272.7,-89.9,0,99,4.22,4.221,4.225,4.218,0,0,7.051,75.92,86.824795429312,33.136484,6,P-GPS,
30500,2023-06-01 18:40:26,52.2064013395861,0.0866370579785189,33.136484,33.0052504,53.819545029312,86.824795429312,31.824148,0,15.1129598012,24.3956044552,25,5,16.878,88.465215429312,34.776904,5.816044,16.1704729584,0,0,0,281.9, 1.2, 6.2,0,0,1024,1024,1024,1024,0,0,0,0,272.7,-89.9,0,99,4.22,4.221,4.225,4.218,0,0,7.051,75.92,86.824795429312,33.136484,6,P-GPS,
30700,2023-06-01 18:40:26,52.206401383015,0.0866370054644778,33.136484,33.0052504,53.819545029312,86.824795429312,31.824148,0,15.1302170196,24.4153223036,25,5,16.878,88.465215429312,34.776904,5.816044,16.1704729584,0,0,0,282.1, 1.6, 5.4,0,0,1024,1024,1024,1024,0,0,0,0,272.7,-90,0,99,4.22,4.221,4.225,4.218,0,0,7.051,75.92,86.824795429312,33.136484,6,P-GPS,
30900,2023-06-01 18:40:26,52.2064014226167,0.0866370407907075,33.136484,33.0052504,53.819545029312,86.824795429312,31.824148,0,15.1290031088,24.4317921204,25,5,16.878,88.465215429312,34.776904,5.816044,16.1704729584,0,0,0,281.9, 1.2, 5.3,0,0,1024,1024,1024,1024,0,0,0,0,272.7,-90,0,99,4.22,4.221,4.225,4.218,0,0,7.051,75.92,86.824795429312,33.136484,6,P-GPS,
31100,2023-06-01 18:40:26,52.2064014712713,0.0866371405065749,33.136484,33.0052504,53.819545029312,86.824795429312,31.824148,0,15.1160765992,24.4602698116,25,5,16.878,88.465215429312,34.776904,5.816044,16.1704729584,0,0,0,281.8, 0.8, 5,0,0,1024,1024,1024,1024,0,0,0,0,272.7,-90,0,99,4.22,4.221,4.225,4.218,0,0,7.051,75.92,86.824795429312,33.136484,6,P-GPS,
31300,2023-06-01 18:40:26,52.2064014974872,0.0866372268789969,33.136484,33.0052504,53.819545029312,86.824795429312,31.824148,0,15.10252673,24.4818249304,25,5,16.871,88.465215429312,34.776904,5.816044,16.1704729584,0,0,0,281.9, 0.8, 5.2,0,0,1024,1024,1024,1024,0,0,0,0,272.7,-90,0,99,4.217,4.219,4.22,4.214,0,0,7.085,76.1,86.824795429312,33.136484,6,P-GPS,
31500,2023-06-01 18:40:27,52.2064015039862,0.0866372806232353,33.136484,32.972442,53.852353429312,86.824795429312,31.824148,0,15.0925857848,24.494095272,25,5,16.871,88.465215429312,34.776904,5.816044,16.1704729584,0,0,0,281.8, 1.2, 5.1,0,0,1024,1024,1024,1024,0,0,0,0,272.7,-90,0,99,4.217,4.219,4.22,4.214,0,0,7.085,76.1,86.824795429312,33.136484,6,P-GPS,
31700,2023-06-01 18:40:27,52.2064014705689,0.0866373247006403,33.136484,33.0052504,53.819545029312,86.824795429312,31.824148,0,15.0785437896,24.5097448788,25,5,16.871,88.465215429312,34.776904,5.816044,16.1704729584,0,0,0,282, 1.4, 5.6,0,0,1024,1024,1024,1024,0,0,0,0,272.7,-89.9,0,99,4.217,4.219,4.22,4.214,0,0,7.085,76.1,86.824795429312,33.136484,6,P-GPS,
31900,2023-06-01 18:40:27,52.2064014525794,0.0866373988759371,33.136484,33.0052504,53.819545029312,86.824795429312,31.824148,0,15.0607288284,24.5275926484,25,5,16.871,88.465215429312,34.776904,5.816044,16.1704729584,0,0,0,282, 1.7, 4.8,0,0,1024,1024,1024,1024,0,0,0,0,272.7,-90,0,99,4.217,4.219,4.22,4.214,0,0,7.085,76.1,86.824795429312,33.136484,6,P-GPS,
32100,2023-06-01 18:40:27,52.2064014232174,0.0866374908331747,33.136484,33.0052504,53.819545029312,86.824795429312,31.496064,0,15.037566098,24.5507881872,25,5,16.871,88.465215429312,34.776904,5.816044,16.1704729584,0,0,0,281.7, 1.8, 5.1,0,1,1024,1024,1024,1024,0,0,0,0,272.7,-89.9,0,99,4.217,4.219,4.22,4.214,0,0,7.085,76.1,86.824795429312,33.136484,6,P-GPS,
32300,2023-06-01 18:40:27,52.2064013955945,0.0866376153417086,33.136484,33.0052504,53.819545029312,86.824795429312,31.824148,0,15.0080713464,24.580381364,25,5,16.847,88.465215429312,34.776904,5.816044,16.1704729584,0,0,0,281.8, 1.7, 5.3,0,1,1024,1024,1024,1024,0,0,0,0,272.7,-90,0,99,4.214,4.216,4.215,4.212,0,0,7.221,76.1,86.824795429312,33.136484,6,P-GPS,
32500,2023-06-01 18:40:28,52.2064013677102,0.0866377795660395,33.136484,33.0052504,53.819545029312,86.824795429312,31.824148,0,14.97047292,24.6184719164,25,5,16.847,88.465215429312,34.776904,5.816044,16.1704729584,0,0,0,281.9, 1.7, 5,0,1,1024,1024,1024,1024,0,0,0,0,272.7,-89.9,0,99,4.214,4.216,4.215,4.212,0,0,7.221,76.1,86.824795429312,33.136484,6,P-GPS,
32700,2023-06-01 18:40:28,52.2064013478157,0.0866379982615434,33.136484,33.0052504,53.819545029312,86.824795429312,31.824148,0,14.9229991652,24.6679141752,25,5,16.847,88.465215429312,34.776904,5.816044,16.1704729584,0,0,0,281.7, 0.9, 4.9,0,1,1024,1024,1024,1024,0,0,0,0,272.7,-89.9,0,99,4.214,4.216,4.215,4.212,0,0,7.221,76.1,86.824795429312,33.136484,6,P-GPS,
32900,2023-06-01 18:40:28,52.206401330064,0.0866381704541967,33.136484,33.0052504,53.819545029312,86.824795429312,31.496064,0,14.885335122,24.7069561712,25,5,16.847,88.465215429312,34.776904,5.816044,16.1704729584,0,0,0,281.7, 1, 5.1,0,1,1024,1024,1024,1024,0,0,0,0,272.7,-89.9,0,99,4.214,4.216,4.215,4.212,0,0,7.221,76.1,86.824795429312,33.136484,6,P-GPS,
33100,2023-06-01 18:40:28,52.2064013174921,0.0866382962348664,33.136484,33.0052504,53.819545029312,86.824795429312,31.824148,0,14.8578744912,24.7354666708,25,5,16.847,88.465215429312,34.776904,5.816044,16.1704729584,0,0,0,281.9, 1.3, 5,0,1,1024,1024,1024,1024,0,0,0,0,272.7,-90,0,99,4.214,4.216,4.215,4.212,0,0,7.221,76.1,86.824795429312,33.136484,6,P-GPS,
33300,2023-06-01 18:40:28,52.2064012935037,0.0866384685393558,33.136484,33.0052504,53.819545029312,86.824795429312,31.496064,0,14.819226196,24.7749679844,25,5,16.861,88.465215429312,34.776904,5.816044,16.1704729584,0,0,0,281.8, 0.8, 5.4,0,1,1024,1024,1024,1024,0,0,0,0,272.7,-89.9,0,99,4.215,4.219,4.219,4.214,0,0,7.265,76.1,86.824795429312,33.136484,6,P-GPS,
33500,2023-06-01 18:40:29,52.2064012794229,0.0866386614566375,33.136484,33.0052504,53.819545029312,86.824795429312,31.496064,0,14.7779532288,24.818406306,25,5,16.861,88.465215429312,34.776904,5.816044,16.1704729584,0,0,0,281.7, 0.3, 5.2,0,1,1024,1024,1024,1024,0,0,0,0,272.7,-90,0,99,4.215,4.219,4.219,4.214,0,0,7.265,76.1,86.824795429312,33.136484,6,P-GPS,
33700,2023-06-01 18:40:29,52.2064012433348,0.0866388059104418,33.136484,33.0052504,53.819545029312,86.824795429312,31.824148,0,14.743110708,24.8532816352,25,5,16.861,88.465215429312,34.776904,5.816044,16.1704729584,0,0,0,281.8, 0.4, 5.5,0,1,1024,1024,1024,1024,0,0,0,0,272.7,-90,0,99,4.215,4.219,4.219,4.214,0,0,7.265,76.1,86.824795429312,33.136484,6,P-GPS,
33900,2023-06-01 18:40:29,52.2064012006094,0.0866388785479922,33.136484,33.0052504,53.819545029312,86.824795429312,31.824148,0,14.7218180564,24.8757881976,25,5,16.861,88.465215429312,34.776904,5.816044,16.1704729584,0,0,0,281.8, 0.6, 5.7,0,1,1024,1024,1024,1024,0,0,0,0,272.7,-89.9,0,99,4.215,4.219,4.219,4.214,0,0,7.265,76.1,86.824795429312,33.136484,6,P-GPS,
34100,2023-06-01 18:40:29,52.2064011760534,0.0866389041619552,33.136484,33.0052504,53.819545029312,86.824795429312,31.496064,0,14.7128613632,24.8864181192,25,5,16.861,88.465215429312,34.776904,5.816044,16.1704729584,0,0,0,281.7, 1.1, 5.6,0,1,1024,1024,1024,1024,0,0,0,0,272.7,-89.9,0,99,4.215,4.219,4.219,4.214,0,0,7.265,76.1,86.824795429312,33.136484,6,P-GPS,
34300,2023-06-01 18:40:29,52.2064012056082,0.0866389249949247,33.136484,33.0052504,53.819545029312,86.824795429312,31.496064,0,14.7131566388,24.8981635264,25,5,16.86,88.465215429312,34.776904,5.816044,16.1704729584,0,0,0,281.8, 1.2, 5.2,0,1,1024,1024,1024,1024,0,0,0,0,272.7,-90,0,99,4.213,4.215,4.216,4.21,0,0,7.118,76.1,86.824795429312,33.136484,6,P-GPS,
