time(millisecond),datetime(utc),latitude,longitude,height_above_takeoff(feet),height_above_ground_at_drone_location(feet),ground_elevation_at_drone_location(feet),altitude_above_seaLevel(feet),height_sonar(feet),speed(mph),distance(feet),mileage(feet),satellites,gpslevel,voltage(v),max_altitude(feet),max_ascent(feet),max_speed(mph),max_distance(feet), xSpeed(mph), ySpeed(mph), zSpeed(mph), compass_heading(degrees), pitch(degrees), roll(degrees),isPhoto,isVideo,rc_elevator,rc_aileron,rc_throttle,rc_rudder,rc_elevator(percent),rc_aileron(percent),rc_throttle(percent),rc_rudder(percent),gimbal_heading(degrees),gimbal_pitch(degrees),gimbal_roll(degrees),battery_percent,voltageCell1,voltageCell2,voltageCell3,voltageCell4,voltageCell5,voltageCell6,current(A),battery_temperature(f),altitude(feet),ascent(feet),flycStateRaw,flycState,message
862700,2023-06-10 18:40:49,52.2063908936419,0.0867113140623854,0,0,53.721119829312,53.688311429312,0,0,0,0,25,5,0,53.688311429312,0,0,0,0,0,0,285, 4.9, 0.3,0,1,1024,1024,1024,1024,0,0,0,0,293.3,0,0,59,3.94,3.937,3.937,3.933,0,0,0,106.7,53.688311429312,0,41,Motors_Started,
862900,2023-06-10 18:40:49,52.2063908847259,0.0867113287740907,0,0,53.721119829312,53.688311429312,0,0,0.0046262140588,0.0046262140588,26,5,0,53.688311429312,0,0,0.0046262140588,0,0,0,285, 4.9, 0.3,0,1,1024,1024,1024,1024,0,0,0,0,293.3,0,0,59,3.94,3.937,3.937,3.933,0,0,0,106.7,53.688311429312,0,41,Motors_Started,
863100,2023-06-10 18:40:49,52.2063908750539,0.0867113375147903,0,0,53.721119829312,53.688311429312,0,0,0.0085726052612,0.0086600724556,26,5,0,53.688311429312,0,0,0.0085726052612,0,0,0,285, 4.9, 0.3,0,1,1024,1024,1024,1024,0,0,0,0,293.3,0,0,59,3.94,3.937,3.937,3.933,0,0,0,106.7,53.688311429312,0,41,Motors_Started,"Setting new Return-To-Home altitude to 26m (85 ft). Data Recorder File Index is 37. Setting new Maximum Flight Altitude to 120m (394 ft)"
863300,2023-06-10 18:40:49,52.2063908662813,0.0867113417453448,0,0,53.721119829312,53.688311429312,0,0,3.5102691412,0.0119975725624,26,5,0,53.688311429312,0,0,3.5102691412,0,0,0,285, 4.9, 0.3,0,1,1024,1024,1024,1024,0,0,0,0,293.3,0,0,59,3.94,3.937,3.937,3.933,0,0,0,106.7,53.688311429312,0,41,Motors_Started,
863500,2023-06-10 18:40:49,52.2063908587017,0.0867113738336028,0,0,53.721119829312,53.688311429312,0,0,3.512467304,0.0196865819948,26,5,0,53.688311429312,0,0,3.512467304,0,0,0,285, 4.9, 0.3,0,1,1024,1024,1024,1024,0,0,0,0,293.3,0,0,59,3.94,3.937,3.937,3.933,0,0,0,106.7,53.688311429312,0,41,Motors_Started,
863700,2023-06-10 18:40:50,52.2063908512335,0.0867113937212282,0,0,53.721119829312,53.688311429312,0,0,3.5130578552,0.0249016412168,26,5,0,53.688311429312,0,0,3.5130578552,0,0,0,285, 4.9, 0.2,0,1,1024,1024,1024,1024,0,0,0,0,293.3,0,0,59,3.94,3.937,3.937,3.933,0,0,0,106.7,53.688311429312,0,41,Motors_Started,
863900,2023-06-10 18:40:50,52.2063908450097,0.0867114084259437,0,0,53.721119829312,53.688311429312,0,0,3.513287514,0.0288973762528,26,5,0,53.688311429312,0,0,3.513287514,0,0,0,285, 4.9, 0.3,0,1,1024,1024,1024,1024,0,0,0,0,293.3,0,0,59,3.94,3.937,3.937,3.933,0,0,0,106.7,53.688311429312,0,41,Motors_Started,
864100,2023-06-10 18:40:50,52.2063908405656,0.0867114470828322,0,0,53.721119829312,53.688311429312,0,0,3.5173557556,0.037691274172,26,5,15.745,53.688311429312,0,0,3.5173557556,0,0,0,285, 4.9, 0.3,0,1,1024,1024,1024,1024,0,0,0,0,293.3,0,0,59,3.926,3.924,3.924,3.919,0,0,1.912,106.7,53.688311429312,0,41,Motors_Started,
864300,2023-06-10 18:40:50,52.2063908356439,0.0867114751257645,0,0,53.721119829312,53.688311429312,0,0,3.5198163856,0.044213256008,26,5,15.745,53.688311429312,0,0,3.5198163856,0,0,0,285, 4.9, 0.3,0,1,1024,1024,1024,1024,0,0,0,0,293.3,0,0,59,3.926,3.924,3.924,3.919,0,0,1.912,106.7,53.688311429312,0,11,AutoTakeoff,
864500,2023-06-10 18:40:51,52.2063908307543,0.0867114990989067,0,0,53.721119829312,53.688311429312,0,0,3.5217520812,0.049862534404,26,5,15.745,53.688311429312,0,0,3.5217520812,0,0,0,285, 4.9, 0.3,0,1,1024,1024,1024,1024,0,0,0,0,293.3,0,0,59,3.926,3.924,3.924,3.919,0,0,1.912,106.7,53.688311429312,0,11,AutoTakeoff,
864700,2023-06-10 18:40:51,52.2063908282206,0.0867115970604459,0,0,53.721119829312,53.688311429312,0,0,3.5346457824,0.0717847792,25,5,15.745,53.688311429312,0,0,3.5346457824,0,0,0,284.9, 1.3, 0.3,0,1,1024,1024,1024,1024,0,0,0,0,293.3,0,0,59,3.926,3.924,3.924,3.919,0,0,1.912,106.7,53.688311429312,0,11,AutoTakeoff,
864900,2023-06-10 18:40:51,52.2063908386037,0.0867117737511893,0,0,53.721119829312,53.688311429312,0,0,3.5623688804,0.111471788344,26,5,15.745,53.688311429312,0,0,3.5623688804,0,0,-0.671082,285.2, -2, 0.3,0,1,1024,1024,1024,1024,0,0,0,0,293.3,0,0,59,3.926,3.924,3.924,3.919,0,0,1.912,106.7,53.688311429312,0,11,AutoTakeoff,
865100,2023-06-10 18:40:51,52.2063908877265,0.0867117404834086,0.328084,0.328084,53.721119829312,54.016395429312,0.328084,0,3.5716536576,0.130876316524,25,5,15.657,54.016395429312,0.328084,0,3.5716536576,0,0,-0.894776,285.2, 1, -0.4,0,1,1024,1024,1024,1024,0,0,0,0,293.3,0,0,59,3.931,3.93,3.93,3.927,0,0,5.305,106.7,54.016395429312,0.328084,11,AutoTakeoff,
865300,2023-06-10 18:40:51,52.2063909015107,0.0867117073956144,0.656168,0.656168,53.721119829312,54.344479429312,0.656168,0,3.5709318728,0.139821854868,25,5,15.657,54.344479429312,0.656168,0,3.5716536576,0,0,-0.894776,285.2, 1, -0.4,0,1,1024,1024,1024,1024,0,0,0,0,293.3,0,0,59,3.931,3.93,3.93,3.927,0,0,5.305,106.7,54.344479429312,0.656168,11,AutoTakeoff,
865500,2023-06-10 18:40:52,52.206390871248,0.0867117844437804,0.984252,0.984252,53.721119829312,54.672563429312,0.984252,0,3.5731300356,0.16028379778,26,5,15.657,54.672563429312,0.984252,0,3.5731300356,0,0,-0.894776,285.3, 0.3, 0.3,0,1,1024,1024,1024,1024,0,0,0,0,293.3,0,0,59,3.931,3.93,3.93,3.927,0,0,5.305,106.7,54.672563429312,0.984252,11,AutoTakeoff,
865700,2023-06-10 18:40:52,52.2063907915349,0.0867118950515497,1.312336,1.312336,53.721119829312,55.000647429312,1.312336,0,3.5663058884,0.198459980104,26,5,15.657,55.000647429312,1.312336,0,3.5731300356,0,0,-0.894776,285.2, 0, 1.3,0,1,1024,1024,1024,1024,0,0,0,0,293.3,0,0,59,3.931,3.93,3.93,3.927,0,0,5.305,106.7,55.000647429312,1.312336,11,AutoTakeoff,
865900,2023-06-10 18:40:52,52.2063907527246,0.0867120077579955,1.64042,1.64042,53.721119829312,55.328731429312,1.64042,0,3.5715552324,0.22736549284,26,5,15.657,55.328731429312,1.64042,0,3.5731300356,0,0,-0.894776,285.2, -0.6, 1.4,0,1,1024,1024,1024,1024,0,0,0,0,293.3,0,0,59,3.931,3.93,3.93,3.927,0,0,5.305,106.7,55.328731429312,1.64042,11,AutoTakeoff,
866100,2023-06-10 18:40:52,52.2063907989753,0.0867121118181036,1.968504,1.968504,53.721119829312,55.656815429312,1.968504,0,3.5994423724,0.256106963576,26,5,15.657,55.656815429312,1.968504,0,3.5994423724,0,0,-0.894776,285.2, -0.7, 0.8,0,1,1024,1024,1024,1024,0,0,0,0,293.3,0,0,59,3.904,3.904,3.903,3.898,0,0,4.014,106.7,55.656815429312,1.968504,11,AutoTakeoff,"Home Point updated (Code: 3000001)"
866300,2023-06-10 18:40:52,52.2063908429,0.0867122053061939,2.296588,2.296588,53.721119829312,55.984899429312,2.296588,0,3.6251969664,0.282446203264,27,5,15.657,55.984899429312,2.296588,0,3.6251969664,0,0,-1.11847,285.2, -0.5, 0.5,0,1,1024,1024,1024,1024,0,0,0,0,293.3,0,0,59,3.904,3.904,3.903,3.898,0,0,4.014,106.7,55.984899429312,2.296588,11,AutoTakeoff,
866500,2023-06-10 18:40:53,52.206390914768,0.0867122894874138,2.624672,2.624672,53.721119829312,56.312983429312,2.624672,0,3.6573820068,0.314723107184,28,5,15.657,56.312983429312,2.624672,0,3.6573820068,0,0,-1.11847,285.2, -0.3, 0.1,0,1,1024,1024,1024,1024,0,0,0,0,293.3,0,0,59,3.904,3.904,3.903,3.898,0,0,4.014,106.7,56.312983429312,2.624672,11,AutoTakeoff,
866700,2023-06-10 18:40:53,52.2063909138706,0.0867123997526847,2.952756,2.952756,53.721119829312,56.641067429312,2.952756,0,3.6730972304,0.33937993212,28,5,15.657,56.641067429312,2.952756,0,3.6730972304,0,0,-1.11847,285.1, -0.3, -0.2,0,1,1024,1024,1024,1024,0,0,0,0,293.3,0,0,59,3.904,3.904,3.903,3.898,0,0,4.014,106.7,56.641067429312,2.952756,11,AutoTakeoff,
866900,2023-06-10 18:40:53,52.2063908750903,0.0867124719814086,3.28084,3.28084,53.721119829312,56.969151429312,3.28084,0,3.6728675716,0.36084974908,28,5,15.657,56.969151429312,3.28084,0,3.6730972304,0,0,-1.11847,285.1, 0, -0.3,0,1,1024,1024,1024,1024,0,0,0,0,293.3,0,0,59,3.904,3.904,3.903,3.898,0,0,4.014,106.7,56.969151429312,3.28084,11,AutoTakeoff,
867100,2023-06-10 18:40:53,52.2063908479824,0.0867125293953281,3.608924,3.608924,53.721119829312,57.297235429312,3.608924,0,3.6738190152,0.37705381784,28,5,15.589,57.297235429312,3.608924,0,3.6738190152,0,0,-0.894776,285.1, 0, 0,0,1,1024,1024,1024,1024,0,0,0,0,293.3,0,0,59,3.896,3.898,3.897,3.891,0,0,7.948,106.52,57.297235429312,3.608924,6,P-GPS,
867300,2023-06-10 18:40:53,52.2063908258861,0.0867125948876672,3.608924,3.608924,53.721119829312,57.297235429312,3.937008,0,3.6774279392,0.39376969764,28,5,15.589,57.297235429312,3.608924,0,3.6774279392,0,0,-0.223694,286.2, -0.1, 0.1,0,1,1024,1024,1024,1024,0,0,0,0,293.3,0,0,59,3.896,3.898,3.897,3.891,0,0,7.948,106.52,57.297235429312,3.608924,6,P-GPS,
867500,2023-06-10 18:40:54,52.2063907987097,0.0867126550782704,3.937008,3.937008,53.721119829312,57.625319429312,3.937008,0,3.6789043172,0.41048557744,28,5,15.589,57.625319429312,3.937008,0,3.6789043172,0,0,0,285.1, 0, 0,0,1,1024,1024,1024,1024,0,0,0,0,293.3,0,0,59,3.896,3.898,3.897,3.891,0,0,7.948,106.52,57.625319429312,3.937008,6,P-GPS,
867700,2023-06-10 18:40:54,52.2063908082875,0.0867127430724065,3.937008,3.937008,53.721119829312,57.625319429312,3.937008,0,3.6946195408,0.43046917388,29,5,15.589,57.625319429312,3.937008,0,3.6946195408,0,0,0,285, -0.1, 0,0,1,1024,1024,1024,1024,0,0,0,0,293.3,0,0,59,3.896,3.898,3.897,3.891,0,0,7.948,106.52,57.625319429312,3.937008,6,P-GPS,
867900,2023-06-10 18:40:54,52.2063908178332,0.0867128685736149,3.608924,3.608924,53.721119829312,57.297235429312,3.937008,0,3.7159450008,0.458743453,29,5,15.589,57.625319429312,3.937008,0,3.7159450008,0,0,0,284.9, -0.1, -0.3,0,1,1024,1024,1024,1024,0,0,0,0,293.3,0,0,59,3.896,3.898,3.897,3.891,0,0,7.948,106.52,57.297235429312,3.608924,6,P-GPS,
868100,2023-06-10 18:40:54,52.2063908149483,0.0867129840462597,3.608924,3.608924,53.721119829312,57.297235429312,3.937008,0,3.7325460512,0.48458334884,29,5,15.579,57.625319429312,3.937008,0,3.7325460512,0,0,0,284.9, -0.1, 0,0,1,1024,1024,1024,1024,0,0,0,0,293.3,0,0,59,3.896,3.898,3.896,3.901,0,0,8.16,106.52,57.297235429312,3.608924,6,P-GPS,
868300,2023-06-10 18:40:54,52.2063908128494,0.0867130956413331,3.937008,3.937008,53.721119829312,57.625319429312,3.937008,0,3.748851826,0.5095472604,29,5,15.579,57.625319429312,3.937008,0,3.748851826,0,0,0,284.9, -0.3, -0.2,0,1,1024,1024,1024,1024,0,0,0,0,293.3,0,0,59,3.896,3.898,3.896,3.901,0,0,8.16,106.52,57.625319429312,3.937008,6,P-GPS,
868500,2023-06-10 18:40:54,52.2063907906547,0.0867131992139052,3.937008,3.937008,53.721119829312,57.625319429312,3.937008,0,3.7586615376,0.53407810108,29,5,15.579,57.625319429312,3.937008,0,3.7586615376,0,0,0,284.8, -0.1, -0.5,0,1,1024,1024,1024,1024,0,0,0,0,293.3,0,0,59,3.896,3.898,3.896,3.901,0,0,8.16,106.52,57.625319429312,3.937008,6,P-GPS,
868700,2023-06-10 18:40:55,52.2063907966858,0.0867132707506424,3.937008,3.937008,53.721119829312,57.625319429312,3.937008,0,3.7711943464,0.55022639556,29,5,15.579,57.625319429312,3.937008,0,3.7711943464,0,0,0,284.8, -0.5, -0.6,0,1,1024,1024,1268,1024,0,0,37,0,293.3,0,0,59,3.896,3.898,3.896,3.901,0,0,8.16,106.52,57.625319429312,3.937008,6,P-GPS,
868900,2023-06-10 18:40:55,52.2063907429412,0.0867132909528072,3.937008,3.937008,53.721119829312,57.625319429312,3.937008,0,3.7600394904,0.57034778728,29,5,15.579,57.625319429312,3.937008,0,3.7711943464,0,0,0,284.9, 0, -0.4,0,1,1024,1024,1655,1024,0,0,96,0,293.3,0,0,59,3.896,3.898,3.896,3.901,0,0,8.16,106.52,57.625319429312,3.937008,6,P-GPS,
869100,2023-06-10 18:40:55,52.2063906688373,0.0867133442113122,3.937008,3.937008,53.721119829312,57.625319429312,4.265092,0,3.748687784,0.59989175148,29,5,15.579,57.625319429312,3.937008,0,3.7711943464,0,0,-1.342164,284.9, 0.1, 0,0,1,1024,1024,1652,1024,0,0,95,0,293.3,0,0,59,3.895,3.896,3.895,3.89,0,0,7.539,106.52,57.625319429312,3.937008,6,P-GPS,
869300,2023-06-10 18:40:55,52.2063905795571,0.0867134271186476,4.92126,4.92126,53.721119829312,58.609571429312,4.92126,0,3.7382219044,0.6373687868,29,5,15.579,58.609571429312,4.92126,0,3.7711943464,0,0,-3.579104,284.6, 0, -0.1,0,1,1024,1024,1640,1024,0,0,93,0,293.4,0,0,59,3.895,3.896,3.895,3.89,0,0,7.539,106.52,58.609571429312,4.92126,6,P-GPS,
869500,2023-06-10 18:40:55,52.2063904819905,0.0867135114955809,6.233596,6.2664044,53.688311429312,59.921907429312,6.56168,0,3.7261812216,0.677657502,29,5,15.579,59.921907429312,6.233596,0,3.7711943464,0,0,-6.039738,284.8, -0.6, 0,0,1,1024,1024,1024,1024,0,0,0,0,293.3,0,0,59,3.895,3.896,3.895,3.89,0,0,7.539,106.52,59.921907429312,6.233596,6,P-GPS,
869700,2023-06-10 18:40:56,52.2063903876301,0.0867134860039125,8.530184,8.5629924,53.688311429312,62.218495429312,8.530184,0,3.6978675724,0.71255251624,29,5,15.579,62.218495429312,8.530184,0,3.7711943464,0,0,-7.158208,284.7, -0.1, 0.4,0,1,1024,1024,1024,1024,0,0,0,0,293.3,0,0,59,3.895,3.896,3.895,3.89,0,0,7.539,106.52,62.218495429312,8.530184,6,P-GPS,
869900,2023-06-10 18:40:56,52.2063902795048,0.0867134918770615,10.170604,10.2034124,53.688311429312,63.858915429312,10.498688,0,3.6711615348,0.75202430228,29,5,15.579,63.858915429312,10.170604,0,3.7711943464,0,0,-5.368656,284.6, 0, 0.6,0,1,1024,1024,1223,1024,0,0,30,0,293.3,0,0,59,3.895,3.896,3.895,3.89,0,0,7.539,106.52,63.858915429312,10.170604,6,P-GPS,
870100,2023-06-10 18:40:56,52.2063901681305,0.0867134543123236,11.48294,11.5157484,53.688311429312,65.171251429312,11.811024,0,3.6368767568,0.79351708576,29,5,15.57,65.171251429312,11.48294,0,3.7711943464,0,0,-3.131716,284.6, 0.5, 0.9,0,1,1024,1024,1675,1024,0,0,99,0,293.3,0,0,59,3.893,3.894,3.892,3.883,0,0,7.822,106.7,65.171251429312,11.48294,6,P-GPS,
870300,2023-06-10 18:40:56,52.2063900994216,0.0867133490587133,12.467192,12.5000004,53.688311429312,66.155503429312,12.467192,0,3.602526362,0.82790028896,29,5,15.57,66.155503429312,12.467192,0,3.7711943464,0,0,-2.908022,284.8, 1.2, 0.6,0,1,1024,1024,1684,1023,0,0,100,-0,293.3,0,0,59,3.893,3.894,3.892,3.883,0,0,7.822,106.7,66.155503429312,12.467192,6,P-GPS,
870500,2023-06-10 18:40:56,52.206390068842,0.0867132960186384,13.451444,13.4842524,53.688311429312,67.139755429312,13.779528,0,3.5862533956,0.84418309788,29,5,15.57,67.139755429312,13.451444,0,3.7711943464,0,0,-4.921268,284.6, 1.8, 0.4,0,1,1024,1024,1684,1024,0,0,100,0,293.4,0,0,59,3.893,3.894,3.892,3.883,0,0,7.822,106.7,67.139755429312,13.451444,6,P-GPS,
870700,2023-06-10 18:40:57,52.2063900729327,0.0867133175174043,15.419948,15.4527564,53.688311429312,69.108259429312,15.748032,0,3.5907481464,0.84921590644,29,5,15.57,69.108259429312,15.419948,0,3.7711943464,0,0,-7.158208,284.6, 2.2, 0.2,0,1,1024,1024,1676,1024,0,0,99,0,293.3,0,0,59,3.893,3.894,3.892,3.883,0,0,7.822,106.7,69.108259429312,15.419948,6,P-GPS,
870900,2023-06-10 18:40:57,52.2063900801781,0.0867134705355653,19.356956,19.3897644,53.688311429312,73.045267429312,18.04462,0,3.6173557588,0.883530212,29,5,15.57,73.045267429312,19.356956,0,3.7711943464,0,0,-9.618842,284.5, 2, 0,0,1,1024,1024,1625,1024,0,0,91,0,293.3,0,0,59,3.893,3.894,3.892,3.883,0,0,7.822,106.7,73.045267429312,19.356956,6,P-GPS,
871100,2023-06-10 18:40:57,52.2063900553191,0.0867136539993897,22.96588,22.9986884,53.688311429312,76.654191429312,21.32546,0,3.6410434236,0.9255413682,29,5,15.443,76.654191429312,22.96588,0,3.7711943464,0,0,-10.961006,284.6, 1.2, 0.1,0,1,1024,1024,1587,1024,0,0,85,0,293.3,0,0,59,3.891,3.893,3.896,3.899,0,0,12.317,106.7,76.654191429312,22.96588,6,P-GPS,
871300,2023-06-10 18:40:57,52.2063900372728,0.0867137345424376,25.918636,25.9514444,53.688311429312,79.606947429312,24.934384,0,3.6498032664,0.944717878,29,5,15.443,79.606947429312,25.918636,0,3.7711943464,0,0,-10.513618,284.4, 1, 1.4,0,1,1024,1024,1596,1024,0,0,87,0,293.3,0,0,59,3.891,3.893,3.896,3.899,0,0,12.317,106.7,79.606947429312,25.918636,6,P-GPS,
871500,2023-06-10 18:40:58,52.2063899821447,0.0867135760512916,28.871392,28.9042004,53.688311429312,82.559703429312,27.88714,0,3.6101051024,0.98546262996,29,5,15.443,82.559703429312,28.871392,0,3.7711943464,0,0,-9.618842,284.8, 2.9, 2.3,0,1,1024,1024,1332,1024,0,0,47,0,293.4,0,0,59,3.891,3.893,3.896,3.899,0,0,12.317,106.7,82.559703429312,28.871392,6,P-GPS,
871700,2023-06-10 18:40:58,52.2063899444631,0.0867133373980399,31.824148,31.8569564,53.688311429312,85.512459429312,30.839896,0.223694,3.5617127124,1.04056433776,29,5,15.443,85.512459429312,31.824148,0.223694,3.7711943464,0,-0.223694,-9.618842,284.8, 4.9, 3.1,0,1,1024,1024,1024,1024,0,0,0,0,293.3,0,0,59,3.891,3.893,3.896,3.899,0,0,12.317,106.7,85.512459429312,31.824148,6,P-GPS,
871900,2023-06-10 18:40:58,52.2063899790199,0.0867131844497767,34.120736,34.1535444,53.688311429312,87.809047429312,33.464568,0,3.5455709796,1.07701447016,29,5,15.443,87.809047429312,34.120736,0.223694,3.7711943464,0,0,-7.82929,284.9, 6.9, 3.9,0,1,1024,1024,1024,1024,0,0,0,0,293.3,0,0,59,3.891,3.893,3.896,3.899,0,0,12.317,106.7,87.809047429312,34.120736,6,P-GPS,
872100,2023-06-10 18:40:58,52.2063900779272,0.0867131282747927,35.761156,35.7939644,53.688311429312,89.449467429312,35.433072,0,3.5616142872,1.1152231328,29,5,15.408,89.449467429312,35.761156,0.223694,3.7711943464,0,0,-5.59235,284.9, 6.8, 3.4,0,1,1024,1024,1024,1024,0,0,0,0,293.3,0,0,59,3.841,3.846,3.845,3.834,0,0,10.8,106.34,89.449467429312,35.761156,6,P-GPS,
872300,2023-06-10 18:40:58,52.206390196714,0.0867131916702026,36.417324,36.4501324,53.688311429312,90.105635429312,36.745408,0,3.6020998528,1.16082024712,29,5,15.408,90.105635429312,36.417324,0.223694,3.7711943464,0,0,-3.131716,284.9, 7, 2.5,0,1,1024,1024,1024,1024,0,0,0,0,293.3,0,0,59,3.841,3.846,3.845,3.834,0,0,10.8,106.34,90.105635429312,36.417324,6,P-GPS,
872500,2023-06-10 18:40:59,52.2063903474919,0.086713293813368,36.745408,36.7782164,53.688311429312,90.433719429312,37.401576,0,3.6570539228,1.22038389732,29,5,15.408,90.433719429312,36.745408,0.223694,3.7711943464,0,0,-0.894776,284.8, 6.2, 0.5,0,1,1024,1024,1024,1024,0,0,0,0,293.3,0,0,59,3.841,3.846,3.845,3.834,0,0,10.8,106.34,90.433719429312,36.745408,6,P-GPS,
872700,2023-06-10 18:40:59,52.2063904300921,0.0867135154238282,36.745408,36.7782164,53.688311429312,90.433719429312,35.104988,0,3.7134515624,1.278379306,29,5,15.408,90.433719429312,36.745408,0.223694,3.7711943464,0,0,0,284.5, 4.1, -1.9,0,1,1024,1024,1024,1024,0,0,0,0,293.3,0,0,59,3.841,3.846,3.845,3.834,0,0,10.8,106.34,90.433719429312,36.745408,6,P-GPS,
872900,2023-06-10 18:40:59,52.2063903696524,0.0867136758284219,36.745408,36.7782164,53.688311429312,90.433719429312,35.104988,0,3.723589358,1.32047904488,29,5,15.408,90.433719429312,36.745408,0.223694,3.7711943464,0,0,0,284, 3.2, -3.2,0,1,1024,1024,1024,1024,0,0,0,0,293.3,0,0,59,3.841,3.846,3.845,3.834,0,0,10.8,106.34,90.433719429312,36.745408,6,P-GPS,
873100,2023-06-10 18:40:59,52.2063899961559,0.0867136434990171,36.745408,36.7782164,53.688311429312,90.433719429312,35.104988,0.223694,3.6246392236,1.45694230384,29,5,15.464,90.433719429312,36.745408,0.223694,3.7711943464,-0.223694,0,0,283.9, 2.6, -2,0,1,1024,1024,800,1024,0,0,-34,0,293.3,0,0,59,3.893,3.892,3.892,3.886,0,0,10.81,107.06,90.433719429312,36.745408,6,P-GPS,
873300,2023-06-10 18:40:59,52.2063894071841,0.0867134895267534,36.745408,36.7782164,53.688311429312,90.433719429312,35.104988,0.223694,3.4562665148,1.67456698272,29,5,15.464,90.433719429312,36.745408,0.223694,3.7711943464,-0.223694,0,0,284.1, 2.6, 0.1,0,1,1024,1024,364,1022,0,0,-100,-0,293.3,0,0,59,3.893,3.892,3.892,3.886,0,0,10.81,107.06,90.433719429312,36.745408,6,P-GPS,
873500,2023-06-10 18:41:00,52.2063887215067,0.0867131309955583,36.417324,36.4501324,53.688311429312,90.105635429312,35.104988,0.223694,3.23590233452,1.93726712236,29,5,15.464,90.433719429312,36.745408,0.223694,3.7711943464,-0.223694,0,1.342164,284.6, 4.1, 2.7,0,1,1024,1024,364,1012,0,0,-100,-2,293.3,0,0,59,3.893,3.892,3.892,3.886,0,0,10.81,107.06,90.105635429312,36.417324,6,P-GPS,
873700,2023-06-10 18:41:00,52.2063880717182,0.0867127047947126,35.761156,35.7939644,53.688311429312,89.449467429312,34.44882,0.223694,3.01755587084,2.19277566072,29,5,15.464,90.433719429312,36.745408,0.223694,3.7711943464,-0.223694,0,3.35541,285.1, 2.9, 3.1,0,1,1024,1024,726,1024,0,0,-45,0,293.3,0,0,59,3.893,3.892,3.892,3.886,0,0,10.81,107.06,89.449467429312,35.761156,6,P-GPS,
873900,2023-06-10 18:41:00,52.2063874627962,0.0867123231588533,34.44882,34.4816284,53.688311429312,88.137131429312,33.136484,0.223694,2.82195219004,2.43076451348,29,5,15.464,90.433719429312,36.745408,0.223694,3.7711943464,-0.223694,0,4.921268,285.4, 2.4, 3.8,0,1,1024,1024,502,1024,0,0,-79,0,293.3,0,0,59,3.893,3.892,3.892,3.886,0,0,10.81,107.06,88.137131429312,34.44882,6,P-GPS,
874100,2023-06-10 18:41:00,52.206386977844,0.0867119341592779,32.8084,32.8412084,53.688311429312,86.496711429312,31.824148,0,2.65473105608,2.6279200316,29,5,15.563,90.433719429312,36.745408,0.223694,3.7711943464,0,0,4.921268,284.7, 1.1, 3,0,1,1024,1024,1024,1024,0,0,0,0,293.3,0,0,59,3.884,3.887,3.888,3.879,0,0,5.233,106.88,86.496711429312,32.8084,6,P-GPS,
874300,2023-06-10 18:41:00,52.2063866617651,0.0867114169167593,31.496064,31.5288724,53.688311429312,85.184375429312,30.511812,0,2.49671595916,2.7912402468,29,5,15.563,90.433719429312,36.745408,0.223694,3.7711943464,0,0,4.026492,284.5, 2.2, 2.4,0,1,1024,1024,1024,1024,0,0,0,0,293.3,0,0,59,3.884,3.887,3.888,3.879,0,0,5.233,106.88,85.184375429312,31.496064,6,P-GPS,
874500,2023-06-10 18:41:01,52.2063863518117,0.0867109363128348,30.839896,30.8727044,53.688311429312,84.528207429312,29.52756,0,2.347687083,2.94723762712,29,5,15.563,90.433719429312,36.745408,0.223694,3.7711943464,0,0,2.013246,284.2, 4.4, 2.1,0,1,1000,1024,1024,1024,-4,0,0,0,293.3,0,0,59,3.884,3.887,3.888,3.879,0,0,5.233,106.88,84.528207429312,30.839896,6,P-GPS,
874700,2023-06-10 18:41:01,52.2063860824076,0.0867105961350118,30.511812,30.5446204,53.688311429312,84.200123429312,29.199476,0,2.23430781428,3.071522408,29,5,15.563,90.433719429312,36.745408,0.223694,3.7711943464,0,0,0.223694,285.2, 6.7, 2.2,0,1,1003,1684,1024,1024,-3,100,0,0,293.3,0,0,59,3.884,3.887,3.888,3.879,0,0,5.233,106.88,84.200123429312,30.511812,6,P-GPS,
874900,2023-06-10 18:41:01,52.2063858183278,0.0867105054777758,30.511812,30.5446204,53.688311429312,84.200123429312,29.855644,0,2.17325138188,3.1699804164,29,5,15.563,90.433719429312,36.745408,0.223694,3.7711943464,0,0,0,284.6, 0.4, 6.5,0,1,984,1684,1024,1024,-6,100,0,0,293.3,0,0,59,3.884,3.887,3.888,3.879,0,0,5.233,106.88,84.200123429312,30.511812,6,P-GPS,
875100,2023-06-10 18:41:01,52.2063857942655,0.0867102549244513,30.511812,30.5446204,53.688311429312,84.200123429312,30.511812,0.223694,2.11895019904,3.22668317412,29,5,15.609,90.433719429312,36.745408,0.223694,3.7711943464,0.223694,0,0,285.4, 2.7, 13,0,1,1024,1611,1024,1024,0,89,0,0,293.3,0,0,58,3.895,3.895,3.895,3.888,0,0,6.103,107.24,84.200123429312,30.511812,6,P-GPS,
875300,2023-06-10 18:41:01,52.2063863573737,0.0867101311601992,30.511812,30.5446204,53.688311429312,84.200123429312,30.839896,0.894776,2.19255912528,3.4339896112,29,5,15.609,90.433719429312,36.745408,0.894776,3.7711943464,0.894776,0,0,285.7, 3.1, 12.9,0,1,1024,1684,1024,1024,0,100,0,0,293.4,0,0,58,3.895,3.895,3.895,3.888,0,0,6.103,107.24,84.200123429312,30.511812,6,P-GPS,
875500,2023-06-10 18:41:02,52.2063875491637,0.0867102451894578,30.511812,30.5446204,53.688311429312,84.200123429312,31.16798,1.789552,2.46486556444,3.8695539296,29,5,15.609,90.433719429312,36.745408,1.789552,3.7711943464,1.789552,0,0,285.3, 3.3, 20.7,0,1,1024,1320,1024,1024,0,45,0,0,293.3,0,0,58,3.895,3.895,3.895,3.888,0,0,6.103,107.24,84.200123429312,30.511812,6,P-GPS,
875700,2023-06-10 18:41:02,52.2063897761808,0.08671076676563,30.511812,30.5446204,53.688311429312,84.200123429312,31.16798,3.3777794,3.12033474552,4.6904200976,29,5,15.609,90.433719429312,36.745408,3.3777794,3.7711943464,3.35541,0.447388,0,284.2, 3.6, 26.9,0,1,1024,1024,1024,1024,0,0,0,0,293.3,0,0,58,3.895,3.895,3.895,3.888,0,0,6.103,107.24,84.200123429312,30.511812,6,P-GPS,
875900,2023-06-10 18:41:02,52.2063934077175,0.0867118951878501,30.511812,30.511812,53.721119829312,84.200123429312,31.496064,5.2120702,4.3445867532,6.0391734216,29,5,15.609,90.433719429312,36.745408,5.2120702,4.3445867532,5.144962,0.894776,0,283.6, 3.9, 16.4,0,1,1024,1024,1036,1024,0,0,2,0,293.3,0,0,58,3.895,3.895,3.895,3.888,0,0,6.103,107.24,84.200123429312,30.511812,6,P-GPS,
876100,2023-06-10 18:41:02,52.2063977829425,0.0867133697117178,30.511812,30.4461952,53.786736629312,84.200123429312,31.496064,5.0107456,5.9035106876,7.6691603504,29,5,15.446,90.433719429312,36.745408,5.2120702,5.9035106876,4.921268,0.894776,0,284.4, 2.8, -22.3,0,1,1024,1024,1047,1024,0,0,3,0,293.3,0,0,58,3.873,3.878,3.88,3.872,0,0,10.724,107.06,84.200123429312,30.511812,6,P-GPS,
876300,2023-06-10 18:41:02,52.206400889815,0.0867142914448759,30.511812,30.4133868,53.819545029312,84.200123429312,29.855644,2.7290668,7.0188322456,8.8212929332,29,5,15.446,90.433719429312,36.745408,5.2120702,7.0188322456,2.684328,0.447388,0,286.1, 3.8, -27.4,0,1,1024,1024,1069,1024,0,0,7,0,293.4,0,0,58,3.873,3.878,3.88,3.872,0,0,10.724,107.06,84.200123429312,30.511812,6,P-GPS,
876500,2023-06-10 18:41:03,52.2064021385728,0.0867143989037566,30.511812,30.3805784,53.852353429312,84.200123429312,29.855644,0.671082,7.4477036504,9.2775265436,28,5,15.446,90.433719429312,36.745408,5.2120702,7.4477036504,0.671082,0,0,286, 5.5, -11.7,0,1,1024,1024,1051,750,0,0,4,-42,293.4,0,0,58,3.873,3.878,3.88,3.872,0,0,10.724,107.06,84.200123429312,30.511812,6,P-GPS,
876700,2023-06-10 18:41:03,52.2064023228045,0.0867142413667134,30.511812,30.3805784,53.852353429312,84.200123429312,29.855644,0,7.4966865916,9.3534123728,28,5,15.446,90.433719429312,36.745408,5.2120702,7.4966865916,0,0,0,285.3, 6.2, -3.8,0,1,1024,1024,1024,545,0,0,0,-73,293.2,0,0,58,3.873,3.878,3.88,3.872,0,0,10.724,107.06,84.200123429312,30.511812,6,P-GPS,
876900,2023-06-10 18:41:03,52.2064020509888,0.086714155955295,30.511812,30.3805784,53.852353429312,84.200123429312,30.183728,0.223694,7.3975724152,9.4544294364,29,5,15.446,90.433719429312,36.745408,5.2120702,7.4966865916,-0.223694,0,0,284.6, 3.4, 0.7,0,1,1024,1024,1024,364,0,0,0,-100,289.7,0,0,58,3.873,3.878,3.88,3.872,0,0,10.724,107.06,84.200123429312,30.511812,6,P-GPS,
877100,2023-06-10 18:41:03,52.206401649123,0.0867140551314476,30.839896,30.7086624,53.852353429312,84.528207429312,30.511812,0.223694,7.2533138804,9.6027562128,29,5,15.489,90.433719429312,36.745408,5.2120702,7.4966865916,-0.223694,0,0,280.7, 3, 2.5,0,1,1024,1024,1024,364,0,0,0,-100,279.7,0,0,58,3.87,3.872,3.875,3.868,0,0,8.657,107.06,84.528207429312,30.839896,6,P-GPS,
877300,2023-06-10 18:41:03,52.2064013265054,0.0867139587670694,30.839896,30.7414708,53.819545029312,84.528207429312,30.511812,0.223694,7.1362863176,9.7224084476,29,5,15.489,90.433719429312,36.745408,5.2120702,7.4966865916,-0.223694,0,0,269.9, 3.5, 3.5,0,1,1024,1024,1024,1024,0,0,0,0,267.8,0,0,58,3.87,3.872,3.875,3.868,0,0,8.657,107.06,84.528207429312,30.839896,6,P-GPS,
877500,2023-06-10 18:41:03,52.2064011506778,0.0867138827306717,30.839896,30.7414708,53.819545029312,84.528207429312,30.839896,0,7.070538284,9.7887798408,29,5,15.489,90.433719429312,36.745408,5.2120702,7.4966865916,0,0,0,257.9, 4.1, 3.3,0,1,1024,1024,1024,913,0,0,0,-17,263,0,0,58,3.87,3.872,3.875,3.868,0,0,8.657,107.06,84.528207429312,30.839896,6,P-GPS,
877700,2023-06-10 18:41:04,52.206401211276,0.0867137585697505,30.839896,30.7414708,53.819545029312,84.528207429312,31.16798,0.223694,7.0803479956,9.8242785296,29,5,15.489,90.433719429312,36.745408,5.2120702,7.4966865916,0.223694,0,0,254.4, 3.9, 1.4,0,1,1024,1024,934,425,0,0,-14,-91,262.4,0,0,58,3.87,3.872,3.875,3.868,0,0,8.657,107.06,84.528207429312,30.839896,6,P-GPS,
877900,2023-06-10 18:41:04,52.2064014062421,0.0867136102609429,30.839896,30.7414708,53.819545029312,84.528207429312,31.16798,0.223694,7.1337928792,9.9027562224,29,5,15.489,90.433719429312,36.745408,5.2120702,7.4966865916,0.223694,0,0,254.2, 4.7, -1.2,0,1,1024,1024,968,395,0,0,-8,-95,256.2,0,0,58,3.87,3.872,3.875,3.868,0,0,8.657,107.06,84.528207429312,30.839896,6,P-GPS,
878100,2023-06-10 18:41:04,52.206401660654,0.0867135564817005,30.511812,30.3805784,53.852353429312,84.200123429312,31.496064,0.223694,7.2155842204,9.9963585876,29,5,15.498,90.433719429312,36.745408,5.2120702,7.4966865916,0.223694,0,0.447388,246.3, 3.7, -2.9,0,1,1024,1024,641,1024,0,0,-58,0,247.3,0,0,58,3.875,3.879,3.878,3.872,0,0,8.799,107.06,84.200123429312,30.511812,6,P-GPS,
878300,2023-06-10 18:41:04,52.2064018732937,0.0867135702620198,30.511812,30.3805784,53.852353429312,84.200123429312,31.16798,0.223694,7.2889438028,10.073983262,29,5,15.498,90.433719429312,36.745408,5.2120702,7.4966865916,0.223694,0,0.223694,237.1, 2.6, -3.5,0,1,1024,1024,364,1024,0,0,-100,0,246.3,0,0,58,3.875,3.879,3.878,3.872,0,0,8.799,107.06,84.200123429312,30.511812,6,P-GPS,
878500,2023-06-10 18:41:05,52.2064020412825,0.0867136379875884,30.511812,30.3805784,53.852353429312,84.200123429312,31.16798,0.223694,7.3515750384,10.137139432,29,5,15.498,90.433719429312,36.745408,5.2120702,7.4966865916,0.223694,0,0.671082,237.4, 2.9, -2.5,0,1,1024,1024,364,1001,0,0,-100,-3,246.3,0,0,58,3.875,3.879,3.878,3.872,0,0,8.799,107.06,84.200123429312,30.511812,6,P-GPS,
878700,2023-06-10 18:41:05,52.206402197419,0.0867137238183925,29.855644,29.7244104,53.852353429312,83.543955429312,30.511812,0,7.4116144104,10.1972444208,29,5,15.498,90.433719429312,36.745408,5.2120702,7.4966865916,0,0,2.684328,237.4, 2.2, -3.3,0,1,1024,1024,364,1008,0,0,-100,-2,246.3,0,0,58,3.875,3.879,3.878,3.872,0,0,8.799,107.06,83.543955429312,29.855644,6,P-GPS,
878900,2023-06-10 18:41:05,52.2064023020769,0.0867138543801899,28.543308,28.4120744,53.852353429312,82.231619429312,29.199476,0,7.4577758292,10.2453087268,29,5,15.498,90.433719429312,36.745408,5.2120702,7.4966865916,0,0,4.026492,237.3, 1.4, -2.8,0,1,1024,1024,364,1011,0,0,-100,-2,246.3,0,0,58,3.875,3.879,3.878,3.872,0,0,8.799,107.06,82.231619429312,28.543308,6,P-GPS,
879100,2023-06-10 18:41:05,52.2064023924322,0.0867140495763328,27.559056,27.4278224,53.852353429312,81.247367429312,27.88714,0,7.504429374,10.3000003296,29,5,15.506,90.433719429312,36.745408,5.2120702,7.504429374,0,0,4.250186,237.5, 0.8, -2.2,0,1,1024,1024,1024,1024,0,0,0,0,246.3,0,0,58,3.876,3.879,3.878,3.873,0,0,8.008,107.24,81.247367429312,27.559056,6,P-GPS,
879300,2023-06-10 18:41:05,52.2064024188141,0.0867142502839045,26.24672,26.1154864,53.852353429312,79.935031429312,26.574804,0,7.5299543092,10.3458992812,29,5,15.506,90.433719429312,36.745408,5.2120702,7.5299543092,0,0,3.802798,238, -1.6, -0.7,0,1,1024,1024,1024,1024,0,0,0,0,246.3,0,0,58,3.876,3.879,3.878,3.873,0,0,8.008,107.24,79.935031429312,26.24672,6,P-GPS,
879500,2023-06-10 18:41:06,52.20640236124,0.086714079025955,25.590552,25.4593184,53.852353429312,79.278863429312,25.590552,0,7.4962600824,10.3895672616,29,5,15.506,90.433719429312,36.745408,5.2120702,7.5299543092,0,0,1.789552,238.8, 0.2, -2.5,0,1,1024,1024,1053,1024,0,0,4,0,246.3,0,0,58,3.876,3.879,3.878,3.873,0,0,8.008,107.24,79.278863429312,25.590552,6,P-GPS,
879700,2023-06-10 18:41:06,52.2064022269406,0.0867137042173475,25.262468,25.1312344,53.852353429312,78.950779429312,25.262468,0,7.4200789776,10.4866473172,29,5,15.506,90.433719429312,36.745408,5.2120702,7.5299543092,0,0,0.447388,237.3, 7.1, -4.8,0,1,1024,1024,1573,1024,0,0,83,0,246.3,0,0,58,3.876,3.879,3.878,3.873,0,0,8.008,107.24,78.950779429312,25.262468,6,P-GPS,
879900,2023-06-10 18:41:06,52.2064020870727,0.0867137410341807,25.262468,25.1312344,53.852353429312,78.950779429312,25.262468,0.223694,7.375492362,10.5383533556,29,5,15.506,90.433719429312,36.745408,5.2120702,7.5299543092,0,0.223694,-0.894776,237.7, 4.5, -1.9,0,1,1024,1024,1628,1024,0,0,92,0,246.3,0,0,58,3.876,3.879,3.878,3.873,0,0,8.008,107.24,78.950779429312,25.262468,6,P-GPS,
880100,2023-06-10 18:41:06,52.2064020415053,0.0867140082930406,26.24672,26.1154864,53.852353429312,79.935031429312,25.918636,0,7.3820212336,10.6003612316,29,5,15.577,90.433719429312,36.745408,5.2120702,7.5299543092,0,0,-3.35541,237.2, 2.4, -1.2,0,1,1024,1024,1684,1024,0,0,100,0,246.3,0,0,58,3.887,3.889,3.889,3.883,0,0,6.386,107.42,79.935031429312,26.24672,6,P-GPS,
880300,2023-06-10 18:41:06,52.206402066435,0.0867142132888323,27.559056,27.4278224,53.852353429312,81.247367429312,27.559056,0,7.4076117856,10.6470803932,29,5,15.577,90.433719429312,36.745408,5.2120702,7.5299543092,0,0,-5.816044,237.2, 2.8, -2.6,0,1,1024,1024,793,1024,0,0,-35,0,246.3,0,0,58,3.887,3.889,3.889,3.883,0,0,6.386,107.42,81.247367429312,27.559056,6,P-GPS,
880500,2023-06-10 18:41:07,52.206402029216,0.0867144089567843,29.855644,29.7244104,53.852353429312,83.543955429312,29.52756,0,7.4116800272,10.692913728,29,5,15.577,90.433719429312,36.745408,5.2120702,7.5299543092,0,0,-8.052984,237, 2.4, -2.3,0,1,1024,1024,1024,1024,0,0,0,0,246.3,0,0,58,3.887,3.889,3.889,3.883,0,0,6.386,107.42,83.543955429312,29.855644,6,P-GPS,
880700,2023-06-10 18:41:07,52.2064019856318,0.0867145380122876,32.152232,32.0209984,53.852353429312,85.840543429312,31.824148,0,7.4081039116,10.7258533616,29,5,15.577,90.433719429312,36.745408,5.2120702,7.5299543092,0,0,-7.158208,236.8, 3.6, -2.8,0,1,1024,1024,1024,1024,0,0,0,0,246.3,0,0,58,3.887,3.889,3.889,3.883,0,0,6.386,107.42,85.840543429312,32.152232,6,P-GPS,
880900,2023-06-10 18:41:07,52.2064018646325,0.0867146170822427,33.792652,33.6614184,53.852353429312,87.480963429312,33.792652,0,7.3742784512,10.7733927332,29,5,15.577,90.433719429312,36.745408,5.2120702,7.5299543092,0,0,-5.144962,236.8, 3.1, -1.5,0,1,1024,1024,1428,1024,0,0,61,0,246.3,0,0,58,3.887,3.889,3.889,3.883,0,0,6.386,107.42,87.480963429312,33.792652,6,P-GPS,
881100,2023-06-10 18:41:07,52.2064017818503,0.086714546122161,34.776904,34.6456704,53.852353429312,88.465215429312,35.104988,0,7.3402889488,10.8075134692,28,5,15.441,90.433719429312,36.745408,5.2120702,7.5299543092,0,0,-2.908022,237, 4.6, -1.6,0,1,1024,1024,1684,1024,0,0,100,0,246.3,0,0,58,3.839,3.847,3.847,3.842,0,0,9.952,107.06,88.465215429312,34.776904,6,P-GPS,
881300,2023-06-10 18:41:07,52.2064017702079,0.0867143761520755,35.761156,35.6299224,53.852353429312,89.449467429312,35.761156,0,7.3216209692,10.8457680636,29,5,15.441,90.433719429312,36.745408,5.2120702,7.5299543092,0,0,-3.579104,237.4, 3.6, -1,0,1,1024,1024,1088,1024,0,0,10,0,246.3,0,0,58,3.839,3.847,3.847,3.842,0,0,9.952,107.06,89.449467429312,35.761156,6,P-GPS,
881500,2023-06-10 18:41:08,52.2064018033662,0.0867141211427766,37.401576,37.2703424,53.852353429312,91.089887429312,35.104988,0,7.3109910476,10.904035782,29,5,15.441,91.089887429312,37.401576,5.2120702,7.5299543092,0,0,-5.144962,237, 6, -3.1,0,1,1024,1024,1024,1024,0,0,0,0,246.3,0,0,58,3.839,3.847,3.847,3.842,0,0,9.952,107.06,91.089887429312,37.401576,6,P-GPS,
881700,2023-06-10 18:41:08,52.2064019743791,0.0867139323544996,38.057744,37.9265104,53.852353429312,91.746055429312,36.417324,0,7.3529857996,10.9793638684,29,5,15.441,91.746055429312,38.057744,5.2120702,7.5299543092,0,0,-3.35541,237.3, 6.8, -4.9,0,1,1024,1154,1024,1024,0,20,0,0,246.3,0,0,58,3.839,3.847,3.847,3.842,0,0,9.952,107.06,91.746055429312,38.057744,6,P-GPS,
881900,2023-06-10 18:41:08,52.2064021095952,0.0867138898200396,39.041996,38.9107624,53.852353429312,92.730307429312,37.401576,0,7.3953086356,11.0296263372,29,5,15.441,92.730307429312,39.041996,5.2120702,7.5299543092,0,0,-1.342164,237.6, 5.1, -4.6,0,1,961,1590,1024,1024,-10,86,0,0,246.3,0,0,58,3.839,3.847,3.847,3.842,0,0,9.952,107.06,92.730307429312,39.041996,6,P-GPS,
882100,2023-06-10 18:41:08,52.2064022634614,0.0867138287784327,39.37008,39.2388464,53.852353429312,93.058391429312,37.401576,0,7.44258554,11.0874019296,29,5,15.492,93.058391429312,39.37008,5.2120702,7.5299543092,0,0,-0.223694,237.4, -1.3, 3.6,0,1,993,1684,1024,1024,-5,100,0,0,246.3,0,0,58,3.886,3.888,3.888,3.882,0,0,12.307,107.42,93.058391429312,39.37008,6,P-GPS,
882300,2023-06-10 18:41:08,52.2064026439057,0.0867132289273909,39.37008,39.2388464,53.852353429312,93.058391429312,37.401576,0.9395148,7.5251642828,11.2804137468,29,5,15.492,93.058391429312,39.37008,5.2120702,7.5299543092,0.671082,-0.671082,0,237.3, -0.2, 24,0,1,1024,1684,1024,1024,0,100,0,0,246.3,0,0,58,3.886,3.888,3.888,3.882,0,0,12.307,107.42,93.058391429312,39.37008,6,P-GPS,
882500,2023-06-10 18:41:08,52.2064041180979,0.0867110505325645,39.37008,39.2388464,53.852353429312,93.058391429312,37.073492,3.4896264,7.8903217748,12.0060371296,28,5,15.492,93.058391429312,39.37008,5.2120702,7.8903217748,2.684328,-2.23694,0.223694,237.6, 1.8, 26.7,0,1,1024,1024,1024,1024,0,0,0,0,246.3,0,0,58,3.886,3.888,3.888,3.882,0,0,12.307,107.42,93.058391429312,39.37008,6,P-GPS,
882700,2023-06-10 18:41:09,52.2064071853655,0.086707062800691,39.041996,38.8451456,53.917970229312,92.730307429312,32.8084,5.59235,8.8102365024,13.4368770704,29,5,15.492,93.058391429312,39.37008,5.59235,8.8102365024,4.47388,-3.35541,0,236.6, 5.5, 7.4,0,1,1024,1024,1024,1024,0,0,0,0,246.3,0,0,58,3.886,3.888,3.888,3.882,0,0,12.307,107.42,92.730307429312,39.041996,6,P-GPS,
882900,2023-06-10 18:41:09,52.2064108576507,0.0867026628405097,39.041996,38.8123372,53.950778629312,92.730307429312,33.136484,4.9660068,10.0710961228,15.099081848,29,5,15.492,93.058391429312,39.37008,5.59235,10.0710961228,4.026492,-2.908022,0,237, 6.4, -26,0,1,1024,1024,1024,1024,0,0,0,0,246.3,0,0,58,3.886,3.888,3.888,3.882,0,0,12.307,107.42,92.730307429312,39.041996,6,P-GPS,
883100,2023-06-10 18:41:09,52.2064134674317,0.0866996181308672,39.041996,38.7795288,53.983587029312,92.730307429312,33.136484,2.908022,11.0312011404,16.2695871348,29,5,15.516,93.058391429312,39.37008,5.59235,11.0312011404,2.460634,-1.565858,0,239.1, 6.6, -27.8,0,1,1024,1024,1024,1024,0,0,0,0,246.3,0,0,58,3.89,3.89,3.885,3.878,0,0,7.733,107.6,92.730307429312,39.041996,6,P-GPS,
883300,2023-06-10 18:41:09,52.2064147517208,0.0866981867181149,39.041996,38.7795288,53.983587029312,92.730307429312,33.136484,1.006623,11.5169295024,16.8370084128,29,5,15.516,93.058391429312,39.37008,5.59235,11.5169295024,0.894776,-0.447388,0,239.5, 6.2, -19.3,0,1,1078,1024,1024,1024,8,0,0,0,246.3,0,0,58,3.89,3.89,3.885,3.878,0,0,7.733,107.6,92.730307429312,39.041996,6,P-GPS,
883500,2023-06-10 18:41:09,52.2064151469773,0.0866978243530343,39.37008,39.1076128,53.983587029312,93.058391429312,33.464568,0.223694,11.6665686148,17.0024283656,29,5,15.516,93.058391429312,39.37008,5.59235,11.6665686148,0.223694,0,0,239, 2.3, -7.1,0,1,1434,1024,1024,1024,62,0,0,0,246.3,0,0,58,3.89,3.89,3.885,3.878,0,0,7.733,107.6,93.058391429312,39.37008,6,P-GPS,
883700,2023-06-10 18:41:10,52.2064152005934,0.0866976829903045,39.37008,39.1076128,53.983587029312,93.058391429312,39.698164,0.223694,11.688484626,17.0396002828,29,5,15.516,93.058391429312,39.37008,5.59235,11.688484626,0,-0.223694,0,237.4, 0.2, -2.4,0,1,1632,1024,1024,1024,92,0,0,0,246.3,0,0,58,3.89,3.89,3.885,3.878,0,0,7.733,107.6,93.058391429312,39.37008,6,P-GPS,
883900,2023-06-10 18:41:10,52.2064152092161,0.0866971383601439,39.37008,39.1076128,53.983587029312,93.058391429312,39.37008,0.447388,11.7016736028,17.161417872,29,5,15.516,93.058391429312,39.37008,5.59235,11.7016736028,0,-0.447388,0,237.7, -7.3, -2.7,0,1,1684,1024,1024,1024,100,0,0,0,246.3,0,0,58,3.89,3.89,3.885,3.878,0,0,7.733,107.6,93.058391429312,39.37008,6,P-GPS,
884100,2023-06-10 18:41:10,52.2064149100676,0.0866955937704473,39.37008,39.1076128,53.983587029312,93.058391429312,39.041996,1.7000744,11.628609296,17.5235897996,29,5,15.443,93.058391429312,39.37008,5.59235,11.7016736028,-0.671082,-1.565858,0,237.7, -23.8, -2.9,0,1,1684,1024,1024,1024,100,0,0,0,246.3,0,0,58,3.867,3.866,3.863,3.854,0,0,8.495,107.24,93.058391429312,39.37008,6,P-GPS,
884300,2023-06-10 18:41:10,52.2064138639432,0.0866919298329366,39.37008,39.1076128,53.983587029312,93.058391429312,38.385828,3.914645,11.3786420964,18.4273627944,29,5,15.443,93.058391429312,39.37008,5.59235,11.7016736028,-1.565858,-3.579104,0,238.3, -24.2, -3,0,1,1453,1024,1024,1024,65,0,0,0,246.3,0,0,58,3.867,3.866,3.863,3.854,0,0,8.495,107.24,93.058391429312,39.37008,6,P-GPS,
884500,2023-06-10 18:41:10,52.2064119739725,0.0866858801852983,39.37008,39.1404212,53.950778629312,93.058391429312,35.104988,5.7936746,11.059219514,19.9456043128,29,5,15.443,93.058391429312,39.37008,5.7936746,11.7016736028,-2.684328,-5.144962,0,238.4, -23.4, -4.2,0,1,1616,1024,1024,1024,90,0,0,0,246.3,0,0,58,3.867,3.866,3.863,3.854,0,0,8.495,107.24,93.058391429312,39.37008,6,P-GPS,
884700,2023-06-10 18:41:11,52.2064092478142,0.0866778832297752,39.37008,39.1732296,53.917970229312,93.058391429312,35.104988,7.4042714,10.87762502,21.991634562,29,5,15.443,93.058391429312,39.37008,7.4042714,11.7016736028,-3.579104,-6.487126,0,237.5, -13.3, -4.3,0,1,1684,1024,1024,1024,100,0,0,0,246.3,0,0,58,3.867,3.866,3.863,3.854,0,0,8.495,107.24,93.058391429312,39.37008,6,P-GPS,
884900,2023-06-10 18:41:11,52.2064059569327,0.0866686230684174,39.37008,39.206038,53.885161829312,93.058391429312,36.08924,8.5227414,11.1067260772,24.3850401504,29,5,15.443,93.058391429312,39.37008,8.5227414,11.7016736028,-4.250186,-7.381902,0,237.5, -24.1, -4.1,0,1,1684,1024,1024,1024,100,0,0,0,246.3,0,0,58,3.867,3.866,3.863,3.854,0,0,8.495,107.24,93.058391429312,39.37008,6,P-GPS,
885100,2023-06-10 18:41:11,52.2064018509854,0.0866576302966493,39.37008,39.2388464,53.852353429312,93.058391429312,36.745408,10.4241404,11.9673888344,27.2634195076,29,5,15.494,93.058391429312,39.37008,10.4241404,11.9673888344,-5.368656,-8.94776,0,237.8, -24.5, -3.6,0,1,1684,1024,1024,1024,100,0,0,0,246.3,0,0,58,3.869,3.874,3.872,3.866,0,0,8.635,107.42,93.058391429312,39.37008,6,P-GPS,
885300,2023-06-10 18:41:11,52.2063969004378,0.0866446665984755,39.37008,39.3044632,53.786736629312,93.058391429312,37.073492,12.2360618,13.6943573936,30.678642714,29,5,15.494,93.058391429312,39.37008,12.2360618,13.6943573936,-6.263432,-10.513618,0,237.7, -23.9, -3.5,0,1,1538,1024,1024,1024,78,0,0,0,246.3,0,0,58,3.869,3.874,3.872,3.866,0,0,8.635,107.42,93.058391429312,39.37008,6,P-GPS,
885500,2023-06-10 18:41:12,52.2063911710326,0.0866298701143447,39.37008,39.37008,53.721119829312,93.058391429312,37.72966,13.8466586,16.3235569528,34.591864624,29,5,15.494,93.058391429312,39.37008,13.8466586,16.3235569528,-7.158208,-11.855782,0,237.6, -22.5, -3.8,0,1,1547,1024,1024,1024,79,0,0,0,246.3,0,0,58,3.869,3.874,3.872,3.866,0,0,8.635,107.42,93.058391429312,39.37008,6,P-GPS,
885700,2023-06-10 18:41:12,52.2063847041692,0.0866134211591927,39.37008,39.4028884,53.688311429312,93.058391429312,38.385828,15.2783002,19.7511817344,38.96161542,29,5,15.494,93.058391429312,39.37008,15.2783002,19.7511817344,-8.052984,-12.974252,0,237.3, -15, -3.6,0,1,1684,1024,1024,1024,100,0,0,0,246.3,0,0,58,3.869,3.874,3.872,3.866,0,0,8.635,107.42,93.058391429312,39.37008,6,P-GPS,
885900,2023-06-10 18:41:12,52.2063777168095,0.0865958861625058,39.041996,39.0748044,53.688311429312,92.730307429312,39.698164,16.0835986,23.750985012,43.638124756,29,5,15.494,93.058391429312,39.37008,16.0835986,23.750985012,-8.500372,-13.645334,0,237.3, -17.5, -3.1,0,1,1312,1024,1024,1024,44,0,0,0,246.3,0,0,58,3.869,3.874,3.872,3.866,0,0,8.635,107.42,92.730307429312,39.041996,6,P-GPS,
886100,2023-06-10 18:41:12,52.2063702686038,0.0865773211751997,39.041996,39.0748044,53.688311429312,92.730307429312,40.354332,17.3810238,28.2166019528,48.599411004,29,5,15.452,93.058391429312,39.37008,17.3810238,28.2166019528,-9.171454,-14.763804,0,237.5, -12.5, -3.1,0,1,775,1024,1024,1024,-38,0,0,0,246.3,0,0,58,3.863,3.869,3.864,3.857,0,0,9.198,107.6,92.730307429312,39.041996,6,P-GPS,
886300,2023-06-10 18:41:12,52.2063625236876,0.0865581241944231,39.041996,39.0748044,53.688311429312,92.730307429312,41.0105,17.2020686,32.98720578,53.738190696,29,5,15.452,93.058391429312,39.37008,17.3810238,32.98720578,-9.171454,-14.54011,0,237.1, 19.7, -3.1,0,1,364,1024,1024,1024,-100,0,0,0,246.3,0,0,58,3.863,3.869,3.864,3.857,0,0,9.198,107.6,92.730307429312,39.041996,6,P-GPS,
886500,2023-06-10 18:41:13,52.2063552998489,0.0865404990857018,39.041996,39.0748044,53.688311429312,92.730307429312,41.0105,14.9651286,37.464240044,58.479004496,29,5,15.452,93.058391429312,39.37008,17.3810238,37.464240044,-7.82929,-12.750558,0,236.8, 28.4, -1.3,0,1,364,1024,1024,1024,-100,0,0,0,246.3,0,0,58,3.863,3.869,3.864,3.857,0,0,9.198,107.6,92.730307429312,39.041996,6,P-GPS,
886700,2023-06-10 18:41:13,52.2063491733005,0.0865254137495833,39.37008,39.4028884,53.688311429312,93.058391429312,34.776904,12.7281886,41.336615496,62.525592552,29,5,15.452,93.058391429312,39.37008,17.3810238,41.336615496,-6.487126,-10.961006,0,237.2, 29.5, -1.8,0,1,364,1024,1024,1024,-100,0,0,0,246.3,0,0,58,3.863,3.869,3.864,3.857,0,0,9.198,107.6,93.058391429312,39.37008,6,P-GPS,
886900,2023-06-10 18:41:13,52.206344271533,0.0865129569700471,39.041996,39.0748044,53.688311429312,92.730307429312,35.104988,10.2228158,44.539371504,65.835303944,29,5,15.452,93.058391429312,39.37008,17.3810238,44.539371504,-4.921268,-8.94776,0,236.4, 28.6, -3.2,0,1,364,1024,1024,1024,-100,0,0,0,246.3,0,0,58,3.863,3.869,3.864,3.857,0,0,9.198,107.6,92.730307429312,39.041996,6,P-GPS,
887100,2023-06-10 18:41:13,52.2063405456798,0.086503262223622,39.041996,39.0748044,53.688311429312,92.730307429312,47.244096,7.8069206,47.031169484,68.39403106,29,5,15.471,93.058391429312,39.37008,17.3810238,47.031169484,-3.579104,-6.934514,0,236.4, 27, -5.7,0,1,1024,1024,1024,1024,0,0,0,0,246.3,0,0,58,3.868,3.873,3.869,3.862,0,0,8.45,107.6,92.730307429312,39.041996,6,P-GPS,
887300,2023-06-10 18:41:13,52.2063377615941,0.0864961627625037,39.041996,39.0748044,53.688311429312,92.730307429312,47.244096,5.6147194,48.867455632,70.278545556,29,5,15.471,93.058391429312,39.37008,17.3810238,48.867455632,-2.684328,-4.921268,0,236.3, 25.8, -5.8,0,1,1024,1024,1024,1024,0,0,0,0,246.3,0,0,58,3.868,3.873,3.869,3.862,0,0,8.45,107.6,92.730307429312,39.041996,6,P-GPS,
887500,2023-06-10 18:41:13,52.2063357824952,0.0864911337532899,39.37008,39.4028884,53.688311429312,93.058391429312,51.837272,4.2054472,50.171261448,71.614831688,29,5,15.471,93.058391429312,39.37008,17.3810238,50.171261448,-1.789552,-3.802798,0,237.2, 15.7, -8.5,0,1,1024,1024,1024,1024,0,0,0,0,246.3,0,0,58,3.868,3.873,3.869,3.862,0,0,8.45,107.6,93.058391429312,39.37008,6,P-GPS,
887700,2023-06-10 18:41:14,52.2063341590414,0.0864874533351176,39.041996,39.0748044,53.688311429312,92.730307429312,51.509188,3.1093466,51.148623684,72.628611248,29,5,15.471,93.058391429312,39.37008,17.3810238,51.148623684,-1.565858,-2.684328,0,238.6, 22, -8,0,1,1024,1024,364,1022,0,0,-100,-0,246.3,0,0,58,3.868,3.873,3.869,3.862,0,0,8.45,107.6,92.730307429312,39.041996,6,P-GPS,
887900,2023-06-10 18:41:14,52.2063329688685,0.0864854798452159,39.041996,39.0748044,53.688311429312,92.730307429312,41.338584,1.8119214,51.714568584,73.247705756,29,5,15.471,93.058391429312,39.37008,17.3810238,51.714568584,-0.894776,-1.565858,0.671082,237.6, 18.1, -8.4,0,1,1024,1024,364,1024,0,0,-100,0,246.3,0,0,58,3.868,3.873,3.869,3.862,0,0,8.45,107.6,92.730307429312,39.041996,6,P-GPS,
888100,2023-06-10 18:41:14,52.2063320403659,0.0864843431139142,38.713912,38.7467204,53.688311429312,92.402223429312,40.682416,1.4316416,52.073164396,73.6712622,29,5,15.445,93.058391429312,39.37008,17.3810238,52.073164396,-0.894776,-1.11847,2.684328,239.5, 16.9, -7.3,0,1,1024,1024,364,1024,0,0,-100,0,246.3,0,0,58,3.854,3.858,3.857,3.85,0,0,8.55,107.6,92.402223429312,38.713912,6,P-GPS,
888300,2023-06-10 18:41:14,52.2063312773463,0.0864837830800618,37.401576,37.4343844,53.688311429312,91.089887429312,39.37008,0.8052984,52.290356004,73.976708404,29,5,15.445,93.058391429312,39.37008,17.3810238,52.290356004,-0.671082,-0.447388,4.47388,240.1, 13.3, -5.4,0,1,1024,1024,376,1024,0,0,-98,0,246.3,0,0,58,3.854,3.858,3.857,3.85,0,0,8.55,107.6,91.089887429312,37.401576,6,P-GPS,
888500,2023-06-10 18:41:14,52.2063306919512,0.0864839155081261,36.08924,36.1220484,53.688311429312,89.777551429312,38.057744,0.447388,52.340552856,74.192259592,29,5,15.445,93.058391429312,39.37008,17.3810238,52.340552856,-0.447388,0,4.921268,239.6, 8.1, -3.9,0,1,1024,1024,1066,526,0,0,6,-75,246.3,0,0,58,3.854,3.858,3.857,3.85,0,0,8.55,107.6,89.777551429312,36.08924,6,P-GPS,
888700,2023-06-10 18:41:15,52.206330286635,0.0864845140975155,34.776904,34.8097124,53.688311429312,88.465215429312,37.073492,0.3131716,52.270670964,74.391734664,29,5,15.445,93.058391429312,39.37008,17.3810238,52.340552856,-0.223694,0.223694,3.802798,238.5, 3.4, -0.5,0,1,1024,1024,1108,364,0,0,13,-100,245.4,0,0,58,3.854,3.858,3.857,3.85,0,0,8.55,107.6,88.465215429312,34.776904,6,P-GPS,
888900,2023-06-10 18:41:15,52.2063301235378,0.0864850734044325,34.120736,34.1535444,53.688311429312,87.809047429312,36.745408,0.223694,52.176510856,74.530186112,29,5,15.445,93.058391429312,39.37008,17.3810238,52.340552856,0,0.223694,1.789552,237, 4.2, -1.5,0,1,1024,1024,1098,364,0,0,11,-100,235.8,0,0,58,3.854,3.858,3.857,3.85,0,0,8.55,107.6,87.809047429312,34.120736,6,P-GPS,
889100,2023-06-10 18:41:15,52.2063301043608,0.0864855152833182,33.792652,33.8254604,53.688311429312,87.480963429312,36.08924,0.223694,52.087272008,74.62926748,29,5,15.415,93.058391429312,39.37008,17.3810238,52.340552856,0,0.223694,0.223694,224.9, 4.6, -4.2,0,1,1024,1024,1024,1024,0,0,0,0,223.9,0,0,58,3.88,3.883,3.883,3.878,0,0,9.767,107.96,87.480963429312,33.792652,6,P-GPS,
889300,2023-06-10 18:41:15,52.2063301537748,0.0864859752237536,34.120736,34.1535444,53.688311429312,87.809047429312,35.433072,0.223694,51.985237884,74.733598192,29,5,15.415,93.058391429312,39.37008,17.3810238,52.340552856,0,0.223694,-0.223694,212.4, 3.5, -3.7,0,1,1024,1024,1024,1024,0,0,0,0,216.6,0,0,58,3.88,3.883,3.883,3.878,0,0,9.767,107.96,87.809047429312,34.120736,6,P-GPS,
889500,2023-06-10 18:41:15,52.206330297243,0.0864862585887766,34.120736,34.1535444,53.688311429312,87.809047429312,35.104988,0,51.906825808,74.815619192,29,5,15.415,93.058391429312,39.37008,17.3810238,52.340552856,0,0,0,205.9, 2.9, -2.5,0,1,1024,1024,1024,1024,0,0,0,0,216.4,0,0,58,3.88,3.883,3.883,3.878,0,0,9.767,107.96,87.809047429312,34.120736,6,P-GPS,
889700,2023-06-10 18:41:16,52.206330565936,0.0864863328620064,34.120736,34.1535444,53.688311429312,87.809047429312,34.776904,0.223694,51.854988536,74.915028644,29,5,15.415,93.058391429312,39.37008,17.3810238,52.340552856,0.223694,0,0,207.4, 0.5, -3.8,0,1,1024,1024,1024,364,0,0,0,-100,215.4,0,0,58,3.88,3.883,3.883,3.878,0,0,9.767,107.96,87.809047429312,34.120736,6,P-GPS,
889900,2023-06-10 18:41:16,52.2063308094551,0.086486088443947,34.44882,34.4816284,53.688311429312,88.137131429312,34.776904,0,51.873033156,75.019359356,29,5,15.415,93.058391429312,39.37008,17.3810238,52.340552856,0,0,0,206.4, 0.3, -6.5,0,1,1024,1024,1024,364,0,0,0,-100,205.4,0,0,58,3.88,3.883,3.883,3.878,0,0,9.767,107.96,88.137131429312,34.44882,6,P-GPS,
890100,2023-06-10 18:41:16,52.2063308861291,0.0864857878980846,34.44882,34.4816284,53.688311429312,88.137131429312,34.44882,0.223694,51.925198512,75.092194004,29,5,15.389,93.058391429312,39.37008,17.3810238,52.340552856,0,-0.223694,0,194.2, 3.1, -6.6,0,1,1024,1024,1024,1024,0,0,0,0,193.4,0,0,58,3.833,3.84,3.843,3.839,0,0,7.539,107.96,88.137131429312,34.44882,6,P-GPS,
890300,2023-06-10 18:41:16,52.2063310131102,0.0864854752599309,34.44882,34.4816284,53.688311429312,88.137131429312,34.44882,0,51.973098776,75.176183508,29,5,15.389,93.058391429312,39.37008,17.3810238,52.340552856,0,0,0,182.2, 2.7, -6,0,1,1024,1024,1024,846,0,0,0,-27,188,0,0,58,3.833,3.84,3.843,3.839,0,0,7.539,107.96,88.137131429312,34.44882,6,P-GPS,
890500,2023-06-10 18:41:17,52.2063313123743,0.086485107710193,34.44882,34.4816284,53.688311429312,88.137131429312,34.44882,0.3131716,52.009844184,75.312666452,29,5,15.389,93.058391429312,39.37008,17.3810238,52.340552856,0.223694,-0.223694,0,177.7, 0.5, -6.2,0,1,1024,1024,1024,1005,0,0,0,-3,187.9,0,0,58,3.833,3.84,3.843,3.839,0,0,7.539,107.96,88.137131429312,34.44882,6,P-GPS,
890700,2023-06-10 18:41:17,52.2063316670878,0.0864847567261953,34.44882,34.4816284,53.688311429312,88.137131429312,34.44882,0.223694,52.03576282,75.46424126,29,5,15.389,93.058391429312,39.37008,17.3810238,52.340552856,0.223694,0,0,178.8, -1.6, -6.7,0,1,1024,1024,963,364,0,0,-9,-100,187.7,0,0,58,3.833,3.84,3.843,3.839,0,0,7.539,107.96,88.137131429312,34.44882,6,P-GPS,
890900,2023-06-10 18:41:17,52.2063319084417,0.0864843911755299,34.44882,34.4816284,53.688311429312,88.137131429312,34.44882,0,52.080382244,75.584320004,29,5,15.389,93.058391429312,39.37008,17.3810238,52.340552856,0,0,0,178.3, -1.7, -7.1,0,1,1024,1024,1024,364,0,0,0,-100,180.4,0,0,58,3.833,3.84,3.843,3.839,0,0,7.539,107.96,88.137131429312,34.44882,6,P-GPS,
891100,2023-06-10 18:41:17,52.2063320382199,0.0864840738821935,34.44882,34.4816284,53.688311429312,88.137131429312,34.120736,0,52.129594844,75.669621844,29,5,15.458,93.058391429312,39.37008,17.3810238,52.340552856,0,0,0,169.9, -1.6, -7.4,0,1,1024,1024,1024,1024,0,0,0,0,168.5,0,0,58,3.864,3.869,3.866,3.859,0,0,9.132,107.96,88.137131429312,34.44882,6,P-GPS,
891300,2023-06-10 18:41:17,52.2063321159412,0.0864837984994807,34.44882,34.4816284,53.688311429312,88.137131429312,34.120736,0,52.17683894,75.737535232,29,5,15.458,93.058391429312,39.37008,17.3810238,52.340552856,0,0,0,157.2, -0.8, -7.5,0,1,1024,1024,1024,1024,0,0,0,0,158.5,0,0,58,3.864,3.869,3.866,3.859,0,0,9.132,107.96,88.137131429312,34.44882,6,P-GPS,
891500,2023-06-10 18:41:17,52.2063322184958,0.0864835597571095,34.44882,34.4816284,53.688311429312,88.137131429312,34.120736,0,52.213256264,75.802495864,29,5,15.458,93.058391429312,39.37008,17.3810238,52.340552856,0,0,0,147.4, -1.5, -7.3,0,1,1024,1024,593,1024,0,0,-65,0,157.5,0,0,58,3.864,3.869,3.866,3.859,0,0,9.132,107.96,88.137131429312,34.44882,6,P-GPS,
891700,2023-06-10 18:41:18,52.20633243214,0.0864833265925698,34.44882,34.4816284,53.688311429312,88.137131429312,34.120736,0.223694,52.23425364,75.896327888,29,5,15.458,93.058391429312,39.37008,17.3810238,52.340552856,0.223694,0,0.223694,148.5, -4.3, -6.2,0,1,1024,1024,364,994,0,0,-100,-5,157.5,0,0,58,3.864,3.869,3.866,3.859,0,0,9.132,107.96,88.137131429312,34.44882,6,P-GPS,
891900,2023-06-10 18:41:18,52.206332638046,0.0864830961540379,34.120736,34.1535444,53.688311429312,87.809047429312,33.792652,0,52.255907184,75.98753524,29,5,15.458,93.058391429312,39.37008,17.3810238,52.340552856,0,0,2.23694,148.6, -6.3, -6.3,0,1,1024,1024,364,961,0,0,-100,-10,157.5,0,0,58,3.864,3.869,3.866,3.859,0,0,9.132,107.96,87.809047429312,34.120736,6,P-GPS,
892100,2023-06-10 18:41:18,52.2063327679998,0.086482878856262,32.8084,32.8412084,53.688311429312,86.496711429312,32.480316,0,52.284450492,76.055448628,29,5,15.456,93.058391429312,39.37008,17.3810238,52.340552856,0,0,4.250186,148.7, -5.7, -6.5,0,1,1024,1024,364,974,0,0,-100,-8,157.5,0,0,58,3.862,3.868,3.868,3.86,0,0,7.963,107.96,86.496711429312,32.8084,6,P-GPS,
892300,2023-06-10 18:41:18,52.2063327668433,0.0864828941918037,31.496064,31.5288724,53.688311429312,85.184375429312,30.839896,0,52.281497736,76.058729468,29,5,15.456,93.058391429312,39.37008,17.3810238,52.340552856,0,0,4.921268,148.2, -4.9, -4.4,0,1,1024,1024,1024,1024,0,0,0,0,157.4,0,0,58,3.862,3.868,3.868,3.86,0,0,7.963,107.96,85.184375429312,31.496064,6,P-GPS,
892500,2023-06-10 18:41:19,52.2063326628451,0.0864830679293719,30.183728,30.2165364,53.688311429312,83.872039429312,29.52756,0.3131716,52.258531856,76.113191412,29,5,15.456,93.058391429312,39.37008,17.3810238,52.340552856,-0.223694,0.223694,5.144962,148.2, -1.2, -5.2,0,1,1024,1024,1024,1024,0,0,0,0,157.4,0,0,58,3.862,3.868,3.868,3.86,0,0,7.963,107.96,83.872039429312,30.183728,6,P-GPS,
892700,2023-06-10 18:41:19,52.2063325413533,0.0864832762942297,28.871392,28.9042004,53.688311429312,82.559703429312,28.543308,0,52.230644716,76.177495876,29,5,15.456,93.058391429312,39.37008,17.3810238,52.340552856,0,0,3.579104,148.3, -0.7, -3,0,1,1024,1024,1684,1024,0,0,100,0,157.4,0,0,58,3.862,3.868,3.868,3.86,0,0,7.963,107.96,82.559703429312,28.871392,6,P-GPS,
892900,2023-06-10 18:41:19,52.2063324723081,0.0864833334704973,28.215224,28.2480324,53.688311429312,81.903535429312,28.215224,0,52.22769196,76.2057111,29,5,15.456,93.058391429312,39.37008,17.3810238,52.340552856,0,0,1.342164,147.9, -1, -2.8,0,1,1024,1024,1684,1024,0,0,100,0,157.4,0,0,58,3.862,3.868,3.868,3.86,0,0,7.963,107.96,81.903535429312,28.215224,6,P-GPS,
893100,2023-06-10 18:41:19,52.2063324983323,0.0864831950452157,28.215224,28.2480324,53.688311429312,81.903535429312,28.871392,0,52.253282512,76.237863332,29,5,15.5,93.058391429312,39.37008,17.3810238,52.340552856,0,0,-0.894776,148.4, -4.2, -2.7,0,1,1024,1024,1684,1024,0,0,100,0,157.4,0,0,58,3.882,3.886,3.889,3.884,0,0,7.003,107.96,81.903535429312,28.215224,6,P-GPS,
893300,2023-06-10 18:41:19,52.2063324449304,0.086483138344252,28.871392,28.9042004,53.688311429312,82.559703429312,29.855644,0,52.2719833,76.261157296,29,5,15.5,93.058391429312,39.37008,17.3810238,52.340552856,0,0,-3.35541,148.7, -3.6, -3.6,0,1,1024,1024,1684,1024,0,0,100,0,157.4,0,0,58,3.882,3.886,3.889,3.884,0,0,7.003,107.96,82.559703429312,28.871392,6,P-GPS,
893500,2023-06-10 18:41:20,52.2063322992691,0.0864831190385245,30.183728,30.2165364,53.688311429312,83.872039429312,31.824148,0,52.29494918,76.314634988,29,5,15.5,93.058391429312,39.37008,17.3810238,52.340552856,0,0,-5.59235,148.2, -2.6, -4.3,0,1,1024,1024,1684,1024,0,0,100,0,157.4,0,0,58,3.882,3.886,3.889,3.884,0,0,7.003,107.96,83.872039429312,30.183728,6,P-GPS,
893700,2023-06-10 18:41:20,52.2063321629864,0.0864831664151433,32.480316,32.5131244,53.688311429312,86.168627429312,34.120736,0,52.302823196,76.365488008,29,5,15.5,93.058391429312,39.37008,17.3810238,52.340552856,0,0,-7.82929,148.1, -1.5, -4.5,0,1,1024,1024,1684,1024,0,0,100,0,157.4,0,0,58,3.882,3.886,3.889,3.884,0,0,7.003,107.96,86.168627429312,32.480316,6,P-GPS,
893900,2023-06-10 18:41:20,52.2063321606498,0.0864832858562265,35.761156,35.7939644,53.688311429312,89.449467429312,36.745408,0.223694,52.278216896,76.392062812,29,5,15.5,93.058391429312,39.37008,17.3810238,52.340552856,0,0.223694,-10.06623,148, -2, -2.4,0,1,1024,1024,1684,1024,0,0,100,0,157.4,0,0,58,3.882,3.886,3.889,3.884,0,0,7.003,107.96,89.449467429312,35.761156,6,P-GPS,
894100,2023-06-10 18:41:20,52.2063321835792,0.0864832438337668,39.698164,39.7309724,53.688311429312,93.386475429312,40.354332,0,52.283794324,76.404858088,29,5,15.388,93.386475429312,39.698164,17.3810238,52.340552856,0,0,-12.079476,148, -2.9, -2.1,0,1,1024,1024,1684,1024,0,0,100,0,157.4,0,0,57,3.836,3.84,3.839,3.832,0,0,8.199,107.78,93.386475429312,39.698164,6,P-GPS,
894300,2023-06-10 18:41:20,52.2063321165944,0.0864830113262649,44.29134,44.3241484,53.688311429312,97.979651429312,44.29134,0,52.341209024,76.462272788,29,5,15.388,97.979651429312,44.29134,17.3810238,52.341209024,0,0,-13.197946,147.9, -3.4, -3.9,0,1,1024,1024,1684,1024,0,0,100,0,157.4,0,0,57,3.836,3.84,3.839,3.832,0,0,8.199,107.78,97.979651429312,44.29134,6,P-GPS,
894500,2023-06-10 18:41:21,52.2063319736381,0.0864827247878891,48.884516,48.9173244,53.688311429312,102.57282742931,46.259844,0,52.4196211,76.544621872,29,5,15.388,102.57282742931,48.884516,17.3810238,52.4196211,0,0,-13.197946,147.7, -3, -4.6,0,1,1024,1024,1344,1024,0,0,48,0,157.4,0,0,57,3.836,3.84,3.839,3.832,0,0,8.199,107.78,102.57282742931,48.884516,6,P-GPS,
894700,2023-06-10 18:41:21,52.2063318524183,0.0864824134777905,53.149608,53.1824164,53.688311429312,106.83791942931,49.868768,0,52.500329764,76.62729904,29,5,15.388,106.83791942931,53.149608,17.3810238,52.500329764,0,0,-13.42164,147.9, -2.8, -4.3,0,1,1024,1024,1024,1024,0,0,0,0,157.4,0,0,57,3.836,3.84,3.839,3.832,0,0,8.199,107.78,106.83791942931,53.149608,6,P-GPS,
894900,2023-06-10 18:41:21,52.2063317646459,0.0864819630434339,57.086616,57.1194244,53.688311429312,110.77492742931,53.805776,0,52.605972812,76.732942088,29,5,15.388,110.77492742931,57.086616,17.3810238,52.605972812,0,0,-12.079476,147.8, -3.6, -5.7,0,1,987,1684,1024,1024,-6,100,0,0,157.4,0,0,57,3.836,3.84,3.839,3.832,0,0,8.199,107.78,110.77492742931,57.086616,6,P-GPS,
