time(millisecond),datetime(utc),latitude,longitude,height_above_takeoff(feet),height_above_ground_at_drone_location(feet),ground_elevation_at_drone_location(feet),altitude_above_seaLevel(feet),height_sonar(feet),speed(mph),distance(feet),mileage(feet),satellites,gpslevel,voltage(v),max_altitude(feet),max_ascent(feet),max_speed(mph),max_distance(feet), xSpeed(mph), ySpeed(mph), zSpeed(mph), compass_heading(degrees), pitch(degrees), roll(degrees),isPhoto,isVideo,rc_elevator,rc_aileron,rc_throttle,rc_rudder,rc_elevator(percent),rc_aileron(percent),rc_throttle(percent),rc_rudder(percent),gimbal_heading(degrees),gimbal_pitch(degrees),gimbal_roll(degrees),battery_percent,voltageCell1,voltageCell2,voltageCell3,voltageCell4,voltageCell5,voltageCell6,current(A),battery_temperature(f),altitude(feet),ascent(feet),flycStateRaw,flycState,message
0,2023-06-07 18:11:46,0,0,0,,,53.465355713516,0,0,0,0,12,2,0,53.465355713516,0,0,0,0,0,0,280.9, 4.5, 0,0,0,1024,1024,1024,1024,0,0,0,0,281.1,0,0.1,100,4.307,4.304,4.305,4.301,0,0,0,75.02,53.465355713516,0,41,Motors_Started,"Setting new Return-To-Home altitude to 26m (85 ft). Data Recorder File Index is 33. Setting new Maximum Flight Altitude to 30m (98 ft) GPS signal weak. Hovering unstable. Fly with caution (Code: 30002). Aircraft not in flight. Vision systems and obstacle avoidance disabled (Code: 180059)"
200,2023-06-07 18:11:46,0,0,0,,,53.465355713516,0,0,0,0,12,2,0,53.465355713516,0,0,0,0,0,0,280.9, 4.5, 0,0,0,1024,1024,1024,1024,0,0,0,0,281.1,0,0,100,4.307,4.304,4.305,4.301,0,0,0,75.02,53.465355713516,0,41,Motors_Started,
400,2023-06-07 18:11:46,0,0,0,,,53.465355713516,0,0,0,0,12,2,0,53.465355713516,0,0,0,0,0,0,280.9, 4.5, 0,0,0,1024,1024,1024,1024,0,0,0,0,281.1,0,0,100,4.307,4.304,4.305,4.301,0,0,0,75.02,53.465355713516,0,41,Motors_Started,
600,2023-06-07 18:11:46,0,0,0,,,53.465355713516,0,0,0,0,13,2,0,53.465355713516,0,0,0,0,0,0,280.8, 4.5, 0,0,0,1024,1024,1024,1024,0,0,0,0,281.1,0,0,100,4.307,4.304,4.305,4.301,0,0,0,75.02,53.465355713516,0,41,Motors_Started,
800,2023-06-07 18:11:46,0,0,0,,,53.465355713516,0,0,0,0,14,2,0,53.465355713516,0,0,0,0,0,0,280.8, 4.5, 0,0,0,1024,1024,1024,1024,0,0,0,0,281.1,0,0,100,4.307,4.304,4.305,4.301,0,0,0,75.02,53.465355713516,0,41,Motors_Started,
1000,2023-06-07 18:11:47,0,0,0,,,53.465355713516,0,0,0,0,14,2,17.259,53.465355713516,0,0,0,0,0,0,280.9, 4.5, 0,0,0,1024,1024,1024,1024,0,0,0,0,281.1,0,0,100,4.307,4.304,4.305,4.301,0,0,2.192,75.02,53.465355713516,0,41,Motors_Started,
1200,2023-06-07 18:11:47,0,0,0,,,53.465355713516,0,0,0,0,14,2,17.259,53.465355713516,0,0,0,0,0,0,280.9, 4.5, 0,0,0,1024,1024,1024,1024,0,0,0,0,281.1,0,0,100,4.307,4.304,4.305,4.301,0,0,2.192,75.02,53.465355713516,0,41,Motors_Started,"No GPS. Fly with caution"
1400,2023-06-07 18:11:47,0,0,0,,,53.465355713516,0,0,0,0,15,2,17.259,53.465355713516,0,0,0,0,0,0,280.9, 4.5, 0,0,0,1024,1024,1024,1024,0,0,0,0,281.1,0,0,100,4.307,4.304,4.305,4.301,0,0,2.192,75.02,53.465355713516,0,41,Motors_Started,
1600,2023-06-07 18:11:47,0,0,0,,,53.465355713516,0,0,0,0,16,2,17.259,53.465355713516,0,0,0,0,0,0,280.9, 4.5, 0,0,0,1024,1024,1024,1024,0,0,0,0,281.1,0,0,100,4.307,4.304,4.305,4.301,0,0,2.192,75.02,53.465355713516,0,11,AutoTakeoff,
1800,2023-06-07 18:11:47,0,0,0,,,53.465355713516,0,0,0,0,16,2,17.259,53.465355713516,0,0,0,0,0,0,280.5, 4.4, 0,0,0,1024,1024,1024,1024,0,0,0,0,281,0,0,100,4.307,4.304,4.305,4.301,0,0,2.192,75.02,53.465355713516,0,11,AutoTakeoff,
2000,2023-06-07 18:11:47,0,0,0,,,53.465355713516,0,0,0,0,16,2,17.272,53.465355713516,0,0,0,0,0,0,280.7, 1.2, 0,0,0,1024,1024,1024,1024,0,0,0,0,281,0,0,100,4.33,4.328,4.329,4.326,0,0,3.939,75.02,53.465355713516,0,11,AutoTakeoff,
2200,2023-06-07 18:11:48,0,0,0,,,53.465355713516,0.328084,0,0,0,16,2,17.272,53.465355713516,0,0,0,0,0,-0.671082,281, -1.2, 0.2,0,0,1024,1024,1024,1024,0,0,0,0,281,0,0,100,4.33,4.328,4.329,4.326,0,0,3.939,75.02,53.465355713516,0,11,AutoTakeoff,
2400,2023-06-07 18:11:48,0,0,0.328084,,,53.793439713516,0.328084,0,0,0,16,2,17.272,53.793439713516,0.328084,0,0,0,0,-0.894776,280.9, 0.3, 0.4,0,0,1024,1024,1024,1024,0,0,0,0,281,0,0,100,4.33,4.328,4.329,4.326,0,0,3.939,75.02,53.793439713516,0.328084,11,AutoTakeoff,
2600,2023-06-07 18:11:48,0,0,0.656168,,,54.121523713516,0.656168,0,0,0,16,2,17.272,54.121523713516,0.656168,0,0,0,0,-0.894776,281, 0.3, 0.5,0,0,1024,1024,1024,1024,0,0,0,0,281,0,0,100,4.33,4.328,4.329,4.326,0,0,3.939,75.02,54.121523713516,0.656168,11,AutoTakeoff,
2800,2023-06-07 18:11:48,0,0,0.984252,,,54.449607713516,0.984252,0,0,0,16,2,17.272,54.449607713516,0.984252,0,0,0,0,-0.894776,280.9, -0.2, 0.2,0,0,1024,1024,1040,1024,0,0,2,0,281,0,0,100,4.33,4.328,4.329,4.326,0,0,3.939,75.02,54.449607713516,0.984252,11,AutoTakeoff,
3000,2023-06-07 18:11:49,0,0,1.312336,,,54.777691713516,1.312336,0,0,0,17,2,17.083,54.777691713516,1.312336,0,0,0,0,-0.894776,280.9, -0.7, 0,0,0,1024,1024,1405,1024,0,0,58,0,281,0,0,100,4.266,4.268,4.267,4.264,0,0,5.179,74.84,54.777691713516,1.312336,11,AutoTakeoff,
3200,2023-06-07 18:11:49,0,0,1.64042,,,55.105775713516,1.64042,0,0,0,17,2,17.083,55.105775713516,1.64042,0,0,0,0,-1.342164,281, -1, 0.3,0,0,1024,1024,1438,1024,0,0,63,0,281,0,0,100,4.266,4.268,4.267,4.264,0,0,5.179,74.84,55.105775713516,1.64042,11,AutoTakeoff,
3400,2023-06-07 18:11:49,0,0,2.296588,,,55.761943713516,2.296588,0,0,0,17,2,17.083,55.761943713516,2.296588,0,0,0,0,-2.908022,281.4, -0.5, 0.2,0,0,1024,1024,1452,1024,0,0,65,0,281,0,0,100,4.266,4.268,4.267,4.264,0,0,5.179,74.84,55.761943713516,2.296588,11,AutoTakeoff,
3600,2023-06-07 18:11:49,0,0,3.608924,,,57.074279713516,3.608924,0,0,0,16,2,17.083,57.074279713516,3.608924,0,0,0,0,-4.697574,281, -0.6, 0.9,0,0,1024,1024,1600,1024,0,0,87,0,281,0,0,100,4.266,4.268,4.267,4.264,0,0,5.179,74.84,57.074279713516,3.608924,11,AutoTakeoff,
3800,2023-06-07 18:11:49,0,0,5.249344,,,58.714699713516,5.249344,0,0,0,16,2,17.083,58.714699713516,5.249344,0,0,0,0,-5.816044,280.5, -0.3, 0.4,0,0,1024,1024,1666,1024,0,0,97,0,281,0,0,100,4.266,4.268,4.267,4.264,0,0,5.179,74.84,58.714699713516,5.249344,6,P-GPS,
4000,2023-06-07 18:11:49,0,0,7.217848,,,60.683203713516,7.217848,0,0,0,16,2,16.903,60.683203713516,7.217848,0,0,0,0,-7.605596,280.8, 0.2, 0.4,0,0,1024,1024,1684,1024,0,0,100,0,281,0,0,100,4.191,4.197,4.204,4.206,0,0,8.411,74.84,60.683203713516,7.217848,6,P-GPS,
4200,2023-06-07 18:11:50,0,0,10.826772,,,64.292127713516,9.84252,0,0,0,16,2,16.903,64.292127713516,10.826772,0,0,0,0,-9.618842,280.6, 1.2, -0.1,0,0,1024,1024,1564,1024,0,0,82,0,281,0,0,100,4.191,4.197,4.204,4.206,0,0,8.411,74.84,64.292127713516,10.826772,6,P-GPS,
4400,2023-06-07 18:11:50,0,0,15.091864,,,68.557219713516,13.12336,0,0,0,15,2,16.903,68.557219713516,15.091864,0,0,0,0,-11.408394,279, 1.4, 0.2,0,0,1024,1024,1024,1024,0,0,0,0,281,0,0,100,4.191,4.197,4.204,4.206,0,0,8.411,74.84,68.557219713516,15.091864,6,P-GPS,"No GPS. Fly with caution GPS signal weak. Hovering unstable. Fly with caution (Code: 30002)"
4600,2023-06-07 18:11:50,0,0,18.700788,,,72.166143713516,16.4042,0,0,0,15,2,16.903,72.166143713516,18.700788,0,0,0,0,-10.289924,277.4, 1.1, 0.9,0,0,1024,1024,1024,1024,0,0,0,0,281,0,0,100,4.191,4.197,4.204,4.206,0,0,8.411,74.84,72.166143713516,18.700788,6,P-GPS,
4800,2023-06-07 18:11:50,0,0,21.32546,,,74.790815713516,19.028872,0.9171454,0,0,15,2,16.903,74.790815713516,21.32546,0.9171454,0,-0.894776,-0.223694,-8.052984,278.3, 1.9, 6.6,0,0,1024,1024,1024,1024,0,0,0,0,281,0,0,100,4.191,4.197,4.204,4.206,0,0,8.411,74.84,74.790815713516,21.32546,6,P-GPS,
5000,2023-06-07 18:11:51,0,0,24.278216,,,77.743571713516,21.32546,1.7000744,0,0,17,2,16.608,77.743571713516,24.278216,1.7000744,0,-1.565858,-0.671082,-5.816044,280.2, 4.1, 16.5,0,0,1024,1024,1024,1024,0,0,0,0,281,0,0,100,4.239,4.247,4.247,4.246,0,0,12.589,75.02,77.743571713516,24.278216,6,P-GPS,
5200,2023-06-07 18:11:51,0,0,25.590552,,,79.055907713516,22.637796,1.9908766,0,0,16,2,16.608,79.055907713516,25.590552,1.9908766,0,-1.789552,-0.894776,-3.131716,281.7, 7.6, 23.1,0,0,1024,1024,1024,1024,0,0,0,0,281,0,0,100,4.239,4.247,4.247,4.246,0,0,12.589,75.02,79.055907713516,25.590552,6,P-GPS,
5400,2023-06-07 18:11:51,0,0,25.590552,,,79.055907713516,23.293964,1.2974252,0,0,16,2,16.608,79.055907713516,25.590552,1.9908766,0,-1.11847,-0.671082,-0.894776,288.5, 7.7, 23.7,0,0,1024,1024,1024,1024,0,0,0,0,281,0,0,100,4.239,4.247,4.247,4.246,0,0,12.589,75.02,79.055907713516,25.590552,6,P-GPS,
5600,2023-06-07 18:11:51,0,0,25.590552,,,79.055907713516,23.622048,0.447388,0,0,17,2,16.608,79.055907713516,25.590552,1.9908766,0,0.447388,0,-0.223694,296.8, 6.5, 13.8,0,0,1024,1024,1024,1024,0,0,0,0,281,-1,0,100,4.239,4.247,4.247,4.246,0,0,12.589,75.02,79.055907713516,25.590552,6,P-GPS,
5800,2023-06-07 18:11:51,0,0,25.918636,,,79.383991713516,23.622048,1.1408394,0,0,17,2,16.608,79.383991713516,25.918636,1.9908766,0,1.11847,0.223694,0,294.9, 6.1, 4.1,0,0,1024,1024,1024,1024,0,0,0,0,281,-3.5,0,100,4.239,4.247,4.247,4.246,0,0,12.589,75.02,79.383991713516,25.918636,6,P-GPS,
6000,2023-06-07 18:11:52,0,0,26.24672,,,79.712075713516,23.622048,0.894776,0,0,18,2,17.134,79.712075713516,26.24672,1.9908766,0,0.894776,0,0,289.4, 6.9, 0.9,0,0,1024,1024,1024,1024,0,0,0,0,281,-6.3,0,100,4.251,4.247,4.241,4.244,0,0,4.887,75.2,79.712075713516,26.24672,6,P-GPS,
6200,2023-06-07 18:11:52,0,0,26.24672,,,79.712075713516,23.293964,0.447388,0,0,18,2,17.134,79.712075713516,26.24672,1.9908766,0,0.447388,0,0,294.7, 6.9, 2.3,0,0,1024,1024,1024,1024,0,0,0,0,281,-9.2,0,100,4.251,4.247,4.241,4.244,0,0,4.887,75.2,79.712075713516,26.24672,6,P-GPS,
6400,2023-06-07 18:11:52,0,0,26.24672,,,79.712075713516,23.293964,0,0,0,18,2,17.134,79.712075713516,26.24672,1.9908766,0,0,0,0,295.5, 6.4, 4,0,0,1024,1024,1024,1024,0,0,0,0,281,-12.1,0,100,4.251,4.247,4.241,4.244,0,0,4.887,75.2,79.712075713516,26.24672,6,P-GPS,
6600,2023-06-07 18:11:52,0,0,26.574804,,,80.040159713516,22.96588,0,0,0,18,2,17.134,80.040159713516,26.574804,1.9908766,0,0,0,0,295, 5.7, 5.3,0,0,1024,1024,1024,1024,0,0,0,0,281,-15.1,0,100,4.251,4.247,4.241,4.244,0,0,4.887,75.2,80.040159713516,26.574804,6,P-GPS,
6800,2023-06-07 18:11:52,0,0,26.574804,,,80.040159713516,22.96588,0,0,0,18,2,17.134,80.040159713516,26.574804,1.9908766,0,0,0,0,295.4, 6, 6.6,0,0,1024,1024,1024,1024,0,0,0,0,281,-18,0,100,4.251,4.247,4.241,4.244,0,0,4.887,75.2,80.040159713516,26.574804,6,P-GPS,
7000,2023-06-07 18:11:53,0,0,26.574804,,,80.040159713516,22.96588,0.223694,0,0,18,2,16.988,80.040159713516,26.574804,1.9908766,0,-0.223694,0,0,296.3, 4.9, 8.3,0,0,1024,1024,1024,1024,0,0,0,0,281,-20.9,0,100,4.251,4.257,4.253,4.236,0,0,7.384,75.2,80.040159713516,26.574804,6,P-GPS,
7200,2023-06-07 18:11:53,0,0,26.574804,,,80.040159713516,22.96588,0.223694,0,0,18,2,16.988,80.040159713516,26.574804,1.9908766,0,-0.223694,0,0,296.6, 3.6, 9.7,0,0,1024,1024,1024,1024,0,0,0,0,281,-23.8,0,100,4.251,4.257,4.253,4.236,0,0,7.384,75.2,80.040159713516,26.574804,6,P-GPS,
7400,2023-06-07 18:11:53,0,0,26.574804,,,80.040159713516,22.96588,0,0,0,18,2,16.988,80.040159713516,26.574804,1.9908766,0,0,0,0,296.3, 1.6, 9.1,0,0,1024,1024,1024,1024,0,0,0,0,281,-26.7,0,100,4.251,4.257,4.253,4.236,0,0,7.384,75.2,80.040159713516,26.574804,6,P-GPS,
7600,2023-06-07 18:11:53,0,0,26.902888,,,80.368243713516,22.96588,0,0,0,18,2,16.988,80.368243713516,26.902888,1.9908766,0,0,0,0,296.3, 2.3, 9.4,0,0,1024,1024,1024,1024,0,0,0,0,281,-29.7,0,100,4.251,4.257,4.253,4.236,0,0,7.384,75.2,80.368243713516,26.902888,6,P-GPS,
7800,2023-06-07 18:11:53,0,0,26.902888,,,80.368243713516,23.293964,0,0,0,18,2,16.988,80.368243713516,26.902888,1.9908766,0,0,0,0,296.3, 2.6, 10,0,0,1024,1024,1024,1024,0,0,0,0,281,-32.6,0,100,4.251,4.257,4.253,4.236,0,0,7.384,75.2,80.368243713516,26.902888,6,P-GPS,
8000,2023-06-07 18:11:54,0,0,26.902888,,,80.368243713516,23.293964,0,0,0,18,2,16.936,80.368243713516,26.902888,1.9908766,0,0,0,0,296.5, 3.4, 9.2,0,0,1024,1024,1024,1024,0,0,0,0,281,-35.5,0,100,4.245,4.252,4.248,4.246,0,0,7.499,75.2,80.368243713516,26.902888,6,P-GPS,
8200,2023-06-07 18:11:54,0,0,26.902888,,,80.368243713516,23.293964,0.223694,0,0,18,2,16.936,80.368243713516,26.902888,1.9908766,0,0.223694,0,0,296.7, 5, 7.6,0,0,1024,1024,1024,1024,0,0,0,0,281,-38.4,0,100,4.245,4.252,4.248,4.246,0,0,7.499,75.2,80.368243713516,26.902888,6,P-GPS,
8400,2023-06-07 18:11:54,0,0,26.902888,,,80.368243713516,23.293964,0.223694,0,0,18,2,16.936,80.368243713516,26.902888,1.9908766,0,0.223694,0,0,296.2, 5.1, 7.1,0,0,1024,1024,1024,1024,0,0,0,0,281,-41.3,0,100,4.245,4.252,4.248,4.246,0,0,7.499,75.2,80.368243713516,26.902888,6,P-GPS,
8600,2023-06-07 18:11:54,0,0,26.902888,,,80.368243713516,23.622048,0.223694,0,0,18,2,16.936,80.368243713516,26.902888,1.9908766,0,0.223694,0,0,296.3, 5.7, 7.3,0,0,1024,1024,1024,1024,0,0,0,0,281,-44.2,0,100,4.245,4.252,4.248,4.246,0,0,7.499,75.2,80.368243713516,26.902888,6,P-GPS,
8800,2023-06-07 18:11:54,0,0,27.230972,,,80.696327713516,23.293964,0.223694,0,0,18,2,16.936,80.696327713516,27.230972,1.9908766,0,0.223694,0,-0.223694,297.3, 8, 5.7,0,0,1024,1024,1024,1024,0,0,0,0,281,-47.2,0,100,4.245,4.252,4.248,4.246,0,0,7.499,75.2,80.696327713516,27.230972,6,P-GPS,
9000,2023-06-07 18:11:55,0,0,27.230972,,,80.696327713516,23.293964,0.223694,0,0,18,2,16.969,80.696327713516,27.230972,1.9908766,0,0,0.223694,0,296.3, 6.4, 5.3,0,0,1024,1024,1024,1024,0,0,0,0,281,-50.1,0,100,4.23,4.237,4.242,4.243,0,0,7.404,75.2,80.696327713516,27.230972,6,P-GPS,
9200,2023-06-07 18:11:55,0,0,27.230972,,,80.696327713516,23.293964,0.223694,0,0,18,2,16.969,80.696327713516,27.230972,1.9908766,0,0,0.223694,0,296.4, 3.9, 4.5,0,0,1024,1024,1024,1024,0,0,0,0,281,-53,0,100,4.23,4.237,4.242,4.243,0,0,7.404,75.2,80.696327713516,27.230972,6,P-GPS,
9400,2023-06-07 18:11:55,0,0,27.230972,,,80.696327713516,23.293964,0,0,0,18,2,16.969,80.696327713516,27.230972,1.9908766,0,0,0,0,296.2, 3.6, 3.6,0,0,1024,1024,1024,1024,0,0,0,0,281,-55.9,0,100,4.23,4.237,4.242,4.243,0,0,7.404,75.2,80.696327713516,27.230972,6,P-GPS,
9600,2023-06-07 18:11:55,0,0,26.902888,,,80.368243713516,23.293964,0,0,0,18,2,16.969,80.696327713516,27.230972,1.9908766,0,0,0,0,296.3, 4.4, 4.8,0,0,1024,1024,1024,1024,0,0,0,0,281,-58.8,0,100,4.23,4.237,4.242,4.243,0,0,7.404,75.2,80.368243713516,26.902888,6,P-GPS,
9800,2023-06-07 18:11:55,0,0,26.902888,,,80.368243713516,23.293964,0,0,0,18,2,16.969,80.696327713516,27.230972,1.9908766,0,0,0,0,296.3, 3.1, 5.5,0,0,1024,1024,1024,1024,0,0,0,0,281,-61.7,0,100,4.23,4.237,4.242,4.243,0,0,7.404,75.2,80.368243713516,26.902888,6,P-GPS,
10000,2023-06-07 18:11:55,0,0,26.902888,,,80.368243713516,23.293964,0,0,0,18,2,16.975,80.696327713516,27.230972,1.9908766,0,0,0,0,296.3, 4.1, 6.6,0,0,1024,1024,1024,1024,0,0,0,0,281,-64.7,0,100,4.246,4.245,4.247,4.242,0,0,6.727,75.38,80.368243713516,26.902888,6,P-GPS,
10200,2023-06-07 18:11:56,0,0,26.902888,,,80.368243713516,23.293964,0,0,0,18,2,16.975,80.696327713516,27.230972,1.9908766,0,0,0,0,296.4, 4.3, 6.7,0,0,1024,1024,1024,1024,0,0,0,0,281,-67.6,0,100,4.246,4.245,4.247,4.242,0,0,6.727,75.38,80.368243713516,26.902888,6,P-GPS,
10400,2023-06-07 18:11:56,0,0,26.902888,,,80.368243713516,23.293964,0,0,0,18,2,16.975,80.696327713516,27.230972,1.9908766,0,0,0,0,296.5, 4.6, 7.2,0,0,1024,1024,1024,1024,0,0,0,0,281,-70.5,0,100,4.246,4.245,4.247,4.242,0,0,6.727,75.38,80.368243713516,26.902888,6,P-GPS,
10600,2023-06-07 18:11:56,0,0,26.902888,,,80.368243713516,23.293964,0,0,0,18,2,16.975,80.696327713516,27.230972,1.9908766,0,0,0,0,296.4, 4.6, 6.4,0,0,1024,1024,1024,1024,0,0,0,0,281,-73.4,0,100,4.246,4.245,4.247,4.242,0,0,6.727,75.38,80.368243713516,26.902888,6,P-GPS,
10800,2023-06-07 18:11:56,0,0,26.902888,,,80.368243713516,23.293964,0,0,0,18,2,16.975,80.696327713516,27.230972,1.9908766,0,0,0,0,296.4, 4.2, 6.4,0,0,1024,1024,1024,1024,0,0,0,0,281,-76.3,0,100,4.246,4.245,4.247,4.242,0,0,6.727,75.38,80.368243713516,26.902888,6,P-GPS,
11000,2023-06-07 18:11:56,0,0,26.902888,,,80.368243713516,23.293964,0,0,0,18,2,16.982,80.696327713516,27.230972,1.9908766,0,0,0,0,296.5, 5.1, 5.5,0,0,1024,1024,1024,1024,0,0,0,0,281,-79.2,0,100,4.24,4.244,4.243,4.242,0,0,6.991,75.38,80.368243713516,26.902888,6,P-GPS,
11200,2023-06-07 18:11:57,0,0,26.902888,,,80.368243713516,23.622048,0,0,0,18,2,16.982,80.696327713516,27.230972,1.9908766,0,0,0,0,296.4, 5, 6.1,0,0,1024,1024,1024,1024,0,0,0,0,281,-82.2,0,100,4.24,4.244,4.243,4.242,0,0,6.991,75.38,80.368243713516,26.902888,6,P-GPS,
11400,2023-06-07 18:11:57,0,0,26.902888,,,80.368243713516,23.622048,0,0,0,18,2,16.982,80.696327713516,27.230972,1.9908766,0,0,0,0,296.5, 5, 7.3,0,0,1024,1024,1024,1024,0,0,0,0,281,-85.1,0,100,4.24,4.244,4.243,4.242,0,0,6.991,75.38,80.368243713516,26.902888,6,P-GPS,
11600,2023-06-07 18:11:57,0,0,26.902888,,,80.368243713516,23.293964,0,0,0,18,2,16.982,80.696327713516,27.230972,1.9908766,0,0,0,0,296.6, 4.6, 7.9,0,0,1024,1024,1024,1024,0,0,0,0,281,-88,0,100,4.24,4.244,4.243,4.242,0,0,6.991,75.38,80.368243713516,26.902888,6,P-GPS,
11800,2023-06-07 18:11:57,0,0,26.902888,,,80.368243713516,23.293964,0,0,0,18,2,16.982,80.696327713516,27.230972,1.9908766,0,0,0,0,296.6, 4.3, 7.9,0,0,1024,1024,1670,1024,0,0,98,0,281,-89.9,0,100,4.24,4.244,4.243,4.242,0,0,6.991,75.38,80.368243713516,26.902888,6,P-GPS,
12000,2023-06-07 18:11:58,0,0,26.902888,,,80.368243713516,23.622048,0,0,0,18,2,16.961,80.696327713516,27.230972,1.9908766,0,0,0,-0.447388,296.6, 3.6, 6.8,0,0,1024,1024,1684,1024,0,0,100,0,281,-89.9,0,100,4.235,4.235,4.238,4.235,0,0,7.118,75.56,80.368243713516,26.902888,6,P-GPS,
12200,2023-06-07 18:11:58,0,0,27.559056,,,81.024411713516,23.950132,0,0,0,18,2,16.961,81.024411713516,27.559056,1.9908766,0,0,0,-2.684328,296.3, 3.1, 5.4,0,0,1024,1024,1684,1024,0,0,100,0,281,-90,0,100,4.235,4.235,4.238,4.235,0,0,7.118,75.56,81.024411713516,27.559056,6,P-GPS,
12400,2023-06-07 18:11:58,0,0,28.543308,,,82.008663713516,25.262468,0,0,0,18,2,16.961,82.008663713516,28.543308,1.9908766,0,0,0,-5.144962,296.4, 3.1, 6.3,0,0,1024,1024,1684,1024,0,0,100,0,281,-90,0,100,4.235,4.235,4.238,4.235,0,0,7.118,75.56,82.008663713516,28.543308,6,P-GPS,
12600,2023-06-07 18:11:58,0,0,30.511812,,,83.977167713516,27.230972,0,0,0,18,2,16.961,83.977167713516,30.511812,1.9908766,0,0,0,-7.381902,296.8, 3.1, 6.7,0,0,1024,1024,1684,1024,0,0,100,0,281,-90,0,100,4.235,4.235,4.238,4.235,0,0,7.118,75.56,83.977167713516,30.511812,6,P-GPS,
12800,2023-06-07 18:11:58,0,0,34.120736,,,87.586091713516,29.855644,0.223694,0,0,17,2,16.961,87.586091713516,34.120736,1.9908766,0,0,0.223694,-9.842536,296.4, 2.6, 5.9,0,0,1024,1024,1684,1024,0,0,100,0,281,-89.9,0,100,4.235,4.235,4.238,4.235,0,0,7.118,75.56,87.586091713516,34.120736,6,P-GPS,
13000,2023-06-07 18:11:59,0,0,38.057744,,,91.523099713516,33.136484,0.223694,0,0,17,2,16.632,91.523099713516,38.057744,1.9908766,0,0,0.223694,-12.079476,296.5, 0, 5.7,0,0,1024,1024,1684,1024,0,0,100,0,281,-89.9,0,99,4.14,4.14,4.142,4.142,0,0,10.928,75.38,91.523099713516,38.057744,6,P-GPS,
13200,2023-06-07 18:11:59,0,0,42.322836,,,95.788191713516,37.073492,0,0,0,17,2,16.632,95.788191713516,42.322836,1.9908766,0,0,0,-12.974252,296.9, -1, 5.9,0,0,1024,1024,1684,1024,0,0,100,0,281,-89.9,0,99,4.14,4.14,4.142,4.142,0,0,10.928,75.38,95.788191713516,42.322836,6,P-GPS,
13400,2023-06-07 18:11:59,0,0,47.244096,,,100.70945171352,41.0105,0,0,0,17,2,16.632,100.70945171352,47.244096,1.9908766,0,0,0,-13.42164,298, 0.7, 6.2,0,0,1024,1024,1684,1024,0,0,100,0,281,-90,0,99,4.14,4.14,4.142,4.142,0,0,10.928,75.38,100.70945171352,47.244096,6,P-GPS,
13600,2023-06-07 18:11:59,0,0,51.509188,,,104.97454371352,45.275592,0.223694,0,0,17,2,16.632,104.97454371352,51.509188,1.9908766,0,0,-0.223694,-13.42164,297.6, 2.7, 7.7,0,0,1024,1024,1684,1024,0,0,100,0,281,-90,0,99,4.14,4.14,4.142,4.142,0,0,10.928,75.38,104.97454371352,51.509188,6,P-GPS,
13800,2023-06-07 18:11:59,0,0,55.446196,,,108.91155171352,46.916012,0,0,0,17,2,16.632,108.91155171352,55.446196,1.9908766,0,0,0,-13.42164,297.1, 3.1, 7.1,0,0,1024,1024,1684,1024,0,0,100,0,281,-90,0,99,4.14,4.14,4.142,4.142,0,0,10.928,75.38,108.91155171352,55.446196,6,P-GPS,"No GPS. Fly with caution GPS signal weak. Hovering unstable. Fly with caution (Code: 30002)"
14000,2023-06-07 18:12:00,0,0,59.05512,,,112.52047571352,50.85302,0,0,0,17,2,16.605,112.52047571352,59.05512,1.9908766,0,0,0,-13.197946,298.4, 3.1, 7,0,0,1024,1024,1684,1024,0,0,100,0,281,-89.9,0,99,4.156,4.158,4.164,4.161,0,0,14.613,75.74,112.52047571352,59.05512,6,P-GPS,
14200,2023-06-07 18:12:00,0,0,63.320212,,,116.78556771352,54.461944,0.4921268,0,0,17,2,16.605,116.78556771352,63.320212,1.9908766,0,-0.447388,-0.223694,-13.197946,298.5, 1.8, 12.2,0,0,1024,1024,1684,1024,0,0,100,0,281,-89.9,0,99,4.156,4.158,4.164,4.161,0,0,14.613,75.74,116.78556771352,63.320212,6,P-GPS,
14400,2023-06-07 18:12:00,0,0,67.25722,,,120.72257571352,57.742784,0.223694,0,0,17,2,16.605,120.72257571352,67.25722,1.9908766,0,-0.223694,0,-13.197946,298.6, 0.6, 12.7,0,0,1024,1024,1684,1024,0,0,100,0,281,-90,0,99,4.156,4.158,4.164,4.161,0,0,14.613,75.74,120.72257571352,67.25722,6,P-GPS,
14600,2023-06-07 18:12:00,0,0,70.866144,,,124.33149971352,61.023624,0,0,0,17,2,16.605,124.33149971352,70.866144,1.9908766,0,0,0,-13.42164,298.6, 1.6, 11.7,0,0,1024,1024,1684,1024,0,0,100,0,281,-90,0,99,4.156,4.158,4.164,4.161,0,0,14.613,75.74,124.33149971352,70.866144,6,P-GPS,
14800,2023-06-07 18:12:00,0,0,74.475068,,,127.94042371352,64.632548,0,0,0,17,2,16.605,127.94042371352,74.475068,1.9908766,0,0,0,-13.197946,299.2, 3.2, 10.7,0,0,1024,1024,1684,1024,0,0,100,0,281,-90,0,99,4.156,4.158,4.164,4.161,0,0,14.613,75.74,127.94042371352,74.475068,6,P-GPS,
15000,2023-06-07 18:12:00,0,0,78.412076,,,131.87743171352,68.569556,0.223694,0,0,17,2,16.541,131.87743171352,78.412076,1.9908766,0,0.223694,0,-12.750558,299.3, 3.6, 8.4,0,0,1024,1024,1684,1024,0,0,100,0,281,-90,0,99,4.145,4.144,4.147,4.141,0,0,13.261,75.74,131.87743171352,78.412076,6,P-GPS,
15200,2023-06-07 18:12:01,52.2063572778138,0.08669731527844,81.692916,81.692916,53.465355713516,135.15827171352,72.17848,0.223694,0,0,17,2,16.541,135.15827171352,81.692916,1.9908766,0,0,-0.223694,-11.1847,296.7, 4.9, 9.2,0,0,1024,1024,1684,1024,0,0,100,0,281,-90,0,99,4.145,4.144,4.147,4.141,0,0,13.261,75.74,135.15827171352,81.692916,6,P-GPS,
15400,2023-06-07 18:12:01,52.2063581545147,0.0866971813292442,84.645672,84.645672,53.465355713516,138.11102771352,75.787404,0.3131716,0.321262805556,0.321262805556,17,2,16.541,138.11102771352,84.645672,1.9908766,0.321262805556,0.223694,-0.223694,-9.171454,295.5, 8.4, 7.4,0,0,1024,1024,1600,1024,0,0,87,0,281,-90,0,99,4.145,4.144,4.147,4.141,0,0,13.261,75.74,138.11102771352,84.645672,6,P-GPS,
15600,2023-06-07 18:12:01,52.2063589453718,0.0866970335642809,86.614176,86.614176,53.465355713516,140.07953171352,78.083992,0.223694,0.61166012456,0.61169293296,18,2,16.541,140.07953171352,86.614176,1.9908766,0.61166012456,0,-0.223694,-7.605596,296.2, 9.6, 6.3,0,0,1024,1024,1320,1024,0,0,45,0,281,-90,0,99,4.145,4.144,4.147,4.141,0,0,13.261,75.74,140.07953171352,86.614176,6,P-GPS,
15800,2023-06-07 18:12:01,52.2063592850784,0.0866970099936758,88.58268,88.58268,53.465355713516,142.04803571352,80.38058,0,0.73552495792,0.7357447742,18,2,16.541,142.04803571352,88.58268,1.9908766,0.73552495792,0,0,-6.487126,298.6, 9.9, 5.8,0,0,1024,1024,1024,1024,0,0,0,0,281,-90,0,99,4.145,4.144,4.147,4.141,0,0,13.261,75.74,142.04803571352,88.58268,6,P-GPS,
16000,2023-06-07 18:12:02,52.2063593223289,0.0866970856685343,89.566932,89.566932,53.465355713516,143.03228771352,82.349084,0,0.747703436,0.7574475308,17,2,16.893,143.03228771352,89.566932,1.9908766,0.747703436,0,0,-4.47388,298.9, 11.2, 6.1,0,0,1024,1024,1024,1024,0,0,0,0,281,-90,0,99,4.222,4.223,4.225,4.219,0,0,9.544,75.92,143.03228771352,89.566932,6,P-GPS,
16200,2023-06-07 18:12:02,52.2063592449634,0.0866972911896112,89.895016,89.895016,53.465355713516,143.36037171352,83.005252,0,0.7177329626,0.81137797872,17,5,16.893,143.36037171352,89.895016,1.9908766,0.747703436,0,0,-2.013246,297.4, 13.1, 1.5,0,0,1024,1024,1024,1024,0,0,0,0,281,-89.9,0,99,4.222,4.223,4.225,4.219,0,0,9.544,75.92,143.36037171352,89.895016,6,P-GPS,
16400,2023-06-07 18:12:02,52.2063590326599,0.0866977406853835,90.2231,90.2231,53.465355713516,143.68845571352,82.677168,0.223694,0.64728020444,0.93826446572,17,5,16.893,143.68845571352,90.2231,1.9908766,0.747703436,-0.223694,0,-0.447388,292.9, 11.9, -2.9,0,0,1024,1024,1024,1024,0,0,0,0,281,-89.9,0,99,4.222,4.223,4.225,4.219,0,0,9.544,75.92,143.68845571352,90.2231,6,P-GPS,
16600,2023-06-07 18:12:02,52.2063584909378,0.086698481500856,89.895016,89.895016,53.465355713516,143.36037171352,81.692916,0.6263432,0.51370408468,1.19613848972,17,5,16.893,143.68845571352,90.2231,1.9908766,0.747703436,-0.447388,0.447388,0,290.1, 8.4, -5.2,0,0,1024,1024,1024,1024,0,0,0,0,281,-89.9,0,99,4.222,4.223,4.225,4.219,0,0,9.544,75.92,143.36037171352,89.895016,6,P-GPS,
16800,2023-06-07 18:12:02,52.2063575554623,0.0866993022802664,89.895016,89.895016,53.465355713516,143.36037171352,81.364832,1.006623,0.45566930592,1.58365490632,18,5,16.893,143.68845571352,90.2231,1.9908766,0.747703436,-0.894776,0.447388,0,289.8, 6.3, -5.3,0,0,1024,1024,1024,1024,0,0,0,0,281,-89.9,0,99,4.222,4.223,4.225,4.219,0,0,9.544,75.92,143.36037171352,89.895016,6,P-GPS,
17000,2023-06-07 18:12:02,52.2063561894607,0.0866996581786127,89.895016,89.895016,53.465355713516,143.36037171352,82.021,1.5882274,0.6573326982,2.0883530852,18,5,17.037,143.68845571352,90.2231,1.9908766,0.747703436,-1.565858,0.223694,0,292.4, 4.7, -1.4,0,0,1024,1024,1024,1024,0,0,0,0,281,-89.9,0,99,4.23,4.232,4.231,4.226,0,0,5.627,76.1,143.36037171352,89.895016,6,P-GPS,"Setting new Maximum Flight Altitude to 120m (394 ft)"
17200,2023-06-07 18:12:03,52.2063542411931,0.0866997525521182,89.895016,89.895016,53.465355713516,143.36037171352,82.677168,2.013246,1.23467523636,2.7994915594,18,5,17.037,143.68845571352,90.2231,2.013246,1.23467523636,-2.013246,0,0,297.9, 2.8, 8.3,0,0,1024,1024,1024,1024,0,0,0,0,281,-89.9,0,99,4.23,4.232,4.231,4.226,0,0,5.627,76.1,143.36037171352,89.895016,6,P-GPS,
17400,2023-06-07 18:12:03,52.2063521808536,0.0866996740060055,89.566932,89.566932,53.465355713516,143.03228771352,83.66142,1.789552,1.93295937944,3.5514108748,18,5,17.037,143.68845571352,90.2231,2.013246,1.93295937944,-1.789552,0,0,294, 1.4, 16.4,0,0,1024,1024,1024,1024,0,0,0,0,281,-89.9,0,99,4.23,4.232,4.231,4.226,0,0,5.627,76.1,143.03228771352,89.566932,6,P-GPS,
17600,2023-06-07 18:12:03,52.206350611429,0.0866996491874041,89.895016,89.895016,53.465355713516,143.36037171352,83.66142,1.11847,2.48757553892,4.1240486884,18,5,17.037,143.68845571352,90.2231,2.013246,2.48757553892,-1.11847,0,-0.223694,287.9, 1.1, 16.6,0,0,1024,1024,1024,1024,0,0,0,0,281,-90,0,99,4.23,4.232,4.231,4.226,0,0,5.627,76.1,143.36037171352,89.895016,6,P-GPS,
17800,2023-06-07 18:12:03,52.2063495979603,0.0866996457390595,89.895016,89.895016,53.465355713516,143.36037171352,83.333336,0.447388,2.85002633792,4.4937993564,18,5,17.037,143.68845571352,90.2231,2.013246,2.85002633792,-0.447388,0,-0.223694,288.2, 1.2, 15.1,0,0,1024,1024,1459,1024,0,0,66,0,281,-90,0,99,4.23,4.232,4.231,4.226,0,0,5.627,76.1,143.36037171352,89.895016,6,P-GPS,
18000,2023-06-07 18:12:03,52.206349140525,0.0866996873356584,89.895016,89.895016,53.465355713516,143.36037171352,83.333336,0,3.01588592328,4.6609581544,18,5,16.866,143.68845571352,90.2231,2.013246,3.01588592328,0,0,0,288.3, 1.4, 13.2,0,0,1024,1024,1684,1024,0,0,100,0,281,-89.9,0,99,4.209,4.215,4.212,4.212,0,0,7.358,76.1,143.36037171352,89.895016,6,P-GPS,"Home Point updated (Code: 3000001)"
18200,2023-06-07 18:12:04,52.2063493028457,0.0866997904996359,90.2231,90.2231,53.465355713516,143.68845571352,83.66142,0.223694,2.9618275226,4.7245080252,17,5,16.866,143.68845571352,90.2231,2.013246,3.01588592328,0.223694,0,-1.565858,288.3, 1.3, 10.3,0,0,1024,1024,1684,1024,0,0,100,0,281,-89.9,0,99,4.209,4.215,4.212,4.212,0,0,7.358,76.1,143.68845571352,90.2231,6,P-GPS,
18400,2023-06-07 18:12:04,52.2063498789427,0.0866999978957105,90.879268,90.879268,53.465355713516,144.34462371352,83.66142,0.447388,2.7653052066,4.9397639376,18,5,16.866,144.34462371352,90.879268,2.013246,3.01588592328,0.447388,0,-3.579104,289.2, 2.6, 8.2,0,0,1024,1024,1684,1024,0,0,100,0,281,-89.9,0,99,4.209,4.215,4.212,4.212,0,0,7.358,76.1,144.34462371352,90.879268,6,P-GPS,
18600,2023-06-07 18:12:04,52.2063506418918,0.0867002270560886,92.191604,92.191604,53.465355713516,145.65695971352,83.66142,0.447388,2.50711622196,5.2228020044,18,5,16.866,145.65695971352,92.191604,2.013246,3.01588592328,0.447388,0,-4.921268,290.9, 3, 6.7,0,0,1024,1024,1684,1024,0,0,100,0,281,-89.9,0,99,4.209,4.215,4.212,4.212,0,0,7.358,76.1,145.65695971352,92.191604,6,P-GPS,
18800,2023-06-07 18:12:04,52.2063514022772,0.0867004631275722,93.832024,93.832024,53.465355713516,147.29737971352,83.66142,0.223694,2.25626975724,5.5051839032,17,5,16.866,147.29737971352,93.832024,2.013246,3.01588592328,0.223694,0,-5.59235,288.8, 1.4, 10,0,0,1024,1024,1684,1024,0,0,100,0,281,-89.9,0,99,4.209,4.215,4.212,4.212,0,0,7.358,76.1,147.29737971352,93.832024,6,P-GPS,
19000,2023-06-07 18:12:05,52.2063521764768,0.0867006476890395,95.800528,95.800528,53.465355713516,149.26588371352,83.66142,0.223694,2.00481633712,5.7906497916,17,5,16.636,149.26588371352,95.800528,2.013246,3.01588592328,0.223694,0,-6.039738,288.3, 0.1, 14.4,0,0,1024,1024,1684,1024,0,0,100,0,281,-89.9,0,99,4.167,4.168,4.173,4.173,0,0,9.564,76.1,149.26588371352,95.800528,6,P-GPS,
19200,2023-06-07 18:12:05,52.2063532426707,0.0867007992449539,97.769032,97.769032,53.465355713516,151.23438771352,83.66142,0.894776,1.665600447,6.1811353684,17,5,16.636,151.23438771352,97.769032,2.013246,3.01588592328,0.894776,0,-6.487126,288.6, 1, 10,0,0,1024,1024,1684,1024,0,0,100,0,281,-89.9,0,99,4.167,4.168,4.173,4.173,0,0,9.564,76.1,151.23438771352,97.769032,6,P-GPS,
19400,2023-06-07 18:12:05,52.2063546025563,0.0867009051469436,100.06562,100.06562,53.465355713516,153.53097571352,83.66142,0.894776,1.26370410868,6.6778545444,18,5,16.636,153.53097571352,100.06562,2.013246,3.01588592328,0.894776,0,-6.71082,288.4, 1.8, 9.5,0,0,1024,1024,1684,1024,0,0,100,0,281,-90,0,99,4.167,4.168,4.173,4.173,0,0,9.564,76.1,153.53097571352,100.06562,6,P-GPS,
19600,2023-06-07 18:12:05,52.2063561424589,0.0867010494173645,104.002628,104.002628,53.465355713516,157.46798371352,83.66142,0.894776,0.93201774636,7.2406170296,17,5,16.636,157.46798371352,104.002628,2.013246,3.01588592328,0.894776,0,-7.158208,287.7, 1.2, 8.3,0,0,1024,1024,1684,1024,0,0,100,0,281,-90,0,99,4.167,4.168,4.173,4.173,0,0,9.564,76.1,157.46798371352,104.002628,6,P-GPS,
19800,2023-06-07 18:12:05,52.2063577998262,0.0867011884730023,106.955384,106.955384,53.465355713516,160.42073971352,83.66142,1.11847,0.88668966092,7.8460960516,17,5,16.636,160.42073971352,106.955384,2.013246,3.01588592328,1.11847,0,-7.82929,285.9, 2, 4.3,0,0,1024,1024,1684,1024,0,0,100,0,281,-90,0,99,4.167,4.168,4.173,4.173,0,0,9.564,76.1,160.42073971352,106.955384,6,P-GPS,
20000,2023-06-07 18:12:06,52.2063594159126,0.0867012080674283,109.580056,109.580056,53.465355713516,163.04541171352,83.66142,0.9171454,1.16879596916,8.4357286164,17,5,16.717,163.04541171352,109.580056,2.013246,3.01588592328,0.894776,-0.223694,-8.276678,286.9, 3.2, 2.6,0,0,1024,1024,1684,1024,0,0,100,0,281,-89.9,0,99,4.169,4.174,4.174,4.17,0,0,10.806,76.28,163.04541171352,109.580056,6,P-GPS,
20200,2023-06-07 18:12:06,52.2063609107646,0.0867010984468967,112.532812,112.532812,53.465355713516,165.99816771352,83.66142,0.4921268,1.57238194008,8.9816932008,17,5,16.717,165.99816771352,112.532812,2.013246,3.01588592328,0.447388,-0.223694,-8.500372,287.6, 4.5, 3.6,0,0,1024,1024,1684,1024,0,0,100,0,281,-89.9,0,99,4.169,4.174,4.174,4.17,0,0,10.806,76.28,165.99816771352,112.532812,6,P-GPS,
20400,2023-06-07 18:12:06,52.2063622936635,0.086700980123265,115.813652,115.813652,53.465355713516,169.27900771352,83.66142,0.3131716,2.00510505104,9.4869425608,18,5,16.717,169.27900771352,115.813652,2.013246,3.01588592328,0.223694,-0.223694,-9.171454,288.1, 4.5, 3.9,0,0,1024,1024,1684,1024,0,0,100,0,281,-90,0,99,4.169,4.174,4.174,4.17,0,0,10.806,76.28,169.27900771352,115.813652,6,P-GPS,
20600,2023-06-07 18:12:06,52.2063634540513,0.0867008712274822,118.438324,118.438324,53.465355713516,171.90367971352,83.66142,0.223694,2.38954403972,9.9109911308,18,5,16.717,171.90367971352,118.438324,2.013246,3.01588592328,0,-0.223694,-9.395148,288.1, 5.1, 5.8,0,0,1024,1024,1420,1024,0,0,60,0,281,-90,0,99,4.169,4.174,4.174,4.17,0,0,10.806,76.28,171.90367971352,118.438324,6,P-GPS,
20800,2023-06-07 18:12:06,52.2063645138165,0.0867008438600283,121.719164,121.719164,53.465355713516,175.18451971352,83.66142,0,2.755413474,10.2977037416,18,5,16.717,175.18451971352,121.719164,2.013246,3.01588592328,0,0,-9.842536,288.2, 4.1, 5.9,0,0,1024,1024,1024,1024,0,0,0,0,281,-89.9,0,99,4.169,4.174,4.174,4.17,0,0,10.806,76.28,175.18451971352,121.719164,6,P-GPS,
21000,2023-06-07 18:12:07,52.206365486336,0.0867007582798343,124.343836,124.343836,53.465355713516,177.80919171352,83.66142,0.223694,3.09222778924,10.653051522,18,5,16.714,177.80919171352,124.343836,2.013246,3.09222778924,0,-0.223694,-8.724066,288, 4.6, 7.5,0,0,1024,1024,1024,1024,0,0,0,0,281,-90,0,99,4.161,4.16,4.161,4.157,0,0,10.464,76.28,177.80919171352,124.343836,6,P-GPS,
21200,2023-06-07 18:12:07,52.2063664024895,0.0867004632459609,126.31234,126.31234,53.465355713516,179.77769571352,83.66142,0.223694,3.402723206,10.9937339476,18,5,16.714,179.77769571352,126.31234,2.013246,3.402723206,0,-0.223694,-6.487126,288.2, 6.7, 7.8,0,0,1024,1024,1024,1024,0,0,0,0,281,-90,0,99,4.161,4.16,4.161,4.157,0,0,10.464,76.28,179.77769571352,126.31234,6,P-GPS,
21400,2023-06-07 18:12:07,52.2063672608497,0.0867000502458062,126.968508,126.968508,53.465355713516,180.43386371352,83.66142,0.3131716,3.6932743964,11.3202431444,18,5,16.714,180.43386371352,126.968508,2.013246,3.6932743964,-0.223694,-0.223694,-4.026492,288.4, 8.1, 7.7,0,0,1024,1024,1024,1024,0,0,0,0,281,-89.9,0,99,4.161,4.16,4.161,4.157,0,0,10.464,76.28,180.43386371352,126.968508,6,P-GPS,
21600,2023-06-07 18:12:07,52.2063680149551,0.0866996073568674,127.296592,127.296592,53.465355713516,180.76194771352,83.66142,0.3131716,3.9508203364,11.6126644136,18,5,16.714,180.76194771352,127.296592,2.013246,3.9508203364,-0.223694,-0.223694,-1.789552,288.2, 8.6, 7.6,0,0,1024,1024,1657,1024,0,0,96,0,281,-90,0,99,4.161,4.16,4.161,4.157,0,0,10.464,76.28,180.76194771352,127.296592,6,P-GPS,
21800,2023-06-07 18:12:07,52.2063686846787,0.0866992545652421,127.296592,127.296592,53.465355713516,180.76194771352,83.66142,0.223694,4.1843177192,11.869422952,17,5,16.714,180.76194771352,127.296592,2.013246,4.1843177192,-0.223694,0,-0.671082,288.6, 8.3, 6.6,0,0,1024,1024,1024,1024,0,0,0,0,281,-89.9,0,99,4.161,4.16,4.161,4.157,0,0,10.464,76.28,180.76194771352,127.296592,6,P-GPS,
22000,2023-06-07 18:12:08,52.2063692473321,0.086699210114645,127.624676,127.624676,53.465355713516,181.09003171352,83.66142,0.223694,4.3875657572,12.0749347696,17,5,16.951,181.09003171352,127.624676,2.013246,4.3875657572,-0.223694,0,-1.342164,289.4, 6.7, 4.8,0,0,1024,1024,1024,1024,0,0,0,0,281,-90,0,99,4.262,4.258,4.255,4.243,0,0,8.261,76.64,181.09003171352,127.624676,6,P-GPS,
22200,2023-06-07 18:12:08,52.2063695495304,0.0866992389984355,127.95276,127.95276,53.465355713516,181.41811571352,83.66142,0.223694,4.4979332148,12.1854006524,18,5,16.951,181.41811571352,127.95276,2.013246,4.4979332148,-0.223694,0,-0.223694,289.7, 7.4, 5.3,0,0,1024,1024,1069,1024,0,0,7,0,281,-89.9,0,99,4.262,4.258,4.255,4.243,0,0,8.261,76.64,181.41811571352,127.95276,6,P-GPS,
22400,2023-06-07 18:12:08,52.2063696154045,0.086699427498403,127.95276,127.95276,53.465355713516,181.41811571352,83.66142,0.3131716,4.526082822,12.233924276,18,5,16.951,181.41811571352,127.95276,2.013246,4.526082822,-0.223694,0.223694,0,290.8, 5.2, 3.5,0,0,1024,1024,1663,1024,0,0,97,0,281,-89.9,0,99,4.262,4.258,4.255,4.243,0,0,8.261,76.64,181.41811571352,127.95276,6,P-GPS,
22600,2023-06-07 18:12:08,52.2063694210923,0.0866996808164151,128.280844,128.280844,53.465355713516,181.74619971352,83.66142,0.4921268,4.4619424,12.324639502,18,5,16.951,181.74619971352,128.280844,2.013246,4.526082822,-0.447388,0.223694,-0.894776,293.3, 1.6, 3.4,0,0,1024,1024,1024,1024,0,0,0,0,281,-89.9,0,99,4.262,4.258,4.255,4.243,0,0,8.261,76.64,181.74619971352,128.280844,6,P-GPS,
22800,2023-06-07 18:12:08,52.2063690539601,0.0866996996133554,128.937012,128.937012,53.465355713516,182.40236771352,83.66142,0.671082,4.3294620808,12.458661816,19,5,16.951,182.40236771352,128.937012,2.013246,4.526082822,-0.671082,0,-2.013246,294, 4.3, 6.4,0,0,1024,1024,1024,1024,0,0,0,0,281,-89.9,0,99,4.262,4.258,4.255,4.243,0,0,8.261,76.64,182.40236771352,128.937012,6,P-GPS,
23000,2023-06-07 18:12:09,52.20636857621,0.0866995505012289,129.265096,129.265096,53.465355713516,182.73045171352,83.66142,0.671082,4.152395146,12.6361224516,19,5,16.857,182.73045171352,129.265096,2.013246,4.526082822,-0.671082,0,-0.671082,294, 4.5, 8.9,0,0,1024,1024,1024,1024,0,0,0,0,281,-89.9,0,99,4.16,4.168,4.169,4.166,0,0,5.992,76.64,182.73045171352,129.265096,6,P-GPS,
23200,2023-06-07 18:12:09,52.2063682190571,0.0866994862895442,129.59318,129.59318,53.465355713516,183.05853571352,83.66142,0.447388,4.021325588,12.767224818,19,5,16.857,183.05853571352,129.59318,2.013246,4.526082822,-0.447388,0,-0.223694,293.2, 2.5, 7.6,0,0,1024,1024,1024,1024,0,0,0,0,281,-89.9,0,99,4.16,4.168,4.169,4.166,0,0,5.992,76.64,183.05853571352,129.59318,6,P-GPS,
23400,2023-06-07 18:12:09,52.2063680881507,0.0866993773221165,129.59318,129.59318,53.465355713516,183.05853571352,83.66142,0.447388,3.9709975024,12.8208337436,19,5,16.857,183.05853571352,129.59318,2.013246,4.526082822,-0.447388,0,0,293.9, 2.7, 6.6,0,0,1024,1024,1550,988,0,0,80,-5,281,-90,0,99,4.16,4.168,4.169,4.166,0,0,5.992,76.64,183.05853571352,129.59318,6,P-GPS,
23600,2023-06-07 18:12:09,52.2063680339779,0.08669921057706,129.59318,129.59318,53.465355713516,183.05853571352,83.66142,0.223694,3.947178604,12.8630581544,19,5,16.857,183.05853571352,129.59318,2.013246,4.526082822,-0.223694,0,-0.671082,293.8, 6.8, -0.5,0,0,1024,1024,1024,1024,0,0,0,0,281,-89.9,0,99,4.16,4.168,4.169,4.166,0,0,5.992,76.64,183.05853571352,129.59318,6,P-GPS,
23800,2023-06-07 18:12:09,52.2063675517741,0.0866991285767051,130.249348,130.249348,53.465355713516,183.71470371352,83.66142,0.671082,3.7703085196,13.0399282388,19,5,16.857,183.71470371352,130.249348,2.013246,4.526082822,-0.671082,0,-1.789552,293.9, 6.9, 1.3,0,0,1024,1024,1024,1024,0,0,0,0,281,-90,0,99,4.16,4.168,4.169,4.166,0,0,5.992,76.64,183.71470371352,130.249348,6,P-GPS,
24000,2023-06-07 18:12:09,52.2063667485879,0.086699052453411,130.577432,130.577432,53.465355713516,184.04278771352,83.66142,0.894776,3.4771654656,13.3334649936,19,5,16.918,184.04278771352,130.577432,2.013246,4.526082822,-0.894776,0,-0.447388,294, 6.7, 4.9,0,0,1024,1024,1024,1024,0,0,0,0,281,-89.9,0,99,4.158,4.163,4.166,4.157,0,0,7.329,76.64,184.04278771352,130.577432,6,P-GPS,
24200,2023-06-07 18:12:10,52.2063659047004,0.0866990697429701,130.577432,130.577432,53.465355713516,184.04278771352,83.66142,0.894776,3.17186361856,13.6413718276,18,5,16.918,184.04278771352,130.577432,2.013246,4.526082822,-0.894776,0,0,293.9, 3.7, 7.5,0,0,1024,1024,1024,1024,0,0,0,0,281,-90,0,99,4.158,4.163,4.166,4.157,0,0,7.329,76.64,184.04278771352,130.577432,6,P-GPS,
24400,2023-06-07 18:12:10,52.2063653062689,0.0866991805711977,130.577432,130.577432,53.465355713516,184.04278771352,83.66142,0.894776,2.95871728628,13.8611224908,18,5,16.918,184.04278771352,130.577432,2.013246,4.526082822,-0.894776,0,0,293.9, 2.9, 8,0,0,1024,1024,1024,1024,0,0,0,0,281,-89.9,0,99,4.158,4.163,4.166,4.157,0,0,7.329,76.64,184.04278771352,130.577432,6,P-GPS,
24600,2023-06-07 18:12:10,52.206365035193,0.0866993665622853,130.577432,130.577432,53.465355713516,184.04278771352,83.66142,0.671082,2.86719497364,13.9684059588,19,5,16.918,184.04278771352,130.577432,2.013246,4.526082822,-0.671082,0,0,293.9, 3, 7.3,0,0,1024,1024,1024,1024,0,0,0,0,281,-90,0,99,4.158,4.163,4.166,4.157,0,0,7.329,76.64,184.04278771352,130.577432,6,P-GPS,
24800,2023-06-07 18:12:10,52.2063650066562,0.0866995789547136,130.577432,130.577432,53.465355713516,184.04278771352,83.66142,0.447388,2.86492463236,14.0170280076,19,5,16.918,184.04278771352,130.577432,2.013246,4.526082822,-0.447388,0,0,294, 3.2, 6.4,0,0,1024,1024,1024,1024,0,0,0,0,281,-89.9,0,99,4.158,4.163,4.166,4.157,0,0,7.329,76.64,184.04278771352,130.577432,6,P-GPS,
25000,2023-06-07 18:12:10,52.2063650890505,0.0866997820614905,130.577432,130.577432,53.465355713516,184.04278771352,83.66142,0.447388,2.902805211,14.0714899516,19,5,16.902,184.04278771352,130.577432,2.013246,4.526082822,-0.447388,0,0,294, 3.3, 6.8,0,0,1024,1024,1024,1024,0,0,0,0,281,-89.9,0,99,4.218,4.22,4.22,4.214,0,0,7.453,76.82,184.04278771352,130.577432,6,P-GPS,
25200,2023-06-07 18:12:11,52.206365244326,0.0866999355620817,130.577432,130.577432,53.465355713516,184.04278771352,83.66142,0.447388,2.96503290328,14.1377301112,19,5,16.902,184.04278771352,130.577432,2.013246,4.526082822,-0.447388,0,0,294, 3, 7.5,0,0,1680,1024,1024,1024,99,0,0,0,281,-89.9,0,99,4.218,4.22,4.22,4.214,0,0,7.453,76.82,184.04278771352,130.577432,6,P-GPS,
25400,2023-06-07 18:12:11,52.2063655267937,0.0866999662994639,130.577432,130.577432,53.465355713516,184.04278771352,83.66142,0.223694,3.06744760472,14.2410109544,19,5,16.902,184.04278771352,130.577432,2.013246,4.526082822,-0.223694,0,0,293.4, -11.4, 4.1,0,0,1684,1024,1024,1024,100,0,0,0,281,-89.9,0,99,4.218,4.22,4.22,4.214,0,0,7.453,76.82,184.04278771352,130.577432,6,P-GPS,
25600,2023-06-07 18:12:11,52.2063660835932,0.0866987600470246,130.905516,130.905516,53.465355713516,184.37087171352,83.66142,1.789552,3.22898304296,14.5786750072,19,5,16.902,184.37087171352,130.905516,2.013246,4.526082822,0,-1.789552,0,292.9, -26.1, 3.1,0,0,1684,1024,1024,1024,100,0,0,0,281,-90,0,99,4.218,4.22,4.22,4.214,0,0,7.453,76.82,184.37087171352,130.905516,6,P-GPS,
25800,2023-06-07 18:12:11,52.2063671636412,0.0866948236952454,130.577432,130.577432,53.465355713516,184.04278771352,83.66142,4.0712308,3.649606416,15.5429795,19,5,16.902,184.37087171352,130.905516,4.0712308,4.526082822,0.671082,-4.026492,0,291.9, -24.6, 5.7,0,0,1684,1024,1024,1024,100,0,0,0,281,-90,0,99,4.218,4.22,4.22,4.214,0,0,7.453,76.82,184.04278771352,130.577432,6,P-GPS,
26000,2023-06-07 18:12:12,52.2063688782145,0.0866880419967449,130.577432,130.577432,53.465355713516,184.04278771352,83.66142,6.2410626,4.7129594684,17.183235458,19,5,16.873,184.37087171352,130.905516,6.2410626,4.7129594684,1.565858,-6.039738,0,292.4, -24.3, 7.3,0,0,1684,1024,1024,1024,100,0,0,0,281,-90,0,99,4.192,4.2,4.195,4.196,0,0,7.079,76.82,184.04278771352,130.577432,6,P-GPS,
26200,2023-06-07 18:12:12,52.2063710531953,0.0866785458117997,130.577432,130.577432,53.465355713516,184.04278771352,83.66142,8.1424616,6.5476380048,19.4499021972,19,5,16.873,184.37087171352,130.905516,8.1424616,6.5476380048,2.23694,-7.82929,0,292.3, -21.9, 8.1,0,0,1684,1024,1024,1024,100,0,0,0,281,-90,0,99,4.192,4.2,4.195,4.196,0,0,7.079,76.82,184.04278771352,130.577432,6,P-GPS,
26400,2023-06-07 18:12:12,52.206373593882,0.0866669556745774,130.577432,130.577432,53.465355713516,184.04278771352,83.66142,9.283301,9.0285107876,22.202100448,19,5,16.873,184.37087171352,130.905516,9.283301,9.0285107876,2.460634,-8.94776,0,290.4, -12.4, 8.4,0,0,1684,1024,1024,1024,100,0,0,0,281,-90,0,99,4.192,4.2,4.195,4.196,0,0,7.079,76.82,184.04278771352,130.577432,6,P-GPS,
26600,2023-06-07 18:12:12,52.2063762823401,0.0866542753493324,130.249348,130.249348,53.465355713516,183.71470371352,83.66142,9.9320136,11.8609583848,25.2021333524,22,5,16.873,184.37087171352,130.905516,9.9320136,11.8609583848,2.460634,-9.618842,0,289.5, -8.9, 8.3,0,0,1684,1024,1024,1024,100,0,0,0,281,-89.9,0,99,4.192,4.2,4.195,4.196,0,0,7.079,76.82,183.71470371352,130.249348,6,P-GPS,
26800,2023-06-07 18:12:12,52.2063790500709,0.0866409286676954,130.249348,130.249348,53.465355713516,183.71470371352,83.66142,10.4688792,14.9011487708,28.3524943456,22,5,16.873,184.37087171352,130.905516,10.4688792,14.9011487708,2.908022,-10.06623,0,289.5, -7.7, 8.1,0,0,1684,1024,1024,1024,100,0,0,0,281,-90,0,99,4.192,4.2,4.195,4.196,0,0,7.079,76.82,183.71470371352,130.249348,6,P-GPS,
27000,2023-06-07 18:12:13,52.2063818664467,0.0866270634801449,130.249348,130.249348,53.465355713516,183.71470371352,83.66142,10.9162672,18.088747298,31.618439332,22,5,16.806,184.37087171352,130.905516,10.9162672,18.088747298,2.908022,-10.513618,0,289.4, -7.2, 8,0,0,1684,1024,1024,1024,100,0,0,0,281,-90,0,99,4.218,4.223,4.225,4.221,0,0,8.181,76.82,183.71470371352,130.249348,6,P-GPS,
27200,2023-06-07 18:12:13,52.2063847020531,0.0866127238604873,129.921264,129.921264,53.465355713516,183.38661971352,83.66142,11.1847,21.3970807372,34.987533928,22,5,16.806,184.37087171352,130.905516,11.1847,21.3970807372,3.131716,-10.737312,0,289.5, -9.7, 7.6,0,0,1684,1024,1024,1024,100,0,0,0,281,-89.9,0,99,4.218,4.223,4.225,4.221,0,0,8.181,76.82,183.38661971352,129.921264,6,P-GPS,
27400,2023-06-07 18:12:13,52.2063875661872,0.0865977707233783,129.921264,129.921264,53.465355713516,183.38661971352,83.66142,11.8334126,24.849246202,38.490158712,22,5,16.806,184.37087171352,130.905516,11.8334126,24.849246202,3.131716,-11.408394,0,289.5, -5.7, 8.1,0,0,1684,1024,1024,1024,100,0,0,0,281,-90,0,99,4.218,4.223,4.225,4.221,0,0,8.181,76.82,183.38661971352,129.921264,6,P-GPS,
27600,2023-06-07 18:12:13,52.206390452653,0.0865824304874705,129.921264,129.921264,53.465355713516,183.38661971352,83.66142,12.0571066,28.3956045832,42.078085336,22,5,16.806,184.37087171352,130.905516,12.0571066,28.3956045832,3.131716,-11.632088,0,289.7, -4.6, 9.7,0,0,1684,1024,1024,1024,100,0,0,0,281,-89.9,0,99,4.218,4.223,4.225,4.221,0,0,8.181,76.82,183.38661971352,129.921264,6,P-GPS,
27800,2023-06-07 18:12:13,52.2063934618847,0.0865668710183631,129.59318,129.5603716,53.498164113516,183.05853571352,83.66142,12.3255394,32.0143382948,45.726051332,22,5,16.806,184.37087171352,130.905516,12.3255394,32.0143382948,3.35541,-11.855782,0,289, -11.8, 9.2,0,0,1024,1024,1024,1024,0,0,0,0,281,-90,0,99,4.218,4.223,4.225,4.221,0,0,8.181,76.82,183.05853571352,129.59318,6,P-GPS,
28000,2023-06-07 18:12:14,52.2063967192286,0.0865505937029429,129.59318,129.4947548,53.563780913516,183.05853571352,83.66142,13.0189908,35.822507708,49.554791612,22,5,16.876,184.37087171352,130.905516,13.0189908,35.822507708,3.579104,-12.526864,0,289.1, -6.6, 9.3,0,0,1024,1024,1024,1024,0,0,0,0,281,-89.9,0,99,4.217,4.219,4.214,4.213,0,0,6.66,77,183.05853571352,129.59318,6,P-GPS,
28200,2023-06-07 18:12:14,52.2064001145425,0.0865341672963656,129.59318,129.4619464,53.596589313516,183.05853571352,83.66142,12.1689536,39.684712556,53.430775988,22,5,16.876,184.37087171352,130.905516,13.0189908,39.684712556,3.579104,-11.632088,0,291.5, 25, 8.6,0,0,1024,1024,1024,1024,0,0,0,0,281,-89.9,0,99,4.217,4.219,4.214,4.213,0,0,6.66,77,183.05853571352,129.59318,6,P-GPS,
28400,2023-06-07 18:12:14,52.2064031036141,0.0865200777696103,129.59318,129.429138,53.629397713516,183.05853571352,83.66142,10.0438606,43.010500064,56.764437512,22,5,16.876,184.37087171352,130.905516,13.0189908,43.010500064,2.908022,-9.618842,0,292.7, 27.1, 10.5,0,0,1024,1024,1024,1024,0,0,0,0,281,-89.9,0,99,4.217,4.219,4.214,4.213,0,0,6.66,77,183.05853571352,129.59318,6,P-GPS,
28600,2023-06-07 18:12:14,52.2064056307329,0.0865089537239876,129.59318,129.3963296,53.662206113516,183.05853571352,83.66142,7.493749,45.660762616,59.416996652,22,5,16.876,184.37087171352,130.905516,13.0189908,45.660762616,2.23694,-7.158208,0,293, 27.6, 9.9,0,0,1024,1024,1024,1024,0,0,0,0,281,-89.9,0,99,4.217,4.219,4.214,4.213,0,0,6.66,77,183.05853571352,129.59318,6,P-GPS,
28800,2023-06-07 18:12:14,52.2064076480314,0.0865008684818717,129.59318,129.3635212,53.695014513516,183.05853571352,83.66142,5.1673314,47.612534332,61.368768368,22,5,16.876,184.37087171352,130.905516,13.0189908,47.612534332,1.565858,-4.921268,0,293, 27.4, 9.9,0,0,1024,1024,1024,1024,0,0,0,0,281,-90,0,99,4.217,4.219,4.214,4.213,0,0,6.66,77,183.05853571352,129.59318,6,P-GPS,
29000,2023-06-07 18:12:15,52.2064091155279,0.0864957322111223,129.59318,129.3635212,53.695014513516,183.05853571352,83.66142,3.1093466,48.878610488,62.635828776,22,5,16.826,184.37087171352,130.905516,13.0189908,48.878610488,1.11847,-2.908022,0,292.7, 25.8, 10.2,0,0,1024,1024,1024,1024,0,0,0,0,281,-90,0,99,4.201,4.201,4.201,4.195,0,0,7.434,77,183.05853571352,129.59318,6,P-GPS,
29200,2023-06-07 18:12:15,52.2064101326499,0.0864931872467361,129.59318,129.3307128,53.727822913516,183.05853571352,83.66142,1.4987498,49.546917596,63.31529074,22,5,16.826,184.37087171352,130.905516,13.0189908,49.546917596,0.671082,-1.342164,0,291.5, 15.4, 9.3,0,0,1024,1024,1024,1024,0,0,0,0,281,-90,0,99,4.201,4.201,4.201,4.195,0,0,7.434,77,183.05853571352,129.59318,6,P-GPS,
29400,2023-06-07 18:12:15,52.2064109226677,0.0864921392889759,129.59318,129.3307128,53.727822913516,183.05853571352,83.66142,0.9395148,49.87532968,63.686681828,22,5,16.826,184.37087171352,130.905516,13.0189908,49.87532968,0.671082,-0.671082,0,291, 9.6, 7.7,0,0,1024,1024,1024,1024,0,0,0,0,281,-90,0,99,4.201,4.201,4.201,4.195,0,0,7.434,77,183.05853571352,129.59318,6,P-GPS,
29600,2023-06-07 18:12:15,52.206411561938,0.0864917735997511,129.59318,129.3307128,53.727822913516,183.05853571352,83.66142,0.4921268,50.042324436,63.93372908,22,5,16.826,184.37087171352,130.905516,13.0189908,50.042324436,0.447388,-0.223694,0,290.7, 6.6, 6.4,0,0,1024,1024,1024,1024,0,0,0,0,281,-90,0,99,4.201,4.201,4.201,4.195,0,0,7.434,77,183.05853571352,129.59318,6,P-GPS,
29800,2023-06-07 18:12:15,52.2064120870974,0.0864917049744824,129.59318,129.3307128,53.727822913516,183.05853571352,83.66142,0.4921268,50.132547536,64.125986304,22,5,16.826,184.37087171352,130.905516,13.0189908,50.132547536,0.447388,-0.223694,0,290.6, 5.7, 6,0,0,1024,1024,1024,1024,0,0,0,0,281,-90,0,99,4.201,4.201,4.201,4.195,0,0,7.434,77,183.05853571352,129.59318,6,P-GPS,
30000,2023-06-07 18:12:16,52.2064125079976,0.0864918035717569,129.59318,129.2979044,53.760631313516,183.05853571352,83.66142,0.223694,50.17388612,64.281170036,22,5,16.841,184.37087171352,130.905516,13.0189908,50.17388612,0.223694,0,0,290.5, 4.5, 5.9,0,1,1024,1024,1024,1024,0,0,0,0,281,-90,0,99,4.212,4.214,4.215,4.211,0,0,7.842,77,183.05853571352,129.59318,6,P-GPS,
30200,2023-06-07 18:12:16,52.2064128733885,0.0864919594849005,129.59318,129.2979044,53.760631313516,183.05853571352,83.66142,0.223694,50.195867748,64.418965316,22,5,16.841,184.37087171352,130.905516,13.0189908,50.195867748,0.223694,0,0,290.4, 4.5, 5.7,0,1,1024,1024,1024,1024,0,0,0,0,281,-90,0,99,4.212,4.214,4.215,4.211,0,0,7.842,77,183.05853571352,129.59318,6,P-GPS,
30400,2023-06-07 18:12:16,52.2064131873739,0.0864921386878583,129.59318,129.2979044,53.760631313516,183.05853571352,83.66142,0,50.205382184,64.540356396,22,5,16.841,184.37087171352,130.905516,13.0189908,50.205382184,0,0,0,290.4, 4.2, 5.6,0,1,1024,1024,1024,1024,0,0,0,0,281,-90,0,99,4.212,4.214,4.215,4.211,0,0,7.842,77,183.05853571352,129.59318,6,P-GPS,
30600,2023-06-07 18:12:16,52.2064134787512,0.0864923322477423,129.59318,129.2979044,53.760631313516,183.05853571352,83.66142,0,50.209319192,64.655185796,22,5,16.841,184.37087171352,130.905516,13.0189908,50.209319192,0,0,0,290.5, 3.6, 5.9,0,1,1024,1024,1024,1024,0,0,0,0,281,-89.9,0,99,4.212,4.214,4.215,4.211,0,0,7.842,77,183.05853571352,129.59318,6,P-GPS,
30800,2023-06-07 18:12:16,52.2064137460512,0.0864925075504251,129.59318,129.2979044,53.760631313516,183.05853571352,83.66142,0,50.213584284,64.760172676,22,5,16.841,184.37087171352,130.905516,13.0189908,50.213584284,0,0,0,290.5, 4, 6.4,0,1,1024,1024,1024,1024,0,0,0,0,281,-90,0,99,4.212,4.214,4.215,4.211,0,0,7.842,77,183.05853571352,129.59318,6,P-GPS,
31000,2023-06-07 18:12:16,52.2064139992287,0.0864926952808659,129.59318,129.2979044,53.760631313516,183.05853571352,83.66142,0,50.2132562,64.861550632,23,5,16.842,184.37087171352,130.905516,13.0189908,50.213584284,0,0,0,290.4, 3.7, 6.2,0,1,1024,1024,1024,1024,0,0,0,0,281,-90,0,99,4.209,4.214,4.215,4.212,0,0,7.144,77,183.05853571352,129.59318,6,P-GPS,
31200,2023-06-07 18:12:17,52.2064142544622,0.086492877433494,129.59318,129.2979044,53.760631313516,183.05853571352,83.66142,0,50.214568536,64.963256672,23,5,16.842,184.37087171352,130.905516,13.0189908,50.214568536,0,0,0,290.2, 3.2, 6.8,0,1,1024,1024,1024,1024,0,0,0,0,281,-90,0,99,4.209,4.214,4.215,4.212,0,0,7.144,77,183.05853571352,129.59318,6,P-GPS,
31400,2023-06-07 18:12:17,52.2064145593109,0.0864929806859354,129.59318,129.2979044,53.760631313516,183.05853571352,83.66142,0,50.239831004,65.076773736,23,5,16.842,184.37087171352,130.905516,13.0189908,50.239831004,0,0,0,290.9, 4.8, 6.5,0,1,1024,1024,1024,1024,0,0,0,0,281,-90,0,99,4.209,4.214,4.215,4.212,0,0,7.144,77,183.05853571352,129.59318,6,P-GPS,
31600,2023-06-07 18:12:17,52.2064148196632,0.0864931320697274,129.59318,129.2979044,53.760631313516,183.05853571352,83.66142,0,50.248689272,65.177823608,23,5,16.842,184.37087171352,130.905516,13.0189908,50.248689272,0,0,0,290.5, 3.6, 6.1,0,1,1024,1024,1024,1024,0,0,0,0,281,-90,0,99,4.209,4.214,4.215,4.212,0,0,7.144,77,183.05853571352,129.59318,6,P-GPS,
31800,2023-06-07 18:12:17,52.2064150211438,0.0864933285373434,129.59318,129.2979044,53.760631313516,183.05853571352,83.66142,0,50.23950292,65.263453532,23,5,16.842,184.37087171352,130.905516,13.0189908,50.248689272,0,0,0,290.3, 2.7, 7.3,0,1,1024,1024,1024,1024,0,0,0,0,281,-90,0,99,4.209,4.214,4.215,4.212,0,0,7.144,77,183.05853571352,129.59318,6,P-GPS,
32000,2023-06-07 18:12:18,52.2064152334786,0.0864935049304256,129.59318,129.2979044,53.760631313516,183.05853571352,83.66142,0,50.23622208,65.350395792,23,5,16.803,184.37087171352,130.905516,13.0189908,50.248689272,0,0,0,290.4, 2.6, 7.6,0,1,1024,1024,1024,1024,0,0,0,0,281,-89.9,0,98,4.205,4.208,4.209,4.205,0,0,7.366,77,183.05853571352,129.59318,6,P-GPS,
32200,2023-06-07 18:12:18,52.2064154830366,0.0864936384065034,129.59318,129.2979044,53.760631313516,183.05853571352,83.66142,0,50.247376936,65.44619632,23,5,16.803,184.37087171352,130.905516,13.0189908,50.248689272,0,0,0,290.4, 2.8, 7.6,0,1,1024,1024,1024,1024,0,0,0,0,281,-89.9,0,98,4.205,4.208,4.209,4.205,0,0,7.366,77,183.05853571352,129.59318,6,P-GPS,
32400,2023-06-07 18:12:18,52.2064157379232,0.0864936896832371,129.59318,129.265096,53.793439713516,183.05853571352,83.66142,0,50.276576412,65.53970026,23,5,16.803,184.37087171352,130.905516,13.0189908,50.276576412,0,0,0,290.4, 3.3, 7.9,0,1,1024,1024,1024,1024,0,0,0,0,281,-89.9,0,98,4.205,4.208,4.209,4.205,0,0,7.366,77,183.05853571352,129.59318,6,P-GPS,
32600,2023-06-07 18:12:18,52.2064159761557,0.0864937039283275,129.59318,129.265096,53.793439713516,183.05853571352,83.66142,0,50.310697148,65.62664252,23,5,16.803,184.37087171352,130.905516,13.0189908,50.310697148,0,0,0,290.4, 3.4, 8.3,0,1,1024,1024,1024,1024,0,0,0,0,281,-90,0,98,4.205,4.208,4.209,4.205,0,0,7.366,77,183.05853571352,129.59318,6,P-GPS,
32800,2023-06-07 18:12:18,52.2064162017735,0.0864937232339898,129.59318,129.265096,53.793439713516,183.05853571352,83.66142,0,50.341865128,65.709319688,23,5,16.803,184.37087171352,130.905516,13.0189908,50.341865128,0,0,0,290.5, 3.5, 8.4,0,1,1024,1024,1024,1024,0,0,0,0,281,-90,0,98,4.205,4.208,4.209,4.205,0,0,7.366,77,183.05853571352,129.59318,6,P-GPS,
33000,2023-06-07 18:12:18,52.2064164318289,0.086493788993465,129.59318,129.265096,53.793439713516,183.05853571352,83.66142,0,50.364502924,65.794293444,23,5,16.837,184.37087171352,130.905516,13.0189908,50.364502924,0,0,0,290.5, 3.4, 8,0,1,1024,1024,1024,1024,0,0,0,0,281,-90,0,98,4.205,4.21,4.21,4.207,0,0,7.34,77.18,183.05853571352,129.59318,6,P-GPS,
33200,2023-06-07 18:12:19,52.2064166405228,0.0864939087137342,129.59318,129.265096,53.793439713516,183.05853571352,83.66142,0,50.373033108,65.875002108,23,5,16.837,184.37087171352,130.905516,13.0189908,50.373033108,0,0,0,290.3, 2.8, 8,0,1,1024,1024,1024,1024,0,0,0,0,281,-90,0,98,4.205,4.21,4.21,4.207,0,0,7.34,77.18,183.05853571352,129.59318,6,P-GPS,
33400,2023-06-07 18:12:19,52.206416868141,0.0864940391143263,129.59318,129.265096,53.793439713516,183.05853571352,83.66142,0,50.38221946,65.963256704,23,5,16.837,184.37087171352,130.905516,13.0189908,50.38221946,0,0,0,290.3, 2.4, 7.5,0,1,1024,1024,1024,1024,0,0,0,0,281,-90,0,98,4.205,4.21,4.21,4.207,0,0,7.34,77.18,183.05853571352,129.59318,6,P-GPS,
33600,2023-06-07 18:12:19,52.2064171484841,0.0864941134152641,129.59318,129.265096,53.793439713516,183.05853571352,83.66142,0.223694,50.41174702,66.066603164,24,5,16.837,184.37087171352,130.905516,13.0189908,50.41174702,0.223694,0,0,290.2, 3, 6.9,0,1,1024,1024,1024,1024,0,0,0,0,281,-89.9,0,98,4.205,4.21,4.21,4.207,0,0,7.34,77.18,183.05853571352,129.59318,6,P-GPS,
33800,2023-06-07 18:12:19,52.2064174820234,0.086494142171055,129.59318,129.265096,53.793439713516,183.05853571352,83.66142,0.223694,50.458663032,66.188650412,24,5,16.837,184.37087171352,130.905516,13.0189908,50.458663032,0.223694,0,0,290.3, 3.7, 6.1,0,1,1024,1024,1024,1024,0,0,0,0,281,-90,0,98,4.205,4.21,4.21,4.207,0,0,7.34,77.18,183.05853571352,129.59318,6,P-GPS,
34000,2023-06-07 18:12:20,52.2064178075569,0.0864941335317362,129.921264,129.59318,53.793439713516,183.38661971352,83.66142,0,50.512140724,66.30741682,24,5,16.838,184.37087171352,130.905516,13.0189908,50.512140724,0,0,0,290.5, 5, 6.1,0,1,1024,1024,1024,1024,0,0,0,0,281,-90,0,98,4.208,4.21,4.21,4.208,0,0,7.291,77.18,183.38661971352,129.921264,6,P-GPS,
34200,2023-06-07 18:12:20,52.2064180664485,0.0864941503071125,129.921264,129.59318,53.793439713516,183.38661971352,83.66142,0,50.550198468,66.401905012,23,5,16.838,184.37087171352,130.905516,13.0189908,50.550198468,0,0,0,290.5, 4.9, 6.4,0,1,1024,1024,1024,1024,0,0,0,0,281,-89.9,0,98,4.208,4.21,4.21,4.208,0,0,7.291,77.18,183.38661971352,129.921264,6,P-GPS,
34400,2023-06-07 18:12:20,52.2064182408533,0.0864942327720667,129.921264,129.59318,53.793439713516,183.38661971352,83.66142,0,50.561681408,66.46817798,23,5,16.838,184.37087171352,130.905516,13.0189908,50.561681408,0,0,0,290.5, 4.3, 7.3,0,1,1024,1024,1024,1024,0,0,0,0,281,-89.9,0,98,4.208,4.21,4.21,4.208,0,0,7.291,77.18,183.38661971352,129.921264,6,P-GPS,
34600,2023-06-07 18:12:20,52.2064184153139,0.0864943406656956,129.921264,129.59318,53.793439713516,183.38661971352,83.66142,0,50.567915004,66.536419452,23,5,16.838,184.37087171352,130.905516,13.0189908,50.567915004,0,0,0,290.5, 4, 7.5,0,1,1024,1024,1024,1024,0,0,0,0,281,-90,0,98,4.208,4.21,4.21,4.208,0,0,7.291,77.18,183.38661971352,129.921264,6,P-GPS,
34800,2023-06-07 18:12:20,52.2064186082704,0.086494447846371,129.921264,129.5603716,53.826248113516,183.38661971352,83.66142,0,50.57742944,66.610566436,23,5,16.838,184.37087171352,130.905516,13.0189908,50.57742944,0,0,0,290.5, 4.9, 6.6,0,1,1024,1024,1024,1024,0,0,0,0,281,-89.9,0,98,4.208,4.21,4.21,4.208,0,0,7.291,77.18,183.38661971352,129.921264,6,P-GPS,
35000,2023-06-07 18:12:21,52.2064187564306,0.0864946397566763,129.921264,129.5603716,53.826248113516,183.38661971352,83.66142,0,50.562993744,66.67979216,23,5,16.834,184.37087171352,130.905516,13.0189908,50.57742944,0,0,0,290.3, 3.7, 6.3,0,1,1024,1024,1024,1024,0,0,0,0,281,-89.9,0,98,4.208,4.211,4.21,4.207,0,0,7.204,77.18,183.38661971352,129.921264,6,P-GPS,
35200,2023-06-07 18:12:21,52.206418820738,0.086494837845912,129.921264,129.5603716,53.826248113516,183.38661971352,83.66142,0,50.533794268,66.729660928,23,5,16.834,184.37087171352,130.905516,13.0189908,50.57742944,0,0,0,290.5, 2.9, 7.2,0,1,1024,1024,1024,1024,0,0,0,0,281,-89.9,0,98,4.208,4.211,4.21,4.207,0,0,7.204,77.18,183.38661971352,129.921264,6,P-GPS,
35400,2023-06-07 18:12:21,52.2064188077335,0.0864949816528257,129.921264,129.5603716,53.826248113516,183.38661971352,83.66142,0,50.502954372,66.762141244,23,5,16.834,184.37087171352,130.905516,13.0189908,50.57742944,0,0,0,290.2, 2.4, 8.3,0,1,1024,1024,1024,1024,0,0,0,0,281,-90,0,98,4.208,4.211,4.21,4.207,0,0,7.204,77.18,183.38661971352,129.921264,6,P-GPS,
