time(millisecond),datetime(utc),latitude,longitude,height_above_takeoff(feet),height_above_ground_at_drone_location(feet),ground_elevation_at_drone_location(feet),altitude_above_seaLevel(feet),height_sonar(feet),speed(mph),distance(feet),mileage(feet),satellites,gpslevel,voltage(v),max_altitude(feet),max_ascent(feet),max_speed(mph),max_distance(feet), xSpeed(mph), ySpeed(mph), zSpeed(mph), compass_heading(degrees), pitch(degrees), roll(degrees),isPhoto,isVideo,rc_elevator,rc_aileron,rc_throttle,rc_rudder,rc_elevator(percent),rc_aileron(percent),rc_throttle(percent),rc_rudder(percent),gimbal_heading(degrees),gimbal_pitch(degrees),gimbal_roll(degrees),battery_percent,voltageCell1,voltageCell2,voltageCell3,voltageCell4,voltageCell5,voltageCell6,current(A),battery_temperature(f),altitude(feet),ascent(feet),flycStateRaw,flycState,message
990800,2023-06-20 15:06:44,52.206382857018,0.0867281218564698,0,0,52.881109959912,53.110768759912,0,0,0,0,24,5,0,53.110768759912,0,0,0,0,0,0,269.4, 4.6, -0.8,0,0,1024,1024,1024,1024,0,0,0,0,260.9,9.5,0,53,3.876,3.881,3.878,3.876,0,0,0,107.6,53.110768759912,0,41,Motors_Started,
991000,2023-06-20 15:06:44,52.2063828544854,0.0867281079914275,0,0,52.881109959912,53.110768759912,0,0,0.00323481637648,0.00323481637648,24,5,0,53.110768759912,0,0,0.00323481637648,0,0,0,269.3, 4.7, -0.8,0,0,1024,1024,1024,1024,0,0,0,0,260.9,9.5,0,53,3.876,3.881,3.878,3.876,0,0,0,107.6,53.110768759912,0,41,Motors_Started,
991200,2023-06-20 15:06:44,52.2063828644562,0.0867280856128702,0,0,52.881109959912,53.110768759912,0,0,0.008545932032,0.0094210304852,24,5,0,53.110768759912,0,0,0.008545932032,0,0,0,269.4, 4.6, -0.8,0,0,1024,1024,1024,1024,0,0,0,0,260.9,9.5,0,53,3.876,3.881,3.878,3.876,0,0,0,107.6,53.110768759912,0,41,Motors_Started,"Setting new Return-To-Home altitude to 26m (85 ft). Data Recorder File Index is 43. Setting new Maximum Flight Altitude to 120m (394 ft)"
991400,2023-06-20 15:06:44,52.2063828713108,0.0867280541196792,0,0,52.881109959912,53.110768759912,0,0,61.088256548,0.0168934388608,23,5,0,53.110768759912,0,0,61.088256548,0,0,0,269.3, 4.6, -0.8,0,0,1024,1024,1024,1024,0,0,0,0,260.9,9.5,0,53,3.876,3.881,3.878,3.876,0,0,0,107.6,53.110768759912,0,41,Motors_Started,
991600,2023-06-20 15:06:44,52.2063828581895,0.0867280295183814,0,0,52.881109959912,53.110768759912,0,0,61.083663372,0.0241854666532,23,5,0,53.110768759912,0,0,61.088256548,0,0,0,269.4, 4.6, -0.8,0,0,1024,1024,1024,1024,0,0,0,0,260.9,9.5,0,53,3.876,3.881,3.878,3.876,0,0,0,107.6,53.110768759912,0,41,Motors_Started,
991800,2023-06-20 15:06:45,52.2063828432424,0.0867280120719662,0,0,52.881109959912,53.110768759912,0,0,61.080382532,0.030890420936,24,5,0,53.110768759912,0,0,61.088256548,0,0,0,269.4, 4.6, -0.8,0,0,1024,1024,1116,1024,0,0,14,0,260.9,9.5,0,53,3.876,3.881,3.878,3.876,0,0,0,107.6,53.110768759912,0,41,Motors_Started,
992000,2023-06-20 15:06:45,52.2063828302989,0.0867279992186902,0,0,52.881109959912,53.110768759912,0,0,61.078414028,0.036418636336,24,5,0,53.110768759912,0,0,61.088256548,0,0,0,269.4, 4.7, -0.8,0,0,1024,1024,1684,1024,0,0,100,0,260.9,9.5,0,53,3.876,3.881,3.878,3.876,0,0,0,107.6,53.110768759912,0,41,Motors_Started,
992200,2023-06-20 15:06:45,52.2063828180332,0.0867279751180332,0,0,52.881109959912,53.110768759912,0,0,61.073820852,0.043423229736,24,5,15.492,53.110768759912,0,0,61.088256548,0,0,0,269.4, 4.6, -0.8,0,0,1024,1024,1684,1024,0,0,100,0,260.9,9.5,0,53,3.862,3.867,3.862,3.857,0,0,2.071,107.6,53.110768759912,0,11,AutoTakeoff,
992400,2023-06-20 15:06:45,52.2063828073867,0.0867279394126444,0,0,52.881109959912,53.110768759912,0,0,61.066603004,0.052301182776,24,5,15.492,53.110768759912,0,0,61.088256548,0,0,0,269.4, 4.7, -0.8,0,0,1024,1024,1675,1024,0,0,99,0,260.9,9.5,0,53,3.862,3.867,3.862,3.857,0,0,2.071,107.6,53.110768759912,0,11,AutoTakeoff,
992600,2023-06-20 15:06:45,52.2063827988348,0.0867279106489506,0,0,52.881109959912,53.110768759912,0,0,61.060697492,0.059449148884,23,5,15.492,53.110768759912,0,0,61.088256548,0,0,0,269.6, 4.6, -0.8,0,0,1024,1024,1684,1024,0,0,100,0,260.9,9.5,0,53,3.862,3.867,3.862,3.857,0,0,2.071,107.6,53.110768759912,0,11,AutoTakeoff,
992800,2023-06-20 15:06:46,52.2063828006424,0.0867279365494681,0,0,52.881109959912,53.110768759912,0,0,61.06627492,0.065277561144,24,5,15.492,53.110768759912,0,0,61.088256548,0,0,0,268.5, 1, -0.9,0,0,1024,1024,1684,1016,0,0,100,-1,260.8,9.5,0,53,3.862,3.867,3.862,3.857,0,0,2.071,107.6,53.110768759912,0,11,AutoTakeoff,
993000,2023-06-20 15:06:46,52.2063828264448,0.0867279769152726,0,0,52.881109959912,53.110768759912,0,0,61.073820852,0.078319228228,24,5,15.492,53.110768759912,0,0,61.088256548,0,0,-0.671082,268.6, -2.2, -0.3,0,0,1024,1024,1684,1014,0,0,100,-2,260.8,9.5,0,53,3.862,3.867,3.862,3.857,0,0,2.071,107.6,53.110768759912,0,11,AutoTakeoff,
993200,2023-06-20 15:06:46,52.2063828504439,0.0867277822096788,0.328084,0.328084,52.881109959912,53.438852759912,0.328084,0,61.029201428,0.122724413376,24,5,15.42,53.438852759912,0.328084,0,61.088256548,0,0,-1.789552,268.7, 2.1, 0.5,0,0,1024,1024,1684,1006,0,0,100,-3,260.8,9.5,0,53,3.866,3.872,3.868,3.866,0,0,5.074,107.42,53.438852759912,0.328084,11,AutoTakeoff,
993400,2023-06-20 15:06:46,52.2063829766504,0.0867277400020753,0.984252,0.984252,52.881109959912,54.095020759912,0.984252,0.223694,61.012797228,0.169728023804,23,5,15.42,54.095020759912,0.984252,0.223694,61.088256548,0.223694,0,-3.131716,268.9, 0.2, -0.7,0,0,1024,1024,1684,1009,0,0,100,-2,260.7,9.5,0,53,3.866,3.872,3.868,3.866,0,0,5.074,107.42,54.095020759912,0.984252,11,AutoTakeoff,
993600,2023-06-20 15:06:46,52.2063831926488,0.0867277547277304,2.296588,2.296588,52.881109959912,55.407356759912,2.624672,0.223694,61.003610876,0.248603682496,24,5,15.42,55.407356759912,2.296588,0.223694,61.088256548,0.223694,0,-4.921268,268.6, 0.4, -2.4,0,0,1024,1024,1684,1014,0,0,100,-2,260.7,9.5,0,53,3.866,3.872,3.868,3.866,0,0,5.074,107.42,55.407356759912,2.296588,11,AutoTakeoff,
993800,2023-06-20 15:06:47,52.2063834086792,0.0867278312943223,4.265092,4.265092,52.881109959912,57.375860759912,4.593176,0,61.008532136,0.32925854072,24,5,15.42,57.375860759912,4.265092,0.223694,61.088256548,0,0,-6.934514,268.9, -1.4, -2.7,0,0,1024,1024,1684,1019,0,0,100,-1,260.7,9.5,0,53,3.866,3.872,3.868,3.866,0,0,5.074,107.42,57.375860759912,4.265092,6,P-GPS,
994000,2023-06-20 15:06:47,52.2063836243038,0.0867278701092761,7.217848,7.217848,52.881109959912,60.328616759912,6.889764,0,61.004923212,0.40840880572,24,5,15.42,60.328616759912,7.217848,0.223694,61.088256548,0,0,-9.171454,269.4, 0.6, -2.1,0,0,1024,1024,1684,1024,0,0,100,0,260.7,9.5,0,53,3.866,3.872,3.868,3.866,0,0,5.074,107.42,60.328616759912,7.217848,6,P-GPS,
994200,2023-06-20 15:06:47,52.2063839564897,0.0867280995853798,10.826772,10.826772,52.881109959912,63.937540759912,10.170604,0,61.037075444,0.54001970232,26,5,15.41,63.937540759912,10.826772,0.223694,61.088256548,0,0,-11.1847,269.6, 0.3, -3.1,0,0,1024,1024,1684,1022,0,0,100,-0,260.7,9.5,0,53,3.793,3.8,3.793,3.784,0,0,4.243,107.24,63.937540759912,10.826772,6,P-GPS,"Home Point updated (Code: 3000001)"
994400,2023-06-20 15:06:47,52.206384342798,0.0867285277521083,15.419948,15.419948,52.881109959912,68.530716759912,13.779528,0,61.110894344,0.7104002852,26,5,15.41,68.530716759912,15.419948,0.223694,61.110894344,0,0,-12.750558,269.8, -1, -3.1,0,0,1024,1024,1679,1024,0,0,99,0,260.7,9.5,0,53,3.793,3.8,3.793,3.784,0,0,4.243,107.24,68.530716759912,15.419948,6,P-GPS,
994600,2023-06-20 15:06:47,52.2063848016176,0.0867289819862347,21.32546,21.32546,52.881109959912,74.436228759912,17.716536,0,61.186681748,0.9062008164,26,5,15.41,74.436228759912,21.32546,0.223694,61.186681748,0,0,-13.197946,269.5, -2.1, -2.7,0,0,1024,1024,1675,1023,0,0,99,-0,260.7,9.5,0,53,3.793,3.8,3.793,3.784,0,0,4.243,107.24,74.436228759912,21.32546,6,P-GPS,
994800,2023-06-20 15:06:48,52.2063853562484,0.0867293573052132,25.262468,25.262468,52.881109959912,78.373236759912,21.653544,0,61.240487524,1.12526578404,26,5,15.41,78.373236759912,25.262468,0.223694,61.240487524,0,0,-13.645334,270, -1.5, -3.2,0,0,1024,1024,1024,1024,0,0,0,0,260.7,9.5,0,53,3.793,3.8,3.793,3.784,0,0,4.243,107.24,78.373236759912,25.262468,6,P-GPS,
995000,2023-06-20 15:06:48,52.2063860013809,0.0867296989379668,28.543308,28.543308,52.881109959912,81.654076759912,25.918636,0.223694,61.283138444,1.37272642188,26,5,15.41,81.654076759912,28.543308,0.223694,61.283138444,0.223694,0,-12.974252,269.8, -2.2, -6.8,0,0,1024,1024,1024,1024,0,0,0,0,260.7,9.5,0,53,3.793,3.8,3.793,3.784,0,0,4.243,107.24,81.654076759912,28.543308,6,P-GPS,
995200,2023-06-20 15:06:48,52.2063866187878,0.0867300161319342,31.824148,31.824148,52.881109959912,84.934916759912,29.199476,0,61.322836608,1.60888784676,26,5,15.41,84.934916759912,31.824148,0.223694,61.322836608,0,0,-10.737312,269.4, -1.8, -8.4,0,0,1024,1024,1024,1024,0,0,0,0,260.7,9.5,0,53,3.793,3.8,3.793,3.784,0,0,4.243,107.24,84.934916759912,31.824148,6,P-GPS,
995400,2023-06-20 15:06:48,52.2063871823528,0.086730341192865,34.120736,34.120736,52.881109959912,87.231504759912,32.8084,0.223694,61.367456032,1.82697184324,26,5,15.213,87.231504759912,34.120736,0.223694,61.367456032,0.223694,0,-8.724066,269.6, -3.4, -8.6,0,0,1024,1024,1024,1024,0,0,0,0,260.7,9.2,0,53,3.822,3.834,3.83,3.826,0,0,14.789,107.06,87.231504759912,34.120736,6,P-GPS,
995600,2023-06-20 15:06:48,52.2063877379066,0.0867306752426139,36.417324,36.417324,52.881109959912,89.528092759912,35.104988,0.223694,61.415356296,2.04298891052,26,5,15.213,89.528092759912,36.417324,0.223694,61.415356296,0.223694,0,-6.263432,270.1, -5.4, -11.8,0,0,1024,1024,1024,1024,0,0,0,0,260.7,7,0,53,3.822,3.834,3.83,3.826,0,0,14.789,107.06,89.528092759912,36.417324,6,P-GPS,
995800,2023-06-20 15:06:49,52.2063882691241,0.0867309397286264,37.72966,37.72966,52.881109959912,90.840428759912,36.745408,0.447388,61.449805116,2.24562343144,26,5,15.213,90.840428759912,37.72966,0.447388,61.449805116,0.447388,0,-3.802798,270, -5.8, -14.9,0,0,1024,1024,1024,1024,0,0,0,0,260.7,4.3,0,53,3.822,3.834,3.83,3.826,0,0,14.789,107.06,90.840428759912,37.72966,6,P-GPS,
996000,2023-06-20 15:06:49,52.2063887205333,0.0867311365599778,38.057744,38.057744,52.881109959912,91.168512759912,37.401576,0.223694,61.47309908,2.41609587784,26,5,15.213,91.168512759912,38.057744,0.447388,61.47309908,0.223694,0,-1.342164,270.1, -6.4, -17.4,0,0,1024,1024,1024,1024,0,0,0,0,260.7,1.4,0,53,3.822,3.834,3.83,3.826,0,0,14.789,107.06,91.168512759912,38.057744,6,P-GPS,
996200,2023-06-20 15:06:49,52.206388934089,0.0867312013217562,38.385828,38.385828,52.881109959912,91.496596759912,32.8084,0,61.47802034,2.49534784888,26,5,15.213,91.496596759912,38.385828,0.447388,61.47802034,0,0,-0.223694,270.4, -5.9, -17.4,0,0,1024,1024,1024,1024,0,0,0,0,260.7,-1.4,0,53,3.822,3.834,3.83,3.826,0,0,14.789,107.06,91.496596759912,38.385828,6,P-GPS,
996400,2023-06-20 15:06:49,52.20638869007,0.0867310378546643,38.057744,38.057744,52.881109959912,91.168512759912,32.8084,0.447388,61.452429788,2.59158800944,26,5,15.394,91.496596759912,38.385828,0.447388,61.47802034,-0.447388,0,0,269.9, -5, -14.8,0,0,1024,1024,1024,1024,0,0,0,0,260.7,-4.4,0,53,3.848,3.854,3.848,3.84,0,0,5.285,107.42,91.168512759912,38.057744,6,P-GPS,
996600,2023-06-20 15:06:49,52.2063880477596,0.0867307051211727,38.057744,38.057744,52.881109959912,91.168512759912,32.8084,0.671082,61.407810364,2.83746072072,26,5,15.394,91.496596759912,38.385828,0.671082,61.47802034,-0.671082,0,0,269.8, -4.4, -10.4,0,0,1024,1024,1024,1024,0,0,0,0,260.7,-7.3,0,53,3.848,3.854,3.848,3.84,0,0,5.285,107.42,91.168512759912,38.057744,6,P-GPS,
996800,2023-06-20 15:06:50,52.2063873309917,0.0867303199658689,38.057744,38.057744,52.881109959912,91.168512759912,33.464568,0.7158208,61.355645008,3.11278553268,26,5,15.394,91.496596759912,38.385828,0.7158208,61.47802034,-0.671082,-0.223694,0,269.8, -3.2, -7.2,0,0,1024,1024,1024,1024,0,0,0,0,260.7,-10.2,0,53,3.848,3.854,3.848,3.84,0,0,5.285,107.42,91.168512759912,38.057744,6,P-GPS,
997000,2023-06-20 15:06:50,52.2063867285244,0.0867299613384127,38.057744,38.057744,52.881109959912,91.168512759912,34.120736,0.7158208,61.305448156,3.3467520756,26,5,15.394,91.496596759912,38.385828,0.7158208,61.47802034,-0.671082,-0.223694,0,270.5, -1.9, -5.9,0,0,1024,1024,1024,1024,0,0,0,0,260.7,-13.1,0,53,3.848,3.854,3.848,3.84,0,0,5.285,107.42,91.168512759912,38.057744,6,P-GPS,
997200,2023-06-20 15:06:50,52.2063863269649,0.086729676653771,38.057744,38.057744,52.881109959912,91.168512759912,34.776904,0.223694,61.262141068,3.5064961752,26,5,15.394,91.496596759912,38.385828,0.7158208,61.47802034,-0.223694,0,0,271.6, -1.1, -7.6,0,0,1024,1024,1024,1024,0,0,0,0,260.7,-16.1,0,53,3.848,3.854,3.848,3.84,0,0,5.285,107.42,91.168512759912,38.057744,6,P-GPS,
997400,2023-06-20 15:06:50,52.2063859811738,0.0867294815349082,38.057744,38.057744,52.881109959912,91.168512759912,35.104988,0.223694,61.236222432,3.6399935548,26,5,15.34,91.496596759912,38.385828,0.7158208,61.47802034,-0.223694,0,0,273.4, -0.7, -7.5,0,0,1024,1024,1024,1024,0,0,0,0,260.7,-19,0,52,3.831,3.839,3.834,3.83,0,0,7.059,107.42,91.168512759912,38.057744,6,P-GPS,
997600,2023-06-20 15:06:50,52.2063856533827,0.0867293978606146,38.057744,38.057744,52.881109959912,91.168512759912,35.433072,0.223694,61.234253928,3.7610565508,26,5,15.34,91.496596759912,38.385828,0.7158208,61.47802034,-0.223694,0,0,273.3, -1.4, -6.6,0,0,1024,1024,1024,1024,0,0,0,0,260.7,-21.9,0,52,3.831,3.839,3.834,3.83,0,0,7.059,107.42,91.168512759912,38.057744,6,P-GPS,
997800,2023-06-20 15:06:51,52.2063854152839,0.0867294226069497,37.72966,37.72966,52.881109959912,90.840428759912,35.761156,0,61.251970464,3.848097236,26,5,15.34,91.496596759912,38.385828,0.7158208,61.47802034,0,0,0,272.8, -2.1, -7.4,0,0,1024,869,1024,1024,0,-23,0,0,260.7,-24.8,0,52,3.831,3.839,3.834,3.83,0,0,7.059,107.42,90.840428759912,37.72966,6,P-GPS,
998000,2023-06-20 15:06:51,52.2063852159654,0.0867294525457951,37.72966,37.72966,52.881109959912,90.840428759912,35.761156,0,61.269030832,3.9211287344,26,5,15.34,91.496596759912,38.385828,0.7158208,61.47802034,0,0,0,271.8, -2.3, -1.8,0,0,1024,869,1024,1024,0,-23,0,0,260.7,-27.7,0,52,3.831,3.839,3.834,3.83,0,0,7.059,107.42,90.840428759912,37.72966,6,P-GPS,
998200,2023-06-20 15:06:51,52.2063852725926,0.0867295201069682,37.72966,37.72966,52.881109959912,90.840428759912,36.08924,0.223694,61.280841856,3.9467192864,26,5,15.34,91.496596759912,38.385828,0.7158208,61.47802034,0.223694,0,0,270, -0.4, -2.9,0,0,1024,878,1024,1024,0,-22,0,0,260.7,-30.6,0,52,3.831,3.839,3.834,3.83,0,0,7.059,107.42,90.840428759912,37.72966,6,P-GPS,
998400,2023-06-20 15:06:51,52.2063856229992,0.0867298294208666,37.72966,37.72966,52.881109959912,90.840428759912,35.761156,0.4921268,61.331366792,4.0920604984,26,5,15.327,91.496596759912,38.385828,0.7158208,61.47802034,0.447388,0.223694,0,270.1, -2.5, -8,0,0,1024,1003,1024,1024,0,-3,0,0,260.7,-33.6,0,52,3.828,3.827,3.831,3.828,0,0,7.295,107.42,90.840428759912,37.72966,6,P-GPS,
998600,2023-06-20 15:06:51,52.2063860025032,0.0867302262079876,37.72966,37.72966,52.881109959912,90.840428759912,35.433072,0.4921268,61.399936348,4.2564961992,26,5,15.327,91.496596759912,38.385828,0.7158208,61.47802034,0.447388,0.223694,0,270.3, -3.9, -9,0,0,1024,796,1024,1024,0,-35,0,0,260.7,-36.5,0,52,3.828,3.827,3.831,3.828,0,0,7.295,107.42,90.840428759912,37.72966,6,P-GPS,
998800,2023-06-20 15:06:52,52.2063863658715,0.0867306170031457,37.72966,37.72966,52.881109959912,90.840428759912,35.433072,0.4921268,61.468505904,4.4152888552,26,5,15.327,91.496596759912,38.385828,0.7158208,61.47802034,0.447388,0.223694,0,270.3, -4.1, -8.9,0,0,1024,627,1024,1024,0,-60,0,0,260.7,-39.4,0,52,3.828,3.827,3.831,3.828,0,0,7.295,107.42,90.840428759912,37.72966,6,P-GPS,
999000,2023-06-20 15:06:52,52.2063867395982,0.0867309407395189,37.72966,37.72966,52.881109959912,90.840428759912,35.104988,0.4921268,61.521655512,4.5696523772,26,5,15.327,91.496596759912,38.385828,0.7158208,61.521655512,0.447388,0.223694,0,270.4, -5, -12.9,0,0,1024,723,1024,1024,0,-46,0,0,260.7,-42.3,0,52,3.828,3.827,3.831,3.828,0,0,7.295,107.42,90.840428759912,37.72966,6,P-GPS,
999200,2023-06-20 15:06:52,52.2063869556533,0.0867311160406939,37.72966,37.72966,52.881109959912,90.840428759912,35.104988,0,61.55019882,4.6577101228,26,5,15.327,91.496596759912,38.385828,0.7158208,61.55019882,0,0,0,270.6, -3.8, -18.5,0,0,1024,589,1024,1024,0,-66,0,0,260.7,-45.2,0,52,3.828,3.827,3.831,3.828,0,0,7.295,107.42,90.840428759912,37.72966,6,P-GPS,
999400,2023-06-20 15:06:52,52.2063868411503,0.0867312421536896,37.72966,37.72966,52.881109959912,90.840428759912,34.44882,0,61.583663388,4.7081038252,26,5,15.314,91.496596759912,38.385828,0.7158208,61.583663388,0,0,0,269.6, -2.8, -3.8,0,0,1024,364,1024,1024,0,-100,0,0,260.7,-48.2,0,52,3.827,3.833,3.83,3.824,0,0,7.755,107.42,90.840428759912,37.72966,6,P-GPS,
999600,2023-06-20 15:06:52,52.2063869301861,0.0867314522279956,37.72966,37.72966,52.881109959912,90.840428759912,34.44882,0.3131716,61.625986224,4.7652232496,26,5,15.314,91.496596759912,38.385828,0.7158208,61.625986224,0.223694,0.223694,0,270.5, -1.8, -17.5,0,0,1024,364,1024,1024,0,-100,0,0,260.7,-51.1,0,52,3.827,3.833,3.83,3.824,0,0,7.755,107.42,90.840428759912,37.72966,6,P-GPS,
999800,2023-06-20 15:06:53,52.2063866522512,0.0867317923343626,37.72966,37.72966,52.881109959912,90.840428759912,34.44882,0.7158208,61.714568904,4.8919620988,26,5,15.314,91.496596759912,38.385828,0.7158208,61.714568904,-0.671082,0.223694,0.223694,270, -1.5, -28.5,0,0,1024,364,1024,1024,0,-100,0,0,260.7,-54,0,52,3.827,3.833,3.83,3.824,0,0,7.755,107.42,90.840428759912,37.72966,6,P-GPS,
1000000,2023-06-20 15:06:53,52.2063851435601,0.0867322980043095,38.057744,38.057744,52.881109959912,91.168512759912,34.120736,2.5053728,61.902561036,5.453904374,26,5,15.314,91.496596759912,38.385828,2.5053728,61.902561036,-2.460634,0.447388,0.223694,270.1, -2.6, -29.7,0,0,1024,364,1024,1024,0,-100,0,0,260.7,-56.9,0,52,3.827,3.833,3.83,3.824,0,0,7.755,107.42,91.168512759912,38.057744,6,P-GPS,
1000200,2023-06-20 15:06:53,52.2063822431353,0.0867329389119335,38.057744,38.057744,52.881109959912,91.168512759912,30.183728,4.0488614,62.202757896,6.5217849856,26,5,15.314,91.496596759912,38.385828,4.0488614,62.202757896,-4.026492,0.447388,0,270.2, -2.9, -29.9,0,0,1024,364,1024,1024,0,-100,0,0,260.7,-59.8,0,52,3.827,3.833,3.83,3.824,0,0,7.755,107.42,91.168512759912,38.057744,6,P-GPS,
1000400,2023-06-20 15:06:53,52.2063780501826,0.0867336636790794,38.385828,38.385828,52.881109959912,91.496596759912,30.183728,5.6147194,62.622377332,8.0601380532,26,5,15.324,91.496596759912,38.385828,5.6147194,62.622377332,-5.59235,0.447388,0,270.1, -3.2, -30.5,0,0,1024,364,1024,1024,0,-100,0,0,260.7,-62.7,0,52,3.809,3.816,3.809,3.801,0,0,7.975,107.42,91.496596759912,38.385828,6,P-GPS,
1000600,2023-06-20 15:06:53,52.2063726710066,0.0867344443323323,38.385828,38.385828,52.881109959912,91.496596759912,30.839896,7.1805774,63.178807796,10.0304465152,26,5,15.324,91.496596759912,38.385828,7.1805774,63.178807796,-7.158208,0.447388,0,270.4, -3.4, -30.6,0,0,1024,411,1024,1024,0,-93,0,0,260.7,-65.6,0,52,3.809,3.816,3.809,3.801,0,0,7.975,107.42,91.496596759912,38.385828,6,P-GPS,
1000800,2023-06-20 15:06:54,52.2063662436832,0.0867352436888447,38.713912,38.713912,52.881109959912,91.824680759912,31.496064,8.2990474,63.888125404,12.3822838608,26,5,15.324,91.824680759912,38.713912,8.2990474,63.888125404,-8.276678,0.447388,0,270.3, -3.3, -30.8,0,0,1024,1024,1024,1024,0,0,0,0,260.7,-68.5,0,52,3.809,3.816,3.809,3.801,0,0,7.975,107.42,91.824680759912,38.713912,6,P-GPS,
1001000,2023-06-20 15:06:54,52.2063587625946,0.0867359886651045,39.041996,39.041996,52.881109959912,92.152764759912,31.824148,9.618842,64.771655616,15.1168311924,26,5,15.324,92.152764759912,39.041996,9.618842,64.771655616,-9.618842,0.447388,0,270.4, -3.6, -29.9,0,0,1024,1024,1024,1024,0,0,0,0,260.7,-71.5,0,52,3.809,3.816,3.809,3.801,0,0,7.975,107.42,92.152764759912,39.041996,6,P-GPS,
1001200,2023-06-20 15:06:54,52.2063504063201,0.0867365906951946,39.698164,39.698164,52.881109959912,92.808932759912,37.401576,10.289924,65.8300546,18.1685701352,26,5,15.324,92.808932759912,39.698164,10.289924,65.8300546,-10.289924,0.223694,-0.447388,268.1, -5.2, -2.9,0,0,1024,1024,1024,1024,0,0,0,0,260.7,-74.4,0,52,3.809,3.816,3.809,3.801,0,0,7.975,107.42,92.808932759912,39.698164,6,P-GPS,
1001400,2023-06-20 15:06:54,52.2063426819658,0.086736893215384,39.698164,39.698164,52.881109959912,92.808932759912,38.057744,8.276678,66.864831536,20.9875990968,26,5,15.213,92.808932759912,39.698164,10.289924,66.864831536,-8.276678,0,-0.894776,267.3, -6.7, 27.7,0,0,1024,1024,1024,1024,0,0,0,0,260.7,-77.3,0,52,3.793,3.798,3.794,3.784,0,0,11.447,107.24,92.808932759912,39.698164,6,P-GPS,
1001600,2023-06-20 15:06:54,52.2063370557054,0.086736756753627,39.698164,39.698164,52.881109959912,92.808932759912,38.385828,5.59235,67.608926048,23.0405847268,26,5,15.213,92.808932759912,39.698164,10.289924,67.608926048,-5.59235,0,-0.223694,268.9, -3.2, 30.1,0,0,1024,989,1024,1024,0,-5,0,0,260.7,-80.2,0,52,3.793,3.798,3.794,3.784,0,0,11.447,107.24,92.808932759912,39.698164,6,P-GPS,
1001800,2023-06-20 15:06:55,52.2063338157893,0.0867363953535336,39.37008,39.37008,52.881109959912,92.480848759912,32.152232,2.684328,68.003939184,24.225394476,26,5,15.213,92.808932759912,39.698164,10.289924,68.003939184,-2.684328,-0.223694,0,268.9, -1.4, 23.4,0,0,1024,364,1024,1024,0,-100,0,0,260.7,-83.1,0,52,3.793,3.798,3.794,3.784,0,0,11.447,107.24,92.480848759912,39.37008,6,P-GPS,
1002000,2023-06-20 15:06:55,52.2063324421125,0.086735929715303,39.37008,39.37008,52.881109959912,92.480848759912,36.08924,1.1408394,68.113191156,24.7373039412,26,5,15.213,92.808932759912,39.698164,10.289924,68.113191156,-1.11847,-0.223694,0.447388,271.1, 0.4, -9.7,0,0,1024,364,1024,1024,0,-100,0,0,260.7,-86.1,0,52,3.793,3.798,3.794,3.784,0,0,11.447,107.24,92.480848759912,39.37008,6,P-GPS,
1002200,2023-06-20 15:06:55,52.2063313391541,0.0867356023920961,39.37008,39.37008,52.881109959912,92.480848759912,36.745408,1.789552,68.212928692,25.1462934556,26,5,15.213,92.808932759912,39.698164,10.289924,68.212928692,-1.789552,0,0.671082,269.9, 1.5, -28.3,0,0,1024,364,1024,1024,0,-100,0,0,260.7,-89,0,52,3.793,3.798,3.794,3.784,0,0,11.447,107.24,92.480848759912,39.37008,6,P-GPS,
1002400,2023-06-20 15:06:55,52.2063292303131,0.0867356386817843,39.041996,39.041996,52.881109959912,92.152764759912,36.417324,3.579104,68.544293532,25.9157488608,26,5,15.329,92.808932759912,39.698164,10.289924,68.544293532,-3.579104,0,0.447388,269.1, -0.1, -29.8,0,0,1024,1024,1024,1024,0,0,0,0,260.7,-89.9,0,52,3.824,3.831,3.823,3.816,0,0,9.644,107.6,92.152764759912,39.041996,6,P-GPS,
1002600,2023-06-20 15:06:55,52.206325760183,0.0867361092127305,39.37008,39.37008,52.881109959912,92.480848759912,31.824148,5.144962,69.187338172,27.186188534,26,5,15.329,92.808932759912,39.698164,10.289924,69.187338172,-5.144962,0.223694,0,270.5, -2.8, -27.4,0,0,1024,1024,1024,1024,0,0,0,0,260.7,-90,0,52,3.824,3.831,3.823,3.816,0,0,9.644,107.6,92.480848759912,39.37008,6,P-GPS,
1002800,2023-06-20 15:06:56,52.2063212862006,0.0867366325657612,39.37008,39.37008,52.881109959912,92.480848759912,31.824148,5.59235,70.024936624,28.8227043344,26,5,15.329,92.808932759912,39.698164,10.289924,70.024936624,-5.59235,0.223694,-0.447388,268, -4.4, 8.7,0,0,1024,1024,1024,1024,0,0,0,0,260.7,-89.9,0,52,3.824,3.831,3.823,3.816,0,0,9.644,107.6,92.480848759912,39.37008,6,P-GPS,
1003000,2023-06-20 15:06:56,52.2063177772068,0.0867368505879586,39.37008,39.37008,52.881109959912,92.480848759912,36.745408,3.35541,70.663716172,30.1039051628,26,5,15.329,92.808932759912,39.698164,10.289924,70.663716172,-3.35541,0,-0.671082,267.8, -4.1, 27,0,0,1024,1024,1024,1024,0,0,0,0,260.7,-90,0,52,3.824,3.831,3.823,3.816,0,0,9.644,107.6,92.480848759912,39.37008,6,P-GPS,
1003200,2023-06-20 15:06:56,52.2063161160763,0.0867366153095982,39.37008,39.37008,52.881109959912,92.480848759912,36.745408,1.3645334,70.90551408,30.7122385156,26,5,15.329,92.808932759912,39.698164,10.289924,70.90551408,-1.342164,-0.223694,0,269.8, -0.5, 16.2,0,0,1024,1024,1024,1024,0,0,0,0,260.7,-89.9,0,52,3.824,3.831,3.823,3.816,0,0,9.644,107.6,92.480848759912,39.37008,6,P-GPS,
1003400,2023-06-20 15:06:56,52.2063156977802,0.0867362915921191,39.37008,39.37008,52.881109959912,92.480848759912,37.72966,0.3131716,70.9153566,30.8811361588,26,5,15.187,92.808932759912,39.698164,10.289924,70.9153566,-0.223694,-0.223694,0,270.4, -0.1, 5.3,0,0,1024,1024,1024,1024,0,0,0,0,260.7,-90,0,52,3.826,3.834,3.828,3.825,0,0,10.457,107.42,92.480848759912,39.37008,6,P-GPS,
1003600,2023-06-20 15:06:56,52.2063160322663,0.0867360638518761,39.041996,39.041996,52.881109959912,92.152764759912,38.713912,0.223694,70.81201014,31.0133868192,26,5,15.187,92.808932759912,39.698164,10.289924,70.9153566,0.223694,0,0.223694,270.6, -0.5, -2.4,0,0,1024,1024,1024,1024,0,0,0,0,260.7,-90,0,52,3.826,3.834,3.828,3.825,0,0,10.457,107.42,92.152764759912,39.041996,6,P-GPS,
1003800,2023-06-20 15:06:57,52.2063166759661,0.0867359461034265,39.041996,39.041996,52.881109959912,92.152764759912,39.041996,0.447388,70.676511448,31.2497057244,26,5,15.187,92.808932759912,39.698164,10.289924,70.9153566,0.447388,0,0,270, -1, -6.6,0,0,1024,671,1024,1024,0,-53,0,0,260.7,-90,0,52,3.826,3.834,3.828,3.825,0,0,10.457,107.42,92.152764759912,39.041996,6,P-GPS,
1004000,2023-06-20 15:06:57,52.2063173741599,0.0867359707575842,39.041996,39.041996,52.881109959912,92.152764759912,39.041996,0.447388,70.560041628,31.5044957588,26,5,15.187,92.808932759912,39.698164,10.289924,70.9153566,0.447388,0,0,270.3, -0.3, -6.4,0,0,1024,409,1024,1024,0,-93,0,0,260.7,-89.9,0,52,3.826,3.834,3.828,3.825,0,0,10.457,107.42,92.152764759912,39.041996,6,P-GPS,
1004200,2023-06-20 15:06:57,52.2063180939423,0.0867362160866586,38.713912,38.713912,52.881109959912,91.824680759912,38.385828,0.671082,70.48392614,31.7727700456,26,5,15.187,92.808932759912,39.698164,10.289924,70.9153566,0.671082,0,0,270.6, -1.2, -16.5,0,0,1024,364,1024,1024,0,-100,0,0,260.7,-90,0,52,3.826,3.834,3.828,3.825,0,0,10.457,107.42,91.824680759912,38.713912,6,P-GPS,
1004400,2023-06-20 15:06:57,52.2063184168887,0.0867366861452506,38.713912,38.713912,52.881109959912,91.824680759912,37.72966,0.4921268,70.521327716,31.9306768748,26,5,15.295,92.808932759912,39.698164,10.289924,70.9153566,-0.447388,0.223694,0.223694,270.4, -1.3, -29.2,0,0,1024,364,1024,1024,0,-100,0,0,260.7,-90,0,52,3.819,3.825,3.819,3.815,0,0,6.666,107.78,91.824680759912,38.713912,6,P-GPS,
1004600,2023-06-20 15:06:57,52.2063173485106,0.0867372767993047,38.713912,38.713912,52.881109959912,91.824680759912,31.824148,2.23694,70.821524576,32.3422254444,26,5,15.295,92.808932759912,39.698164,10.289924,70.9153566,-2.23694,0.223694,0,270.9, -3.2, -28.4,0,0,1024,364,1024,1024,0,-100,0,0,260.7,-89.9,0,52,3.819,3.825,3.819,3.815,0,0,6.666,107.78,91.824680759912,38.713912,6,P-GPS,
1004800,2023-06-20 15:06:58,52.2063147908453,0.0867376655724592,39.041996,39.041996,52.881109959912,92.152764759912,31.496064,3.802798,71.343834304,33.279528624,26,5,15.295,92.808932759912,39.698164,10.289924,71.343834304,-3.802798,0,0,269.8, -1.7, -29.4,0,0,1024,474,1024,1024,0,-83,0,0,260.7,-89.9,0,52,3.819,3.825,3.819,3.815,0,0,6.666,107.78,92.152764759912,39.041996,6,P-GPS,
1005000,2023-06-20 15:06:58,52.2063108644892,0.0867379732302511,39.041996,39.041996,52.881109959912,92.152764759912,31.824148,5.368656,72.10630152,34.713583788,26,5,15.295,92.808932759912,39.698164,10.289924,72.10630152,-5.368656,0,-0.223694,270.8, -2.2, -31.2,0,0,1024,1024,1024,1024,0,0,0,0,260.7,-89.9,0,52,3.819,3.825,3.819,3.815,0,0,6.666,107.78,92.152764759912,39.041996,6,P-GPS,
1005200,2023-06-20 15:06:58,52.2063057996264,0.0867382734864169,39.37008,39.37008,52.881109959912,92.480848759912,32.152232,6.71082,73.100724124,36.562665212,26,5,15.295,92.808932759912,39.698164,10.289924,73.100724124,-6.71082,0,0,269.4, -0.9, -20.4,0,0,1024,1024,1024,1024,0,0,0,0,260.7,-89.9,0,52,3.819,3.825,3.819,3.815,0,0,6.666,107.78,92.480848759912,39.37008,6,P-GPS,
1005400,2023-06-20 15:06:58,52.2063001913993,0.0867387111675872,39.37008,39.37008,52.881109959912,92.480848759912,32.8084,6.487126,74.26017298,38.611221708,26,5,15.199,92.808932759912,39.698164,10.289924,74.26017298,-6.487126,0.223694,-0.447388,268.4, -3.2, 19,0,0,1024,1024,1024,1024,0,0,0,0,260.7,-90,0,52,3.811,3.819,3.809,3.803,0,0,9.515,107.42,92.480848759912,39.37008,6,P-GPS,
1005600,2023-06-20 15:06:58,52.2062959035457,0.0867390465297709,39.041996,39.041996,52.881109959912,92.152764759912,33.136484,4.026492,75.1722465,40.177494724,26,5,15.199,92.808932759912,39.698164,10.289924,75.1722465,-4.026492,0,-0.223694,267.8, -4.3, 29.5,0,0,1024,1024,1024,1024,0,0,0,0,260.7,-90,0,52,3.811,3.819,3.809,3.803,0,0,9.515,107.42,92.152764759912,39.041996,6,P-GPS,
1005800,2023-06-20 15:06:59,52.2062936772653,0.0867390448701968,39.041996,39.041996,52.881109959912,92.152764759912,33.136484,1.565858,75.62172158,40.989830708,26,5,15.199,92.808932759912,39.698164,10.289924,75.62172158,-1.565858,0,0,269.6, -2.6, 21.1,0,0,1024,1024,1024,1024,0,0,0,0,260.7,-89.9,0,52,3.811,3.819,3.809,3.803,0,0,9.515,107.42,92.152764759912,39.041996,6,P-GPS,
1006000,2023-06-20 15:06:59,52.2062930882481,0.0867388624539481,39.041996,39.041996,52.881109959912,92.152764759912,29.199476,0.223694,75.708007672,41.208334652,26,5,15.199,92.808932759912,39.698164,10.289924,75.708007672,-0.223694,0,0,270.6, -1.7, 6.2,0,0,1024,1024,1024,1024,0,0,0,0,260.7,-89.9,0,52,3.811,3.819,3.809,3.803,0,0,9.515,107.42,92.152764759912,39.041996,6,P-GPS,
1006200,2023-06-20 15:06:59,52.2062932908039,0.0867386237740915,39.041996,39.041996,52.881109959912,92.152764759912,39.698164,0.223694,75.622377748,41.299542004,26,5,15.199,92.808932759912,39.698164,10.289924,75.708007672,0.223694,0,0,270.3, -2.4, -2.7,0,0,1024,1024,1024,1024,0,0,0,0,260.7,-90,0,52,3.811,3.819,3.809,3.803,0,0,9.515,107.42,92.152764759912,39.041996,6,P-GPS,
1006400,2023-06-20 15:06:59,52.2062937704989,0.0867383677279697,38.713912,38.713912,52.881109959912,91.824680759912,39.37008,0.447388,75.477036536,41.483597128,26,5,15.302,92.808932759912,39.698164,10.289924,75.708007672,0.447388,0,0.223694,270.1, -1, -6.2,0,0,1024,1024,1024,1024,0,0,0,0,260.7,-89.9,0,52,3.822,3.829,3.824,3.819,0,0,8.162,107.96,91.824680759912,38.713912,6,P-GPS,
1006600,2023-06-20 15:06:59,52.2062943162704,0.0867382650170314,38.713912,38.713912,52.881109959912,91.824680759912,35.761156,0.447388,75.347115272,41.684056452,26,5,15.302,92.808932759912,39.698164,10.289924,75.708007672,0.447388,0,0,270.1, -2.1, -8.8,0,0,1024,1024,1024,1024,0,0,0,0,260.7,-90,0,52,3.822,3.829,3.824,3.819,0,0,8.162,107.96,91.824680759912,38.713912,6,P-GPS,
1006800,2023-06-20 15:07:00,52.2062947552127,0.0867382515662478,38.713912,38.713912,52.881109959912,91.824680759912,35.433072,0.223694,75.255579836,41.844489528,26,5,15.302,92.808932759912,39.698164,10.289924,75.708007672,0.223694,0,0,270.2, -3, -10.4,0,0,1024,1024,1024,1024,0,0,0,0,260.7,-90,0,52,3.822,3.829,3.824,3.819,0,0,8.162,107.96,91.824680759912,38.713912,6,P-GPS,
1007000,2023-06-20 15:07:00,52.2062949987868,0.0867382076028212,38.713912,38.713912,52.881109959912,91.824680759912,35.104988,0,75.198165136,41.933728376,26,5,15.302,92.808932759912,39.698164,10.289924,75.708007672,0,0,0,270.2, -3.1, -10.4,0,0,1024,1024,1024,1024,0,0,0,0,260.7,-90,0,52,3.822,3.829,3.824,3.819,0,0,8.162,107.96,91.824680759912,38.713912,6,P-GPS,
1007200,2023-06-20 15:07:00,52.2062950491859,0.0867380743552194,38.713912,38.713912,52.881109959912,91.824680759912,34.776904,0,75.163060148,41.968833364,26,5,15.302,92.808932759912,39.698164,10.289924,75.708007672,0,0,0,269.8, -1.8, -10.1,0,0,1024,1024,1024,1024,0,0,0,0,260.7,-89.9,0,52,3.822,3.829,3.824,3.819,0,0,8.162,107.96,91.824680759912,38.713912,6,P-GPS,
1007400,2023-06-20 15:07:00,52.2062949813532,0.0867378524185437,38.713912,38.713912,52.881109959912,91.824680759912,34.44882,0.223694,75.135501092,42.02427956,26,5,15.277,92.808932759912,39.698164,10.289924,75.708007672,0,-0.223694,0,270.1, -3.4, -7.8,0,0,1024,1024,1024,1024,0,0,0,0,260.7,-90,0,52,3.814,3.821,3.816,3.81,0,0,7.388,107.78,91.824680759912,38.713912,6,P-GPS,
1007600,2023-06-20 15:07:00,52.2062949060501,0.0867374420374244,39.041996,39.041996,52.881109959912,92.152764759912,34.776904,0.223694,75.074477468,42.120080088,26,5,15.277,92.808932759912,39.698164,10.289924,75.708007672,0,-0.223694,-0.223694,270, 1, -9.2,0,0,1024,1024,1024,1024,0,0,0,0,260.7,-90,0,52,3.814,3.821,3.816,3.81,0,0,7.388,107.78,92.152764759912,39.041996,6,P-GPS,
1007800,2023-06-20 15:07:01,52.2062948127309,0.0867372071512544,39.041996,39.041996,52.881109959912,92.152764759912,34.776904,0,75.049871168,42.182744132,26,5,15.277,92.808932759912,39.698164,10.289924,75.708007672,0,0,0,270, -0.8, -10.4,0,0,1024,1024,1024,1024,0,0,0,0,260.7,-90,0,52,3.814,3.821,3.816,3.81,0,0,7.388,107.78,92.152764759912,39.041996,6,P-GPS,
1008000,2023-06-20 15:07:01,52.2062946914064,0.0867369927384982,39.041996,39.041996,52.881109959912,92.152764759912,34.776904,0,75.03445122,42.247704764,26,5,15.277,92.808932759912,39.698164,10.289924,75.708007672,0,0,0,269.7, -0.4, -8.9,0,0,1024,1024,1024,1024,0,0,0,0,260.7,-90,0,52,3.814,3.821,3.816,3.81,0,0,7.388,107.78,92.152764759912,39.041996,6,P-GPS,
1008200,2023-06-20 15:07:01,52.2062944556368,0.0867367365982468,39.37008,39.37008,52.881109959912,92.480848759912,34.776904,0.223694,75.034779304,42.351051224,26,5,15.277,92.808932759912,39.698164,10.289924,75.708007672,-0.223694,0,0,270.2, -0.5, -7.9,0,0,1024,1024,1024,1024,0,0,0,0,260.7,-90,0,52,3.814,3.821,3.816,3.81,0,0,7.388,107.78,92.480848759912,39.37008,6,P-GPS,
1008400,2023-06-20 15:07:01,52.2062941228384,0.0867364637477975,39.37008,39.37008,52.881109959912,92.480848759912,34.776904,0.223694,75.052167756,42.487206084,26,5,15.26,92.808932759912,39.698164,10.289924,75.708007672,-0.223694,0,0,270.1, 1.2, -7.2,0,0,1024,1024,1024,1024,0,0,0,0,260.8,-90,0,52,3.813,3.824,3.818,3.812,0,0,8.222,107.96,92.480848759912,39.37008,6,P-GPS,
1008600,2023-06-20 15:07:01,52.2062937756048,0.08673630599428,39.37008,39.37008,52.881109959912,92.480848759912,35.104988,0.223694,75.093834424,42.618439684,26,5,15.26,92.808932759912,39.698164,10.289924,75.708007672,-0.223694,0,0,269.7, 1.8, -5.9,0,0,1024,1024,1024,1684,0,0,0,100,260.9,-89.9,0,52,3.813,3.824,3.818,3.812,0,0,8.222,107.96,92.480848759912,39.37008,6,P-GPS,
1008800,2023-06-20 15:07:02,52.2062934320035,0.0867362942342445,39.37008,39.37008,52.881109959912,92.480848759912,35.104988,0.223694,75.162075896,42.744095856,26,5,15.26,92.808932759912,39.698164,10.289924,75.708007672,-0.223694,0,0,270.2, -1.4, -4.5,0,0,1024,1024,1024,1024,0,0,0,0,262,-89.9,0,52,3.813,3.824,3.818,3.812,0,0,8.222,107.96,92.480848759912,39.37008,6,P-GPS,
1009000,2023-06-20 15:07:02,52.2062931265079,0.0867361164040908,39.37008,39.37008,52.881109959912,92.480848759912,35.433072,0,75.19193154,42.862206096,26,5,15.26,92.808932759912,39.698164,10.289924,75.708007672,0,0,0,272.8, 1, -5.9,0,0,1024,1024,1024,1024,0,0,0,0,267.3,-90,0,52,3.813,3.824,3.818,3.812,0,0,8.222,107.96,92.480848759912,39.37008,6,P-GPS,
1009200,2023-06-20 15:07:02,52.2062928809976,0.0867358990676533,39.37008,39.37008,52.881109959912,92.480848759912,35.761156,0,75.202430228,42.96424022,26,5,15.26,92.808932759912,39.698164,10.289924,75.708007672,0,0,0,277.3, 1.9, -4.7,0,0,1024,1024,1024,440,0,0,0,-88,267.4,-89.9,0,52,3.813,3.824,3.818,3.812,0,0,8.222,107.96,92.480848759912,39.37008,6,P-GPS,
1009400,2023-06-20 15:07:02,52.2062927687712,0.0867357677413964,39.041996,39.041996,52.881109959912,92.152764759912,36.08924,0,75.201117892,43.014765156,26,5,15.27,92.808932759912,39.698164,10.289924,75.708007672,0,0,0,276, 1.9, -5.9,0,0,1024,1024,1024,1024,0,0,0,0,262.2,-89.9,0,52,3.817,3.824,3.818,3.811,0,0,7.613,107.96,92.152764759912,39.041996,6,P-GPS,
1009600,2023-06-20 15:07:02,52.2062927641451,0.0867357035425113,39.041996,39.041996,52.881109959912,92.152764759912,36.08924,0,75.19029112,43.029200852,26,5,15.27,92.808932759912,39.698164,10.289924,75.708007672,0,0,0,268.7, 1.4, -7.6,0,0,1024,1024,1024,1024,0,0,0,0,256.7,-90,0,52,3.817,3.824,3.818,3.811,0,0,7.613,107.96,92.152764759912,39.041996,6,P-GPS,
1009800,2023-06-20 15:07:03,52.2062928221002,0.0867357685391016,39.041996,39.041996,52.881109959912,92.152764759912,36.08924,0.223694,75.19029112,43.054791404,26,5,15.27,92.808932759912,39.698164,10.289924,75.708007672,0,0.223694,0,263.7, 2.9, -8.2,0,0,1024,1024,999,1071,0,0,-4,7,256.5,-89.9,0,52,3.817,3.824,3.818,3.811,0,0,7.613,107.96,92.152764759912,39.041996,6,P-GPS,
1010000,2023-06-20 15:07:03,52.2062928624075,0.0867361646429746,39.041996,39.041996,52.881109959912,92.152764759912,35.761156,0.223694,75.255251752,43.144358336,26,5,15.27,92.808932759912,39.698164,10.289924,75.708007672,0,0.223694,0,266.1, -1.5, -7.7,0,0,1024,1024,931,1684,0,0,-14,100,256.6,-89.9,0,52,3.817,3.824,3.818,3.811,0,0,7.613,107.96,92.152764759912,39.041996,6,P-GPS,
1010200,2023-06-20 15:07:03,52.206292910819,0.0867365683772515,39.37008,39.37008,52.881109959912,92.480848759912,35.761156,0.223694,75.3198843,43.23654994,26,5,15.27,92.808932759912,39.698164,10.289924,75.708007672,0,0.223694,0,266.5, -2.7, -8.1,0,0,1024,1024,1024,1024,0,0,0,0,264.2,-90,0,52,3.817,3.824,3.818,3.811,0,0,7.613,107.96,92.480848759912,39.37008,6,P-GPS,
1010400,2023-06-20 15:07:03,52.2062929503467,0.0867368091295689,39.37008,39.37008,52.881109959912,92.480848759912,35.433072,0,75.35597354,43.29232422,26,5,15.267,92.808932759912,39.698164,10.289924,75.708007672,0,0,0,276.6, -0.5, -8.1,0,0,1024,1024,1024,1024,0,0,0,0,270.7,-89.9,0,52,3.816,3.824,3.82,3.815,0,0,7.72,107.96,92.480848759912,39.37008,6,P-GPS,
1010600,2023-06-20 15:07:03,52.2062929165931,0.0867369004320821,39.37008,39.37008,52.881109959912,92.480848759912,35.433072,0,75.379923672,43.315946268,26,5,15.267,92.808932759912,39.698164,10.289924,75.708007672,0,0,0,281.3, -2.1, -7.3,0,0,1024,1024,1024,1231,0,0,0,31,270.9,-90,0,52,3.816,3.824,3.82,3.815,0,0,7.72,107.96,92.480848759912,39.37008,6,P-GPS,
1010800,2023-06-20 15:07:04,52.2062929223501,0.0867368591791255,39.041996,39.041996,52.881109959912,92.152764759912,35.433072,0,75.371065404,43.325460704,26,5,15.267,92.808932759912,39.698164,10.289924,75.708007672,0,0,0,279.7, 0.2, -8,0,0,1024,1024,1024,1024,0,0,0,0,271,-89.9,0,52,3.816,3.824,3.82,3.815,0,0,7.72,107.96,92.152764759912,39.041996,6,P-GPS,
1011000,2023-06-20 15:07:04,52.2062929414714,0.0867369342364775,39.041996,39.041996,52.881109959912,92.152764759912,35.433072,0.223694,75.381236008,43.343833408,26,5,15.267,92.808932759912,39.698164,10.289924,75.708007672,0,0.223694,0,280.8, -1.2, -9,0,0,1024,1024,1024,1024,0,0,0,0,273.5,-89.9,0,52,3.816,3.824,3.82,3.815,0,0,7.72,107.96,92.152764759912,39.041996,6,P-GPS,
1011200,2023-06-20 15:07:04,52.2062929522314,0.0867370663340096,39.041996,39.041996,52.881109959912,92.152764759912,35.433072,0,75.403217636,43.373360968,26,5,15.267,92.808932759912,39.698164,10.289924,75.708007672,0,0,0,283.4, -2.7, -8.7,0,0,1024,1024,1024,1024,0,0,0,0,273.7,-90,0,52,3.816,3.824,3.82,3.815,0,0,7.72,107.96,92.152764759912,39.041996,6,P-GPS,
1011400,2023-06-20 15:07:04,52.2062929513919,0.0867371612527354,38.713912,38.713912,52.881109959912,91.824680759912,35.433072,0,75.420934172,43.394686428,26,5,15.271,92.808932759912,39.698164,10.289924,75.708007672,0,0,0,282.8, -2.6, -8.8,0,0,1024,1024,1024,1024,0,0,0,0,273.7,-90,0,52,3.814,3.823,3.818,3.813,0,0,7.354,107.96,91.824680759912,38.713912,6,P-GPS,
1011600,2023-06-20 15:07:04,52.2062929469371,0.0867372061209216,38.713912,38.713912,52.881109959912,91.824680759912,35.433072,0,75.430120524,43.404857032,26,5,15.271,92.808932759912,39.698164,10.289924,75.708007672,0,0,0,283, -2.7, -8.7,0,0,517,1024,1024,1024,-77,0,0,0,273.7,-89.9,0,52,3.814,3.823,3.818,3.813,0,0,7.354,107.96,91.824680759912,38.713912,6,P-GPS,
1011800,2023-06-20 15:07:05,52.2062929753106,0.0867371965485686,38.713912,38.713912,52.881109959912,91.824680759912,35.433072,0,75.422574592,43.41535572,26,5,15.271,92.808932759912,39.698164,10.289924,75.708007672,0,0,0,282.9, -1.2, -4,0,0,383,1024,1024,1024,-97,0,0,0,273.7,-89.9,0,52,3.814,3.823,3.818,3.813,0,0,7.354,107.96,91.824680759912,38.713912,6,P-GPS,
1012000,2023-06-20 15:07:05,52.2062931768984,0.0867374087932465,38.713912,38.713912,52.881109959912,91.824680759912,35.433072,0.4921268,75.420606088,43.502954148,26,5,15.271,92.808932759912,39.698164,10.289924,75.708007672,0.223694,0.447388,0,282.9, 6, -3.2,0,0,391,1024,1024,1024,-96,0,0,0,273.7,-90,0,52,3.814,3.823,3.818,3.813,0,0,7.354,107.96,91.824680759912,38.713912,6,P-GPS,
1012200,2023-06-20 15:07:05,52.2062935970363,0.0867384601202423,38.385828,38.385828,52.881109959912,91.496596759912,36.08924,1.2079476,75.529529976,43.783465968,26,5,15.271,92.808932759912,39.698164,10.289924,75.708007672,0.447388,1.11847,0,282.3, 9.2, -6.6,0,0,406,1024,1024,1024,-94,0,0,0,273.7,-89.9,0,52,3.814,3.823,3.818,3.813,0,0,7.354,107.96,91.496596759912,38.385828,6,P-GPS,
1012400,2023-06-20 15:07:05,52.2062940284483,0.0867406312391598,38.385828,38.385828,52.881109959912,91.496596759912,35.761156,2.0579848,75.845474868,44.293964672,26,5,15.266,92.808932759912,39.698164,10.289924,75.845474868,0.447388,2.013246,0,281.9, 11.2, -8.9,0,0,410,1024,1024,1024,-93,0,0,0,273.7,-90,0,52,3.816,3.823,3.817,3.811,0,0,7.627,107.96,91.496596759912,38.385828,6,P-GPS,
1012600,2023-06-20 15:07:05,52.2062943018352,0.086744086487151,38.385828,38.385828,52.881109959912,91.496596759912,35.104988,3.131716,76.435041816,45.072836088,26,5,15.266,92.808932759912,39.698164,10.289924,76.435041816,0,3.131716,0,281.6, 13.6, -10.7,0,0,610,1024,1024,1024,-63,0,0,0,273.7,-90,0,52,3.816,3.823,3.817,3.811,0,0,7.627,107.96,91.496596759912,38.385828,6,P-GPS,
1012800,2023-06-20 15:07:06,52.2062942834592,0.0867490115622065,38.385828,38.385828,52.881109959912,91.496596759912,34.44882,4.250186,77.361551032,46.174214076,26,5,15.266,92.808932759912,39.698164,10.289924,77.361551032,-0.223694,4.250186,0,281.2, 16.8, -11.8,0,0,1024,1024,1024,1024,0,0,0,0,273.7,-89.9,0,52,3.816,3.823,3.817,3.811,0,0,7.627,107.96,91.496596759912,38.385828,6,P-GPS,
1013000,2023-06-20 15:07:06,52.2062938991994,0.08675553671023,38.713912,38.713912,52.881109959912,91.824680759912,33.792652,5.3910254,78.666669184,47.639765304,26,5,15.266,92.808932759912,39.698164,10.289924,78.666669184,-0.447388,5.368656,0,281.5, 0.8, -8.6,0,0,1024,1024,1024,1024,0,0,0,0,273.7,-90,0,52,3.816,3.823,3.817,3.811,0,0,7.627,107.96,91.824680759912,38.713912,6,P-GPS,
1013200,2023-06-20 15:07:06,52.2062934886907,0.0867622729259777,38.713912,38.713912,52.881109959912,91.824680759912,33.792652,4.47388,80.022312272,49.153216796,26,5,15.266,92.808932759912,39.698164,10.289924,80.022312272,-0.223694,4.47388,0,285.2, -26.8, -9.8,0,0,1024,1024,1024,1024,0,0,0,0,273.7,-90,0,52,3.816,3.823,3.817,3.811,0,0,7.627,107.96,91.824680759912,38.713912,6,P-GPS,
1013400,2023-06-20 15:07:06,52.206293431421,0.0867666325744056,38.713912,38.713912,52.881109959912,91.824680759912,33.792652,2.23694,80.86286348,50.128282444,26,5,15.247,92.808932759912,39.698164,10.289924,80.86286348,0,2.23694,0,286.2, -24.4, -15,0,0,1024,1024,1024,1024,0,0,0,0,273.7,-90,0,52,3.805,3.816,3.805,3.806,0,0,8.014,107.96,91.824680759912,38.713912,6,P-GPS,
1013600,2023-06-20 15:07:06,52.2062934416584,0.0867683897485509,38.713912,38.713912,52.881109959912,91.824680759912,33.464568,0.671082,81.196196824,50.521327076,26,5,15.247,92.808932759912,39.698164,10.289924,81.196196824,0,0.671082,0,283.9, -13.2, -14.2,0,0,1024,1024,1024,1024,0,0,0,0,273.7,-89.9,0,52,3.805,3.816,3.805,3.806,0,0,8.014,107.96,91.824680759912,38.713912,6,P-GPS,
1013800,2023-06-20 15:07:07,52.2062933129065,0.0867686637117902,38.713912,38.713912,52.881109959912,91.824680759912,33.464568,0,81.27296848,50.598426816,26,5,15.247,92.808932759912,39.698164,10.289924,81.27296848,0,0,0,283.3, -7, -11.5,0,0,1024,1024,1024,1024,0,0,0,0,273.7,-90,0,52,3.805,3.816,3.805,3.806,0,0,8.014,107.96,91.824680759912,38.713912,6,P-GPS,
1014000,2023-06-20 15:07:07,52.2062931104792,0.0867683914575447,39.041996,39.041996,52.881109959912,92.152764759912,33.464568,0.223694,81.259517036,50.694227344,26,5,15.247,92.808932759912,39.698164,10.289924,81.27296848,-0.223694,0,0,283.3, -4.4, -9.7,0,0,1024,1024,1024,1024,0,0,0,0,273.7,-90,0,52,3.805,3.816,3.805,3.806,0,0,8.014,107.96,92.152764759912,39.041996,6,P-GPS,
1014200,2023-06-20 15:07:07,52.2062928922031,0.0867679575898016,39.041996,39.041996,52.881109959912,92.152764759912,37.073492,0.223694,81.218178452,50.819555432,26,5,15.247,92.808932759912,39.698164,10.289924,81.27296848,-0.223694,0,0,283.2, -3, -8.4,0,0,1024,1024,1024,1024,0,0,0,0,273.7,-90,0,52,3.805,3.816,3.805,3.806,0,0,8.014,107.96,92.152764759912,39.041996,6,P-GPS,
1014400,2023-06-20 15:07:07,52.2062927040826,0.0867675281920034,38.713912,38.713912,52.881109959912,91.824680759912,37.073492,0,81.172246692,50.937665672,26,5,15.197,92.808932759912,39.698164,10.289924,81.27296848,0,0,0,283.1, -2.5, -7.6,0,0,1024,1024,1024,1024,0,0,0,0,273.7,-90,0,52,3.809,3.816,3.814,3.806,0,0,9.715,107.96,91.824680759912,38.713912,6,P-GPS,
1014600,2023-06-20 15:07:07,52.2062925681173,0.0867671482676535,38.713912,38.713912,52.881109959912,91.824680759912,37.073492,0,81.125986848,51.036090872,26,5,15.197,92.808932759912,39.698164,10.289924,81.27296848,0,0,0,283.2, -2.1, -7.6,0,0,1024,1024,1024,1024,0,0,0,0,273.7,-90,0,52,3.809,3.816,3.814,3.806,0,0,9.715,107.96,91.824680759912,38.713912,6,P-GPS,
1014800,2023-06-20 15:07:08,52.2062925064785,0.0867668997366184,38.713912,38.713912,52.881109959912,91.824680759912,37.073492,0,81.090553776,51.09580216,26,5,15.197,92.808932759912,39.698164,10.289924,81.27296848,0,0,0,283.1, -1.6, -8.2,0,0,1024,1024,1454,1024,0,0,65,0,273.7,-89.9,0,52,3.809,3.816,3.814,3.806,0,0,9.715,107.96,91.824680759912,38.713912,6,P-GPS,
1015000,2023-06-20 15:07:08,52.2062925159791,0.0867668632169237,38.713912,38.713912,52.881109959912,91.824680759912,37.073492,0,81.081695508,51.104660428,26,5,15.197,92.808932759912,39.698164,10.289924,81.27296848,0,0,0,283.3, -2.7, -8.5,0,0,1024,1024,1684,1024,0,0,100,0,273.7,-90,0,52,3.809,3.816,3.814,3.806,0,0,9.715,107.96,91.824680759912,38.713912,6,P-GPS,
1015200,2023-06-20 15:07:08,52.2062925103764,0.086766932464374,39.041996,39.041996,52.881109959912,92.152764759912,37.073492,0,81.096131204,51.12040846,26,5,15.197,92.808932759912,39.698164,10.289924,81.27296848,0,0,-1.342164,283.3, -2.7, -6.6,0,0,1024,1024,1684,1023,0,0,100,-0,273.7,-89.9,0,52,3.809,3.816,3.814,3.806,0,0,9.715,107.96,92.152764759912,39.041996,6,P-GPS,
1015400,2023-06-20 15:07:08,52.206292521856,0.0867670506592939,39.698164,39.698164,52.881109959912,92.808932759912,37.72966,0,81.116144328,51.147311348,26,5,15.253,92.808932759912,39.698164,10.289924,81.27296848,0,0,-3.35541,283.6, -3.4, -7.8,0,0,1024,1024,1684,1024,0,0,100,0,273.7,-89.9,0,52,3.811,3.82,3.802,3.781,0,0,7.761,108.14,92.808932759912,39.698164,6,P-GPS,
1015600,2023-06-20 15:07:08,52.2062925623089,0.0867671207734731,41.0105,41.0105,52.881109959912,94.121268759912,39.041996,0,81.12204984,51.168636808,26,5,15.253,94.121268759912,41.0105,10.289924,81.27296848,0,0,-5.59235,283.4, -3.2, -8.1,0,0,1024,1024,1684,1024,0,0,100,0,273.7,-89.9,0,52,3.811,3.82,3.802,3.781,0,0,7.761,108.14,94.121268759912,41.0105,6,P-GPS,
1015800,2023-06-20 15:07:09,52.2062924595404,0.0867670197244092,43.307088,43.307088,52.881109959912,96.417856759912,41.338584,0.223694,81.122377924,51.212600064,26,5,15.253,96.417856759912,43.307088,10.289924,81.27296848,-0.223694,0,-8.052984,282.8, -3.5, -6.6,0,0,1024,1024,1684,1024,0,0,100,0,273.7,-89.9,0,52,3.811,3.82,3.802,3.781,0,0,7.761,108.14,96.417856759912,43.307088,6,P-GPS,
1016000,2023-06-20 15:07:09,52.2062923213906,0.0867667409067887,46.587928,46.587928,52.881109959912,99.698696759912,43.963256,0,81.09580312,51.29265256,26,5,15.253,99.698696759912,46.587928,10.289924,81.27296848,0,0,-10.513618,282.8, -2, -3.6,0,0,1024,1024,1684,1024,0,0,100,0,273.7,-89.9,0,52,3.811,3.82,3.802,3.781,0,0,7.761,108.14,99.698696759912,46.587928,6,P-GPS,
1016200,2023-06-20 15:07:09,52.206292316259,0.0867664901495183,50.524936,50.524936,52.881109959912,103.63570475991,47.244096,0,81.049215192,51.348754924,26,5,15.253,103.63570475991,50.524936,10.289924,81.27296848,0,0,-12.30317,282.5, -0.1, -7,0,0,1024,1024,1099,1024,0,0,11,0,273.7,-90,0,52,3.811,3.82,3.802,3.781,0,0,7.761,108.14,103.63570475991,50.524936,6,P-GPS,
1016400,2023-06-20 15:07:09,52.2062923255198,0.0867663364257007,54.461944,54.461944,52.881109959912,107.57271275991,51.181104,0,81.018047212,51.383203744,26,5,15.083,107.57271275991,54.461944,10.289924,81.27296848,0,0,-12.750558,282.6, -1.8, -4.5,0,0,1024,1024,1024,1024,0,0,0,0,273.7,-90,0,52,3.754,3.763,3.755,3.752,0,0,12.498,107.78,107.57271275991,54.461944,6,P-GPS,
1016600,2023-06-20 15:07:09,52.206292534278,0.0867662795920459,58.070868,58.070868,52.881109959912,111.18163675991,54.461944,0,80.967194192,51.460631568,26,5,15.083,111.18163675991,58.070868,10.289924,81.27296848,0,0,-11.1847,282.2, -2.2, -0.3,0,0,1024,1024,1024,1024,0,0,0,0,273.7,-90,0,52,3.754,3.763,3.755,3.752,0,0,12.498,107.78,111.18163675991,58.070868,6,P-GPS,
1016800,2023-06-20 15:07:10,52.2062931410887,0.0867663496904982,60.69554,60.69554,52.881109959912,113.80630875991,57.742784,0,80.8645039,51.682416352,26,5,15.083,113.80630875991,60.69554,10.289924,81.27296848,0,0,-9.171454,282.6, -0.9, 1.2,0,0,1024,1024,1024,1024,0,0,0,0,273.7,-89.9,0,52,3.754,3.763,3.755,3.752,0,0,12.498,107.78,113.80630875991,60.69554,6,P-GPS,
1017000,2023-06-20 15:07:10,52.2062942347906,0.0867667109399843,62.33596,62.33596,52.881109959912,115.44672875991,60.039372,0.4921268,80.7250682,52.089568596,26,5,15.083,115.44672875991,62.33596,10.289924,81.27296848,0.447388,0.223694,-6.934514,282.9, -1.4, -2,0,0,1024,1024,1024,1024,0,0,0,0,273.7,-89.9,0,52,3.754,3.763,3.755,3.752,0,0,12.498,107.78,115.44672875991,62.33596,6,P-GPS,
1017200,2023-06-20 15:07:10,52.2062957031317,0.0867673251817132,63.320212,63.320212,52.881109959912,116.43098075991,61.679792,0.9171454,80.56594746,52.64271822,26,5,15.083,116.43098075991,63.320212,10.289924,81.27296848,0.894776,0.223694,-4.697574,283.1, -1.7, -9.3,0,0,1024,1024,1024,1024,0,0,0,0,273.7,-90,0,52,3.754,3.763,3.755,3.752,0,0,12.498,107.78,116.43098075991,63.320212,6,P-GPS,
1017400,2023-06-20 15:07:10,52.2062973234324,0.0867680967522232,63.648296,63.648296,52.881109959912,116.75906475991,62.664044,1.4092722,80.412076064,53.258531888,26,5,15.223,116.75906475991,63.648296,10.289924,81.27296848,1.342164,0.447388,-1.789552,283.3, -2.3, -18,0,0,1024,1024,1024,1024,0,0,0,0,273.7,-90,0,51,3.824,3.833,3.828,3.827,0,0,12.687,107.96,116.75906475991,63.648296,6,P-GPS,
1017600,2023-06-20 15:07:10,52.2062988021136,0.0867689051517243,63.97638,63.97638,52.881109959912,117.08714875991,62.007876,1.2079476,80.295934328,53.827429544,26,5,15.223,117.08714875991,63.97638,10.289924,81.27296848,1.11847,0.447388,0,283.5, -2.8, -24.2,0,0,1024,1024,1684,1024,0,0,100,0,273.7,-90,0,51,3.824,3.833,3.828,3.827,0,0,12.687,107.96,117.08714875991,63.97638,6,P-GPS,
1017800,2023-06-20 15:07:11,52.2062995929499,0.0867694860593369,63.97638,63.97638,52.881109959912,117.08714875991,62.007876,0.3131716,80.26411018,54.14370252,26,5,15.223,117.08714875991,63.97638,10.289924,81.27296848,0.223694,0.223694,0,283.7, -3.1, -24.5,0,0,1024,1024,1684,1024,0,0,100,0,273.7,-89.9,0,51,3.824,3.833,3.828,3.827,0,0,12.687,107.96,117.08714875991,63.97638,6,P-GPS,
1018000,2023-06-20 15:07:11,52.2062991772668,0.0867695175970875,64.304464,64.304464,52.881109959912,117.41523275991,55.77428,0.671082,80.345803096,54.295605412,26,5,15.223,117.41523275991,64.304464,10.289924,81.27296848,-0.671082,0,-2.013246,283.7, -3.5, -19.7,0,0,1024,1024,1024,1024,0,0,0,0,273.7,-89.9,0,51,3.824,3.833,3.828,3.827,0,0,12.687,107.96,117.41523275991,64.304464,6,P-GPS,
1018200,2023-06-20 15:07:11,52.2062977585709,0.0867689363469772,65.6168,65.6168,52.881109959912,118.72756875991,57.086616,1.3645334,80.49376898,54.82939808,26,5,15.223,118.72756875991,65.6168,10.289924,81.27296848,-1.342164,-0.223694,-3.579104,283.1, -2.8, -14.6,0,0,1024,1024,1024,1024,0,0,0,0,273.7,-90,0,51,3.824,3.833,3.828,3.827,0,0,12.687,107.96,118.72756875991,65.6168,6,P-GPS,
1018400,2023-06-20 15:07:11,52.2062961072837,0.0867682052506128,66.601052,66.601052,52.881109959912,119.71182075991,58.727036,1.1408394,80.659123316,55.453741932,26,5,15.257,119.71182075991,66.601052,10.289924,81.27296848,-1.11847,-0.223694,-2.23694,283, -2.5, -13.5,0,0,1024,1024,1024,1024,0,0,0,0,273.7,-89.9,0,51,3.772,3.777,3.767,3.757,0,0,5.139,108.14,119.71182075991,66.601052,6,P-GPS,
1018600,2023-06-20 15:07:11,52.2062945205225,0.0867675992777578,66.929136,66.929136,52.881109959912,120.03990475991,63.648296,1.1408394,80.840881852,56.04823014,26,5,15.257,120.03990475991,66.929136,10.289924,81.27296848,-1.11847,-0.223694,-0.671082,282.8, -2.6, -8.3,0,0,1024,1024,485,1024,0,0,-82,0,273.7,-90,0,51,3.772,3.777,3.767,3.757,0,0,5.139,108.14,120.03990475991,66.929136,6,P-GPS,
1018800,2023-06-20 15:07:12,52.2062931009614,0.0867671500954731,66.929136,66.929136,52.881109959912,120.03990475991,64.304464,1.11847,81.024608892,56.575789212,26,5,15.257,120.03990475991,66.929136,10.289924,81.27296848,-1.11847,0,0.223694,283.1, -3.7, -4.3,0,0,1024,1024,1024,1024,0,0,0,0,273.7,-90,0,51,3.772,3.777,3.767,3.757,0,0,5.139,108.14,120.03990475991,66.929136,6,P-GPS,
1019000,2023-06-20 15:07:12,52.2062920024877,0.0867668912126187,66.601052,66.601052,52.881109959912,119.71182075991,64.960632,0.671082,81.185698136,56.980644868,26,5,15.257,120.03990475991,66.929136,10.289924,81.27296848,-0.671082,0,2.013246,283.1, -4.7, -3.9,0,0,1024,1024,1024,1024,0,0,0,0,273.7,-89.9,0,51,3.772,3.777,3.767,3.757,0,0,5.139,108.14,119.71182075991,66.601052,6,P-GPS,
1019200,2023-06-20 15:07:12,52.2062912838875,0.0867666015626336,65.944884,65.944884,52.881109959912,119.05565275991,64.960632,0.223694,81.269031472,57.250658,26,5,15.257,120.03990475991,66.929136,10.289924,81.27296848,-0.223694,0,0.894776,283.6, -2.4, -5.3,0,0,1024,1024,1024,1024,0,0,0,0,273.7,-90,0,51,3.772,3.777,3.767,3.757,0,0,5.139,108.14,119.05565275991,65.944884,6,P-GPS,
1019400,2023-06-20 15:07:12,52.2062908731132,0.0867663352968561,65.944884,65.944884,52.881109959912,119.05565275991,65.288716,0,81.297902864,57.412075328,26,5,15.274,120.03990475991,66.929136,10.289924,81.297902864,0,0,0.223694,283.3, -1.3, -10.5,0,0,1024,1024,1024,1024,0,0,0,0,273.7,-89.9,0,51,3.801,3.796,3.789,3.785,0,0,9.439,108.32,119.05565275991,65.944884,6,P-GPS,
1019600,2023-06-20 15:07:12,52.2062904493858,0.0867661952834325,65.944884,65.944884,52.881109959912,119.05565275991,65.288716,0,81.353677144,57.569883732,26,5,15.274,120.03990475991,66.929136,10.289924,81.353677144,0,0,0,283.1, -2, -12.8,0,0,1024,1024,1024,1024,0,0,0,0,273.7,-90,0,51,3.801,3.796,3.789,3.785,0,0,9.439,108.32,119.05565275991,65.944884,6,P-GPS,
1019800,2023-06-20 15:07:13,52.2062898610196,0.0867660969621184,65.944884,65.944884,52.881109959912,119.05565275991,65.288716,0.223694,81.449805756,57.78543492,26,5,15.274,120.03990475991,66.929136,10.289924,81.449805756,-0.223694,0,0,283, -3, -11,0,0,1024,1024,1024,1024,0,0,0,0,273.7,-90,0,51,3.801,3.796,3.789,3.785,0,0,9.439,108.32,119.05565275991,65.944884,6,P-GPS,
1020000,2023-06-20 15:07:13,52.2062892298618,0.0867660048284802,65.6168,65.6168,52.881109959912,118.72756875991,64.960632,0.223694,81.555776888,58.01673414,26,5,15.274,120.03990475991,66.929136,10.289924,81.555776888,-0.223694,0,0,282.9, -3.5, -7.9,0,0,1024,1024,1024,1024,0,0,0,0,273.7,-90,0,51,3.801,3.796,3.789,3.785,0,0,9.439,108.32,118.72756875991,65.6168,6,P-GPS,
1020200,2023-06-20 15:07:13,52.2062887095768,0.0867659046443978,65.6168,65.6168,52.881109959912,118.72756875991,65.288716,0.223694,81.63878214,58.208007112,26,5,15.274,120.03990475991,66.929136,10.289924,81.63878214,-0.223694,0,0,283.1, -3.5, -6.3,0,0,1024,1024,1024,1024,0,0,0,0,273.7,-90,0,51,3.801,3.796,3.789,3.785,0,0,9.439,108.32,118.72756875991,65.6168,6,P-GPS,
1020400,2023-06-20 15:07:13,52.2062884173513,0.0867658173424241,65.6168,65.6168,52.881109959912,118.72756875991,65.288716,0,81.67979264,58.316274832,26,5,15.223,120.03990475991,66.929136,10.289924,81.67979264,0,0,0,283.2, -3, -6,0,0,1024,1024,1024,1024,0,0,0,0,273.7,-90,0,51,3.81,3.819,3.813,3.807,0,0,7.701,108.14,118.72756875991,65.6168,6,P-GPS,
1020600,2023-06-20 15:07:13,52.2062883644507,0.0867657682848659,65.6168,65.6168,52.881109959912,118.72756875991,65.288716,0,81.681104976,58.338584544,26,5,15.223,120.03990475991,66.929136,10.289924,81.681104976,0,0,0,283.1, -2.7, -7,0,0,1024,1024,1024,1024,0,0,0,0,273.7,-90,0,51,3.81,3.819,3.813,3.807,0,0,7.701,108.14,118.72756875991,65.6168,6,P-GPS,
1020800,2023-06-20 15:07:14,52.2062884934168,0.0867657732143869,65.6168,65.6168,52.881109959912,118.72756875991,64.960632,0.223694,81.656498676,58.385500556,26,5,15.223,120.03990475991,66.929136,10.289924,81.681104976,0.223694,0,0,283.1, -2.4, -7.9,0,1,1024,1024,1024,1024,0,0,0,0,273.7,-89.9,0,51,3.81,3.819,3.813,3.807,0,0,7.701,108.14,118.72756875991,65.6168,6,P-GPS,
1021000,2023-06-20 15:07:14,52.2062887319535,0.0867658440222987,65.6168,65.6168,52.881109959912,118.72756875991,64.960632,0.223694,81.623034108,58.474083236,26,5,15.223,120.03990475991,66.929136,10.289924,81.681104976,0.223694,0,0,283.1, -2.4, -8.9,0,1,1024,1024,1024,1024,0,0,0,0,273.7,-89.9,0,51,3.81,3.819,3.813,3.807,0,0,7.701,108.14,118.72756875991,65.6168,6,P-GPS,
1021200,2023-06-20 15:07:14,52.2062890085616,0.0867659476331059,65.6168,65.6168,52.881109959912,118.72756875991,64.960632,0.223694,81.588257204,58.577429696,26,5,15.223,120.03990475991,66.929136,10.289924,81.681104976,0.223694,0,0,283.1, -2.3, -9.8,0,1,1024,1024,1024,1024,0,0,0,0,273.7,-89.9,0,51,3.81,3.819,3.813,3.807,0,0,7.701,108.14,118.72756875991,65.6168,6,P-GPS,
1021400,2023-06-20 15:07:14,52.2062892452565,0.0867660852892364,65.6168,65.6168,52.881109959912,118.72756875991,64.960632,0.223694,81.567915996,58.669293216,26,5,15.242,120.03990475991,66.929136,10.289924,81.681104976,0.223694,0,0,283.1, -2.5, -9.6,0,1,1024,1024,1024,1024,0,0,0,0,273.7,-90,0,51,3.805,3.814,3.81,3.804,0,0,7.243,108.32,118.72756875991,65.6168,6,P-GPS,
1021600,2023-06-20 15:07:14,52.2062894697779,0.0867662396700905,65.6168,65.6168,52.881109959912,118.72756875991,64.960632,0,81.553152216,58.75820398,26,5,15.242,120.03990475991,66.929136,10.289924,81.681104976,0,0,0,283.2, -3, -9.9,0,1,1024,1024,1024,1024,0,0,0,0,273.7,-90,0,51,3.805,3.814,3.81,3.804,0,0,7.243,108.32,118.72756875991,65.6168,6,P-GPS,
1021800,2023-06-20 15:07:15,52.2062896896559,0.0867663641418057,65.6168,65.6168,52.881109959912,118.72756875991,64.960632,0,81.533467176,58.842849652,26,5,15.242,120.03990475991,66.929136,10.289924,81.681104976,0,0,0,283.2, -2.8, -10,0,1,1024,1024,1024,1024,0,0,0,0,273.7,-90,0,51,3.805,3.814,3.81,3.804,0,0,7.243,108.32,118.72756875991,65.6168,6,P-GPS,
1022000,2023-06-20 15:07:15,52.2062898763372,0.0867664604675462,65.6168,65.6168,52.881109959912,118.72756875991,64.632548,0,81.515422556,58.914371964,26,5,15.242,120.03990475991,66.929136,10.289924,81.681104976,0,0,0,283.1, -2.6, -9.8,0,1,1024,1024,1024,1024,0,0,0,0,273.7,-89.9,0,51,3.805,3.814,3.81,3.804,0,0,7.243,108.32,118.72756875991,65.6168,6,P-GPS,
1022200,2023-06-20 15:07:15,52.2062900507679,0.0867665519948236,65.6168,65.6168,52.881109959912,118.72756875991,64.632548,0,81.498690272,58.9813011,26,5,15.242,120.03990475991,66.929136,10.289924,81.681104976,0,0,0,283.2, -2.7, -10.1,0,1,1024,1024,1024,1024,0,0,0,0,273.7,-89.9,0,51,3.805,3.814,3.81,3.804,0,0,7.243,108.32,118.72756875991,65.6168,6,P-GPS,
1022400,2023-06-20 15:07:15,52.2062902247531,0.0867666579716611,65.6168,65.6168,52.881109959912,118.72756875991,64.632548,0,81.484910744,59.048886404,26,5,15.237,120.03990475991,66.929136,10.289924,81.681104976,0,0,0,283.1, -2.7, -10.2,0,1,1024,1024,1024,1024,0,0,0,0,273.7,-89.9,0,51,3.807,3.816,3.808,3.802,0,0,7.66,108.32,118.72756875991,65.6168,6,P-GPS,
