time(millisecond),datetime(utc),latitude,longitude,height_above_takeoff(feet),height_above_ground_at_drone_location(feet),ground_elevation_at_drone_location(feet),altitude_above_seaLevel(feet),height_sonar(feet),speed(mph),distance(feet),mileage(feet),satellites,gpslevel,voltage(v),max_altitude(feet),max_ascent(feet),max_speed(mph),max_distance(feet), xSpeed(mph), ySpeed(mph), zSpeed(mph), compass_heading(degrees), pitch(degrees), roll(degrees),isPhoto,isVideo,rc_elevator,rc_aileron,rc_throttle,rc_rudder,rc_elevator(percent),rc_aileron(percent),rc_throttle(percent),rc_rudder(percent),gimbal_heading(degrees),gimbal_pitch(degrees),gimbal_roll(degrees),battery_percent,voltageCell1,voltageCell2,voltageCell3,voltageCell4,voltageCell5,voltageCell6,current(A),battery_temperature(f),altitude(feet),ascent(feet),flycStateRaw,flycState,message
0,2023-06-02 17:24:27,0,0,0,,,53.364005644656,0.328084,0,0,0,19,2,0,53.364005644656,0,0,0,0,0,0,280, 4.5, 0.4,0,0,1024,1024,1024,1024,0,0,0,0,280,0,0,58,3.915,3.912,3.914,3.912,0,0,0,71.06,53.364005644656,0,41,Motors_Started,"Aircraft not in flight. Vision systems and obstacle avoidance disabled (Code: 180059). No GPS signal. Aircraft unable to hover. Fly with caution (Code: 30008). GPS signal weak. Hovering unstable. Fly with caution (Code: 30002)"
200,2023-06-02 17:24:27,0,0,0,,,53.364005644656,0.328084,0,0,0,19,2,0,53.364005644656,0,0,0,0,0,0,280, 4.5, 0.4,0,0,1024,1024,1024,1024,0,0,0,0,280.1,0,0,58,3.915,3.912,3.914,3.912,0,0,0,71.06,53.364005644656,0,41,Motors_Started,
400,2023-06-02 17:24:27,0,0,0,,,53.364005644656,0.328084,0,0,0,19,2,0,53.364005644656,0,0,0,0,0,0,280, 4.5, 0.4,0,0,1024,1024,1024,1024,0,0,0,0,280.1,0,0,58,3.915,3.912,3.914,3.912,0,0,0,71.06,53.364005644656,0,41,Motors_Started,
600,2023-06-02 17:24:28,0,0,0,,,53.364005644656,0,0,0,0,19,2,0,53.364005644656,0,0,0,0,0,0,280.2, 4.5, 0.4,0,0,1024,1024,1024,1024,0,0,0,0,280.1,0,0,58,3.915,3.912,3.914,3.912,0,0,0,71.06,53.364005644656,0,41,Motors_Started,
800,2023-06-02 17:24:28,0,0,0,,,53.364005644656,0,0,0,0,19,2,0,53.364005644656,0,0,0,0,0,0,280, 4.5, 0.3,0,0,1024,1024,1024,1024,0,0,0,0,280.1,0,0,58,3.915,3.912,3.914,3.912,0,0,0,71.06,53.364005644656,0,41,Motors_Started,"Setting new Return-To-Home altitude to 26m (85 ft). Data Recorder File Index is 29. Setting new Maximum Flight Altitude to 30m (98 ft)"
1000,2023-06-02 17:24:28,0,0,0,,,53.364005644656,0,0,0,0,19,2,0,53.364005644656,0,0,0,0,0,0,279.6, 4.5, 0.4,0,0,1024,1024,1024,1024,0,0,0,0,280.1,0,0,58,3.915,3.912,3.914,3.912,0,0,0,71.06,53.364005644656,0,41,Motors_Started,
1200,2023-06-02 17:24:28,0,0,0,,,53.364005644656,0,0,0,0,19,2,0,53.364005644656,0,0,0,0,0,0,279.2, 4.6, 0.4,0,0,1024,1024,1024,1024,0,0,0,0,280,0,0,58,3.915,3.912,3.914,3.912,0,0,0,71.06,53.364005644656,0,41,Motors_Started,
1400,2023-06-02 17:24:28,0,0,0,,,53.364005644656,0,0,0,0,19,2,0,53.364005644656,0,0,0,0,0,0,279.1, 4.6, 0.4,0,0,1024,1024,1024,1024,0,0,0,0,280,0,0,58,3.915,3.912,3.914,3.912,0,0,0,71.06,53.364005644656,0,41,Motors_Started,
1600,2023-06-02 17:24:29,0,0,0,,,53.364005644656,0,0,0,0,19,2,15.654,53.364005644656,0,0,0,0,0,0,279, 4.6, 0.4,0,0,1024,1024,1024,1024,0,0,0,0,280,0,0,58,3.915,3.912,3.914,3.912,0,0,1.915,71.06,53.364005644656,0,11,AutoTakeoff,
1800,2023-06-02 17:24:29,0,0,0,,,53.364005644656,0,0,0,0,20,2,15.654,53.364005644656,0,0,0,0,0,0,279.1, 4.5, 0.3,0,0,1024,1024,1024,1024,0,0,0,0,279.9,0,0,58,3.915,3.912,3.914,3.912,0,0,1.915,71.06,53.364005644656,0,11,AutoTakeoff,
2000,2023-06-02 17:24:29,0,0,0,,,53.364005644656,0,0,0,0,20,2,15.654,53.364005644656,0,0,0,0,0,0,279.4, 4.1, 0.4,0,0,1024,1024,1024,1024,0,0,0,0,279.9,0,0,58,3.915,3.912,3.914,3.912,0,0,1.915,71.06,53.364005644656,0,11,AutoTakeoff,
2200,2023-06-02 17:24:29,0,0,0,,,53.364005644656,0,0,0,0,20,2,15.654,53.364005644656,0,0,0,0,0,-0.223694,280.8, -1.2, 0.5,0,0,1024,1024,1024,1024,0,0,0,0,279.9,0,0,58,3.915,3.912,3.914,3.912,0,0,1.915,71.06,53.364005644656,0,11,AutoTakeoff,
2400,2023-06-02 17:24:29,0,0,0.328084,,,53.692089644656,0.328084,0,0,0,20,2,15.654,53.692089644656,0.328084,0,0,0,0,-0.894776,280.5, -0.6, 0.6,0,0,1024,1024,1024,1024,0,0,0,0,279.9,0,0,58,3.915,3.912,3.914,3.912,0,0,1.915,71.06,53.692089644656,0.328084,11,AutoTakeoff,
2600,2023-06-02 17:24:30,0,0,0.656168,,,54.020173644656,0.328084,0,0,0,20,2,15.535,54.020173644656,0.656168,0,0,0,0,-0.894776,280.7, -0.4, 0.6,0,0,1024,1024,1024,1024,0,0,0,0,280,0,0,58,3.846,3.846,3.846,3.842,0,0,4.689,71.24,54.020173644656,0.656168,11,AutoTakeoff,
2800,2023-06-02 17:24:30,0,0,0.984252,,,54.348257644656,0.656168,0,0,0,20,2,15.535,54.348257644656,0.984252,0,0,0,0,-0.894776,280.5, -0.3, 0.8,0,0,1024,1024,1024,1024,0,0,0,0,280,0,0,58,3.846,3.846,3.846,3.842,0,0,4.689,71.24,54.348257644656,0.984252,11,AutoTakeoff,
3000,2023-06-02 17:24:30,0,0,0.984252,,,54.348257644656,0.984252,0,0,0,20,2,15.535,54.348257644656,0.984252,0,0,0,0,-0.894776,280.4, -0.5, 1.4,0,0,1024,1024,1164,1024,0,0,21,0,280,0,0,58,3.846,3.846,3.846,3.842,0,0,4.689,71.24,54.348257644656,0.984252,11,AutoTakeoff,
3200,2023-06-02 17:24:30,0,0,1.312336,,,54.676341644656,1.312336,0,0,0,20,2,15.535,54.676341644656,1.312336,0,0,0,0,-0.894776,280.4, -0.4, 1.9,0,0,1024,1024,1137,1024,0,0,17,0,280,0,0,58,3.846,3.846,3.846,3.842,0,0,4.689,71.24,54.676341644656,1.312336,11,AutoTakeoff,
3400,2023-06-02 17:24:30,0,0,1.64042,,,55.004425644656,1.64042,0,0,0,20,2,15.535,55.004425644656,1.64042,0,0,0,0,-1.342164,280.5, -0.6, 2.2,0,0,1024,1024,1141,1024,0,0,18,0,280,0,0,58,3.846,3.846,3.846,3.842,0,0,4.689,71.24,55.004425644656,1.64042,11,AutoTakeoff,
3600,2023-06-02 17:24:31,0,0,2.296588,,,55.660593644656,2.296588,0,0,0,20,2,15.438,55.660593644656,2.296588,0,0,0,0,-1.342164,280.6, -1.1, 2.9,0,0,1024,1024,1638,1024,0,0,93,0,280,0,0,58,3.818,3.819,3.824,3.824,0,0,4.587,71.06,55.660593644656,2.296588,11,AutoTakeoff,
3800,2023-06-02 17:24:31,0,0,2.624672,,,55.988677644656,2.624672,0,0,0,20,2,15.438,55.988677644656,2.624672,0,0,0,0,-2.013246,280.6, -0.5, 2.9,0,0,1024,1024,1684,1024,0,0,100,0,280,0,0,58,3.818,3.819,3.824,3.824,0,0,4.587,71.06,55.988677644656,2.624672,11,AutoTakeoff,
4000,2023-06-02 17:24:31,0,0,3.608924,,,56.972929644656,3.608924,0,0,0,20,2,15.438,56.972929644656,3.608924,0,0,0,0,-3.579104,280.7, -0.7, 1.9,0,0,1024,1024,1684,1024,0,0,100,0,280.1,0,0,58,3.818,3.819,3.824,3.824,0,0,4.587,71.06,56.972929644656,3.608924,11,AutoTakeoff,
4200,2023-06-02 17:24:31,0,0,5.249344,,,58.613349644656,5.249344,0,0,0,20,2,15.438,58.613349644656,5.249344,0,0,0,0,-5.816044,280.9, -0.8, 2,0,0,1024,1024,1532,1024,0,0,77,0,280.1,0,0,58,3.818,3.819,3.824,3.824,0,0,4.587,71.06,58.613349644656,5.249344,6,P-GPS,
4400,2023-06-02 17:24:31,0,0,7.545932,,,60.909937644656,7.217848,0,0,0,20,2,15.438,60.909937644656,7.545932,0,0,0,0,-8.052984,280.3, -1, 1.9,0,0,1024,1024,1024,1024,0,0,0,0,280.1,0,0,58,3.818,3.819,3.824,3.824,0,0,4.587,71.06,60.909937644656,7.545932,6,P-GPS,
4600,2023-06-02 17:24:32,0,0,10.498688,,,63.862693644656,9.84252,0,0,0,20,2,15.321,63.862693644656,10.498688,0,0,0,0,-8.276678,280, -2.8, 2.1,0,0,1024,1024,1024,1024,0,0,0,0,280.1,0,0,58,3.727,3.727,3.723,3.757,0,0,7.899,71.06,63.862693644656,10.498688,6,P-GPS,
4800,2023-06-02 17:24:32,0,0,13.451444,,,66.815449644656,12.139108,0,0,0,20,2,15.321,66.815449644656,13.451444,0,0,0,0,-6.71082,279.8, -2.4, 1.6,0,0,1024,1024,1024,1024,0,0,0,0,280.1,0,0,58,3.727,3.727,3.723,3.757,0,0,7.899,71.06,66.815449644656,13.451444,6,P-GPS,
5000,2023-06-02 17:24:32,0,0,14.107612,,,67.471617644656,13.779528,0,0,0,20,2,15.321,67.471617644656,14.107612,0,0,0,0,-4.47388,280, -0.3, 1.7,0,0,1024,1024,1024,1024,0,0,0,0,280.1,0,0,58,3.727,3.727,3.723,3.757,0,0,7.899,71.06,67.471617644656,14.107612,6,P-GPS,
5200,2023-06-02 17:24:32,0,0,15.091864,,,68.455869644656,14.76378,0.223694,0,0,20,2,15.321,68.455869644656,15.091864,0.223694,0,0,-0.223694,-2.23694,280.2, 0.4, 2.1,0,0,1024,1024,1024,1024,0,0,0,0,280.1,0,0,58,3.727,3.727,3.723,3.757,0,0,7.899,71.06,68.455869644656,15.091864,6,P-GPS,
5400,2023-06-02 17:24:32,0,0,15.419948,,,68.783953644656,15.091864,0,0,0,20,2,15.321,68.783953644656,15.419948,0.223694,0,0,0,-0.447388,280, 1.6, 3.3,0,0,1024,1024,1024,1024,0,0,0,0,280.1,0,0,58,3.727,3.727,3.723,3.757,0,0,7.899,71.06,68.783953644656,15.419948,6,P-GPS,
5600,2023-06-02 17:24:33,0,0,15.419948,,,68.783953644656,15.091864,0,0,0,20,2,14.993,68.783953644656,15.419948,0.223694,0,0,0,0,279.4, 1.2, 2.8,0,0,1024,1024,1631,1024,0,0,92,0,280.1,0,0,58,3.854,3.849,3.848,3.842,0,0,11.572,70.88,68.783953644656,15.419948,6,P-GPS,
5800,2023-06-02 17:24:33,0,0,15.419948,,,68.783953644656,15.091864,0,0,0,20,2,14.993,68.783953644656,15.419948,0.223694,0,0,0,-0.447388,280.2, 0.8, 2.7,0,0,1024,1024,1672,1024,0,0,98,0,280.1,0,0,58,3.854,3.849,3.848,3.842,0,0,11.572,70.88,68.783953644656,15.419948,6,P-GPS,
6000,2023-06-02 17:24:33,0,0,16.076116,,,69.440121644656,15.748032,0,0,0,20,2,14.993,69.440121644656,16.076116,0.223694,0,0,0,-2.460634,280.4, 3.2, 1.7,0,0,1024,1024,1440,1024,0,0,63,0,280.1,0,0,58,3.854,3.849,3.848,3.842,0,0,11.572,70.88,69.440121644656,16.076116,6,P-GPS,
6200,2023-06-02 17:24:33,0,0,17.388452,,,70.752457644656,16.732284,0,0,0,20,2,14.993,70.752457644656,17.388452,0.223694,0,0,0,-4.697574,280.1, 3.8, 1.6,0,0,1024,1024,1024,1024,0,0,0,0,280.1,0,0,58,3.854,3.849,3.848,3.842,0,0,11.572,70.88,70.752457644656,17.388452,6,P-GPS,
6400,2023-06-02 17:24:33,0,0,19.028872,,,72.392877644656,18.372704,0.223694,0,0,20,2,14.993,72.392877644656,19.028872,0.223694,0,0,0.223694,-4.697574,280.3, 1, 1.2,0,0,1024,1024,1024,1024,0,0,0,0,280.1,0,0,58,3.854,3.849,3.848,3.842,0,0,11.572,70.88,72.392877644656,19.028872,6,P-GPS,
6600,2023-06-02 17:24:34,0,0,20.013124,,,73.377129644656,19.356956,0,0,0,20,2,15.448,73.377129644656,20.013124,0.223694,0,0,0,-2.908022,280.1, 0.2, 0.7,0,0,1024,1024,1024,1024,0,0,0,0,280.1,0,0,58,3.836,3.838,3.838,3.835,0,0,8.832,71.06,73.377129644656,20.013124,6,P-GPS,
6800,2023-06-02 17:24:34,0,0,20.669292,,,74.033297644656,20.013124,0,0,0,20,2,15.448,74.033297644656,20.669292,0.223694,0,0,0,-0.894776,279.9, 0.1, 1.8,0,0,1024,1024,1556,1024,0,0,81,0,280.1,0,0,58,3.836,3.838,3.838,3.835,0,0,8.832,71.06,74.033297644656,20.669292,6,P-GPS,
7000,2023-06-02 17:24:34,0,0,20.669292,,,74.033297644656,20.013124,0,0,0,20,2,15.448,74.033297644656,20.669292,0.223694,0,0,0,0,279.8, 0.8, 2.3,0,0,1024,1024,1616,1024,0,0,90,0,280.1,0,0,58,3.836,3.838,3.838,3.835,0,0,8.832,71.06,74.033297644656,20.669292,6,P-GPS,
7200,2023-06-02 17:24:34,52.2063446635715,0.0866994316441713,20.997376,20.997376,53.364005644656,74.361381644656,20.341208,0.223694,0,0,20,2,15.448,74.361381644656,20.997376,0.223694,0,-0.223694,0,-1.342164,279.5, 2, 2.2,0,0,1024,1024,1024,1024,0,0,0,0,280.1,0,0,58,3.836,3.838,3.838,3.835,0,0,8.832,71.06,74.361381644656,20.997376,6,P-GPS,"No GPS. Fly with caution GPS signal weak. Hovering unstable. Fly with caution (Code: 30002)"
7400,2023-06-02 17:24:34,52.2063443305153,0.0866992303428653,21.653544,21.653544,53.364005644656,75.017549644656,20.997376,0.223694,0.129583009396,0.129583009396,20,2,15.448,75.017549644656,21.653544,0.223694,0.129583009396,-0.223694,0,-2.013246,280.5, 1.6, 5.4,0,0,1024,1024,1024,1024,0,0,0,0,280.1,0,0,58,3.836,3.838,3.838,3.835,0,0,8.832,71.06,75.017549644656,21.653544,6,P-GPS,
7600,2023-06-02 17:24:35,52.2063440392546,0.0866991516801227,21.981628,21.981628,53.364005644656,75.345633644656,21.653544,0.223694,0.236226057428,0.2372949551,20,2,15.058,75.345633644656,21.981628,0.223694,0.236226057428,-0.223694,0,-0.671082,280.4, 0.6, 6.6,0,0,1024,1024,1024,1024,0,0,0,0,280.1,0,0,58,3.857,3.856,3.854,3.841,0,0,8.979,71.06,75.345633644656,21.981628,6,P-GPS,
7800,2023-06-02 17:24:35,52.2063439174492,0.0866991536076866,22.309712,22.309712,53.364005644656,75.673717644656,21.653544,0,0.279230323896,0.281737541824,20,2,15.058,75.673717644656,22.309712,0.223694,0.279230323896,0,0,0,280.3, -0.3, 5.4,0,0,1024,1024,1024,1024,0,0,0,0,280.1,0,0,58,3.857,3.856,3.854,3.841,0,0,8.979,71.06,75.673717644656,22.309712,6,P-GPS,
8000,2023-06-02 17:24:35,52.2063439464966,0.086699224440947,22.309712,22.309712,53.364005644656,75.673717644656,21.653544,0,0.265694562308,0.300793644796,20,2,15.058,75.673717644656,22.309712,0.223694,0.279230323896,0,0,0,280.2, -0.5, 4.2,0,0,1024,1024,1024,1024,0,0,0,0,280.1,0,0,58,3.857,3.856,3.854,3.841,0,0,8.979,71.06,75.673717644656,22.309712,6,P-GPS,
8200,2023-06-02 17:24:35,52.2063440408673,0.0866993114746035,22.309712,22.309712,53.364005644656,75.673717644656,21.653544,0,0.228776582124,0.34034449908,20,5,15.058,75.673717644656,22.309712,0.223694,0.279230323896,0,0,0,280, -0.8, 5.5,0,0,1024,1024,1024,1024,0,0,0,0,280.1,0,0,58,3.857,3.856,3.854,3.841,0,0,8.979,71.06,75.673717644656,22.309712,6,P-GPS,
8400,2023-06-02 17:24:35,52.2063442453248,0.0866993040227976,22.309712,22.309712,53.364005644656,75.673717644656,21.653544,0,0.155242130952,0.41495736236,20,5,15.058,75.673717644656,22.309712,0.223694,0.279230323896,0,0,0,280.3, 1.6, 7.1,0,0,1024,1024,1024,1024,0,0,0,0,280.1,0,0,58,3.857,3.856,3.854,3.841,0,0,8.979,71.06,75.673717644656,22.309712,6,P-GPS,
8600,2023-06-02 17:24:36,52.2063446123486,0.0866993409902582,22.637796,22.637796,53.364005644656,76.001801644656,21.653544,0,0.027569882772,0.54912075248,20,5,15.361,76.001801644656,22.637796,0.223694,0.279230323896,0,0,0,280.5, 2.4, 7.4,0,0,1024,1024,1024,1024,0,0,0,0,280.1,0,0,58,3.814,3.811,3.808,3.801,0,0,7.302,71.06,76.001801644656,22.637796,6,P-GPS,
8800,2023-06-02 17:24:36,52.2063451093289,0.0866994621239663,22.637796,22.637796,53.364005644656,76.001801644656,21.653544,0,0.162776908096,0.73245737252,20,5,15.361,76.001801644656,22.637796,0.223694,0.279230323896,0,0,0,280.8, 3.4, 7.7,0,0,1024,1024,1024,1024,0,0,0,0,280.1,0,0,58,3.814,3.811,3.808,3.801,0,0,7.302,71.06,76.001801644656,22.637796,6,P-GPS,"Setting new Maximum Flight Altitude to 120m (394 ft)"
9000,2023-06-02 17:24:36,52.2063456510772,0.0866996887313634,22.637796,22.637796,53.364005644656,76.001801644656,21.653544,0,0.3648458122,0.93650265464,20,5,15.361,76.001801644656,22.637796,0.223694,0.3648458122,0,0,0,280.9, 3.9, 7.9,0,0,1024,1024,1024,1024,0,0,0,0,280.1,0,0,58,3.814,3.811,3.808,3.801,0,0,7.302,71.06,76.001801644656,22.637796,6,P-GPS,
9200,2023-06-02 17:24:36,52.2063462197774,0.0867000923481155,22.96588,22.96588,53.364005644656,76.329885644656,21.653544,0,0.58668308964,1.16276906608,20,5,15.361,76.329885644656,22.96588,0.223694,0.58668308964,0,0,0,281.1, 3.5, 8.6,0,0,1024,1024,1024,1024,0,0,0,0,280.1,0,0,58,3.814,3.811,3.808,3.801,0,0,7.302,71.06,76.329885644656,22.96588,6,P-GPS,
9400,2023-06-02 17:24:36,52.2063468255215,0.0867006604317911,22.96588,22.96588,53.364005644656,76.329885644656,21.653544,0,0.83526249392,1.41767392988,20,5,15.361,76.329885644656,22.96588,0.223694,0.83526249392,0,0,0,280.7, 3.3, 7.7,0,0,1024,1024,1024,1024,0,0,0,0,280.1,0,0,58,3.814,3.811,3.808,3.801,0,0,7.302,71.06,76.329885644656,22.96588,6,P-GPS,
9600,2023-06-02 17:24:37,52.2063473789933,0.0867013776290459,23.293964,23.293964,53.364005644656,76.657969644656,21.653544,0,1.08205055956,1.67553154968,20,5,15.289,76.657969644656,23.293964,0.223694,1.08205055956,0,0,0,280.4, 0.4, 7,0,0,1024,1024,1024,1024,0,0,0,0,280.1,0,0,58,3.801,3.806,3.806,3.798,0,0,7.787,71.42,76.657969644656,23.293964,6,P-GPS,
9800,2023-06-02 17:24:37,52.2063478862157,0.0867020730497684,23.293964,23.293964,53.364005644656,76.657969644656,21.653544,0,1.31576775864,1.917240875,20,5,15.289,76.657969644656,23.293964,0.223694,1.31576775864,0,0,0,280.5, 1.1, 8.3,0,0,1024,1024,1024,1024,0,0,0,0,280.1,0,0,58,3.801,3.806,3.806,3.798,0,0,7.787,71.42,76.657969644656,23.293964,6,P-GPS,"Home Point updated (Code: 3000001)"
10000,2023-06-02 17:24:37,52.2063484357873,0.0867027899892766,23.622048,23.622048,53.364005644656,76.986053644656,21.653544,0.223694,1.56780188744,2.1739502008,20,5,15.289,76.986053644656,23.622048,0.223694,1.56780188744,0.223694,0,0,279.6, -1.4, 7.7,0,0,1024,1024,1024,1024,0,0,0,0,280.1,0,0,58,3.801,3.806,3.806,3.798,0,0,7.787,71.42,76.986053644656,23.622048,6,P-GPS,
10200,2023-06-02 17:24:37,52.2063491203025,0.0867032320946449,23.622048,23.622048,53.364005644656,76.986053644656,21.653544,0.447388,1.83467525556,2.44254600992,20,5,15.289,76.986053644656,23.622048,0.447388,1.83467525556,0.447388,0,0,280.5, 2.2, 5,0,0,1024,1024,1024,1024,0,0,0,0,280.1,0,0,58,3.801,3.806,3.806,3.798,0,0,7.787,71.42,76.986053644656,23.622048,6,P-GPS,
10400,2023-06-02 17:24:37,52.2063498694806,0.0867035480435224,23.622048,23.622048,53.364005644656,76.986053644656,21.653544,0.447388,2.11061686544,2.72486557276,20,5,15.289,76.986053644656,23.622048,0.447388,2.11061686544,0.447388,0,0,280.5, 4.5, 2.1,0,0,1024,1024,1024,1024,0,0,0,0,280.1,0,0,58,3.801,3.806,3.806,3.798,0,0,7.787,71.42,76.986053644656,23.622048,6,P-GPS,
10600,2023-06-02 17:24:38,52.206350479591,0.0867041048256089,23.622048,23.622048,53.364005644656,76.986053644656,21.653544,0.223694,2.36526910456,2.97990823184,20,5,15.224,76.986053644656,23.622048,0.447388,2.36526910456,0.223694,0,0,280.5, 3.2, 0.2,0,0,1024,1024,1264,1024,0,0,36,0,280.1,0,0,58,3.814,3.816,3.816,3.809,0,0,8.23,71.42,76.986053644656,23.622048,6,P-GPS,
10800,2023-06-02 17:24:38,52.2063508557131,0.0867047986895855,23.622048,23.622048,53.364005644656,76.986053644656,21.653544,0,2.5581201606,3.18703094188,20,5,15.224,76.986053644656,23.622048,0.447388,2.5581201606,0,0,0,279.7, 1.3, 1.5,0,0,1024,1024,1531,1024,0,0,77,0,280.1,0,0,58,3.814,3.816,3.816,3.809,0,0,8.23,71.42,76.986053644656,23.622048,6,P-GPS,
11000,2023-06-02 17:24:38,52.2063510499943,0.0867054149477991,23.950132,23.950132,53.364005644656,77.314137644656,21.981628,0,2.6868111096,3.3419948576,20,5,15.224,77.314137644656,23.950132,0.447388,2.6868111096,0,0,-1.565858,280.2, 2.5, 2.3,0,0,1024,1024,1024,1024,0,0,0,0,280.1,0,0,58,3.814,3.816,3.816,3.809,0,0,8.23,71.42,77.314137644656,23.950132,6,P-GPS,
11200,2023-06-02 17:24:38,52.2063511204736,0.0867059479617146,24.6063,24.6063,53.364005644656,77.970305644656,22.637796,0,2.769931191,3.463910872,20,5,15.224,77.970305644656,24.6063,0.447388,2.769931191,0,0,-2.684328,280.2, 3.4, 3.7,0,0,1024,1024,1407,1024,0,0,58,0,280.1,0,0,58,3.814,3.816,3.816,3.809,0,0,8.23,71.42,77.970305644656,24.6063,6,P-GPS,
11400,2023-06-02 17:24:38,52.2063511259098,0.0867064971826508,25.262468,25.262468,53.364005644656,78.626473644656,23.293964,0,2.83809392284,3.5867127132,20,5,15.224,78.626473644656,25.262468,0.447388,2.83809392284,0,0,-1.11847,280.8, 3.4, 5.5,0,0,1024,1024,1598,1024,0,0,87,0,280.1,0,0,58,3.814,3.816,3.816,3.809,0,0,8.23,71.42,78.626473644656,25.262468,6,P-GPS,
11600,2023-06-02 17:24:39,52.2063511651205,0.0867070850516021,25.590552,25.590552,53.364005644656,78.954557644656,23.950132,0,2.92489510672,3.7189305652,20,5,15.224,78.954557644656,25.590552,0.447388,2.92489510672,0,0,-1.789552,280.4, 0.9, 3.4,0,0,1024,1024,1498,1024,0,0,72,0,280.1,0,0,58,3.836,3.818,3.76,3.742,0,0,8.19,71.6,78.954557644656,25.590552,6,P-GPS,
11800,2023-06-02 17:24:39,52.2063511787467,0.0867075693592679,26.574804,26.574804,53.364005644656,79.938809644656,24.934384,0.223694,2.99348106692,3.8273295188,20,5,15.224,79.938809644656,26.574804,0.447388,2.99348106692,-0.223694,0,-3.802798,280.3, 3.4, 6,0,0,1024,1024,1024,1024,0,0,0,0,280.1,0,0,58,3.836,3.818,3.76,3.742,0,0,8.19,71.6,79.938809644656,26.574804,6,P-GPS,
12000,2023-06-02 17:24:39,52.2063512912975,0.0867083263270462,27.88714,27.88714,53.364005644656,81.251145644656,25.918636,0.223694,3.13087608444,4.001476506,20,5,15.224,81.251145644656,27.88714,0.447388,3.13087608444,0,0.223694,-4.47388,280.9, 0.4, 6,0,0,1024,1024,1091,1024,0,0,10,0,280.1,0,0,58,3.836,3.818,3.76,3.742,0,0,8.19,71.6,81.251145644656,27.88714,6,P-GPS,
12200,2023-06-02 17:24:39,52.2063514538758,0.0867090535132934,28.871392,28.871392,53.364005644656,82.235397644656,27.230972,0,3.2811352756,4.1745736244,20,5,15.224,82.235397644656,28.871392,0.447388,3.2811352756,0,0,-2.684328,280.2, -0.9, 5.6,0,0,1024,1024,1651,1024,0,0,95,0,280.1,0,0,58,3.836,3.818,3.76,3.742,0,0,8.19,71.6,82.235397644656,28.871392,6,P-GPS,
12400,2023-06-02 17:24:39,52.2063516422619,0.0867096010597503,29.52756,29.52756,53.364005644656,82.891565644656,27.559056,0,3.4136484032,4.314960768,20,5,15.224,82.891565644656,29.52756,0.447388,3.4136484032,0,0,-2.23694,280.8, 0, 3.7,0,0,1024,1024,1024,1024,0,0,0,0,280.1,0,0,58,3.836,3.818,3.76,3.742,0,0,8.19,71.6,82.891565644656,29.52756,6,P-GPS,
12600,2023-06-02 17:24:40,52.2063517711091,0.0867100469352092,30.511812,30.511812,53.364005644656,83.875817644656,28.871392,0,3.5153544432,4.4251641836,20,5,14.991,83.875817644656,30.511812,0.447388,3.5153544432,0,0,-3.579104,280, -1.1, 4.1,0,0,1024,1024,1245,1024,0,0,33,0,280.1,0,0,58,3.739,3.746,3.753,3.747,0,0,9.568,71.6,83.875817644656,30.511812,6,P-GPS,
12800,2023-06-02 17:24:40,52.2063518341224,0.0867103000126938,31.496064,31.496064,53.364005644656,84.860069644656,29.855644,0,3.5706365972,4.4862534244,20,5,14.991,84.860069644656,31.496064,0.447388,3.5706365972,0,0,-2.23694,280, -0.5, 8.1,0,0,1024,1024,1684,1024,0,0,100,0,280.1,0,0,58,3.739,3.746,3.753,3.747,0,0,9.568,71.6,84.860069644656,31.496064,6,P-GPS,
13000,2023-06-02 17:24:40,52.2063520072508,0.0867103534204167,31.824148,31.824148,53.364005644656,85.188153644656,30.183728,0,3.6251969664,4.55052508,20,5,14.991,85.188153644656,31.824148,0.447388,3.6251969664,0,0,-2.013246,280.6, 1.5, 6,0,0,1024,1024,1058,1024,0,0,5,0,280.1,0,0,58,3.739,3.746,3.753,3.747,0,0,9.568,71.6,85.188153644656,31.824148,6,P-GPS,
13200,2023-06-02 17:24:40,52.2063522978084,0.086710573115781,32.8084,32.8084,53.364005644656,86.172405644656,31.16798,0,3.7368111432,4.6673886008,20,5,14.991,86.172405644656,32.8084,0.447388,3.7368111432,0,0,-3.802798,280, 0.6, 3.6,0,0,1024,1024,1197,1024,0,0,26,0,280.1,0,0,58,3.739,3.746,3.753,3.747,0,0,9.568,71.6,86.172405644656,32.8084,6,P-GPS,
13400,2023-06-02 17:24:40,52.2063525351757,0.0867108669050011,33.792652,33.792652,53.364005644656,87.156657644656,32.480316,0,3.84514448,4.77608283,26,5,14.991,87.156657644656,33.792652,0.447388,3.84514448,0,0,-2.23694,280.3, 0, 6.4,0,0,1024,1024,1566,1024,0,0,82,0,280.1,0,0,58,3.739,3.746,3.753,3.747,0,0,9.568,71.6,87.156657644656,33.792652,6,P-GPS,
13600,2023-06-02 17:24:41,52.2063528344838,0.0867111875391881,34.44882,34.44882,53.364005644656,87.812825644656,33.136484,0,3.9744423844,4.9066930704,26,5,15.185,87.812825644656,34.44882,0.447388,3.9744423844,0,0,-2.013246,280.5, 0.3, 4.3,0,0,1024,1024,1024,1024,0,0,0,0,280.1,0,0,58,3.829,3.841,3.812,3.741,0,0,8.947,71.6,87.812825644656,34.44882,6,P-GPS,
13800,2023-06-02 17:24:41,52.2063537258304,0.086712470978486,35.104988,35.104988,53.364005644656,88.468993644656,33.792652,0,4.408136624,5.3404201184,26,5,15.185,88.468993644656,35.104988,0.447388,4.408136624,0,0,-2.013246,279.8, -1.8, 6.1,0,0,1024,1024,711,1024,0,0,-47,0,280.1,0,0,58,3.829,3.841,3.812,3.741,0,0,8.947,71.6,88.468993644656,35.104988,6,P-GPS,
14000,2023-06-02 17:24:41,52.2063549549066,0.0867140944432546,35.433072,35.433072,53.364005644656,88.797077644656,34.120736,0,4.9846130204,5.9173558324,26,5,15.185,88.797077644656,35.433072,0.447388,4.9846130204,0,0,-0.447388,280, -0.3, 6.2,0,0,1024,1024,792,1024,0,0,-35,0,280.1,0,0,58,3.829,3.841,3.812,3.741,0,0,8.947,71.6,88.797077644656,35.433072,6,P-GPS,
14200,2023-06-02 17:24:41,52.2063566655211,0.0867162523347398,35.761156,35.761156,53.364005644656,89.125161644656,34.120736,0.223694,5.7722770876,6.706201002,26,5,15.185,89.125161644656,35.761156,0.447388,5.7722770876,0,-0.223694,0.447388,280, -2, 5.5,0,0,1024,1024,1024,1024,0,0,0,0,280.1,0,0,58,3.829,3.841,3.812,3.741,0,0,8.947,71.6,89.125161644656,35.761156,6,P-GPS,
14400,2023-06-02 17:24:41,52.2063586186303,0.0867185275385116,35.433072,35.433072,53.364005644656,88.797077644656,31.496064,0.223694,6.6447508688,7.5817587728,26,5,15.185,89.125161644656,35.761156,0.447388,6.6447508688,0,-0.223694,0.671082,280.9, 0.9, 3.7,0,0,1024,1024,599,1024,0,0,-64,0,280.1,0,0,58,3.829,3.841,3.812,3.741,0,0,8.947,71.6,88.797077644656,35.433072,6,P-GPS,
14600,2023-06-02 17:24:42,52.2063606502796,0.0867208204263234,35.433072,35.433072,53.364005644656,88.797077644656,31.16798,0.223694,7.5425855432,8.4830055208,26,5,15.011,89.125161644656,35.761156,0.447388,7.5425855432,0,-0.223694,0.223694,280, 3.4, 4.6,0,0,1024,1024,813,1024,0,0,-32,0,280.1,0,0,58,3.803,3.809,3.817,3.807,0,0,9.351,71.6,88.797077644656,35.433072,6,P-GPS,
14800,2023-06-02 17:24:42,52.2063625633096,0.0867230205078739,35.104988,35.104988,53.364005644656,88.468993644656,30.839896,0.223694,8.3944556492,9.3369097476,26,5,15.011,89.125161644656,35.761156,0.447388,8.3944556492,0,-0.223694,2.013246,280.7, 6.5, 8.7,0,0,1024,1024,1024,1024,0,0,0,0,280.1,0,0,58,3.803,3.809,3.817,3.807,0,0,9.351,71.6,88.468993644656,35.104988,6,P-GPS,
15000,2023-06-02 17:24:42,52.2063644083259,0.0867251946487551,34.44882,34.44882,53.364005644656,87.812825644656,29.855644,0,9.2236879592,10.1672247348,26,5,15.011,89.125161644656,35.761156,0.447388,9.2236879592,0,0,2.013246,280.1, 3.2, 4.8,0,0,1024,1024,1024,1024,0,0,0,0,280.1,0,0,58,3.803,3.809,3.817,3.807,0,0,9.351,71.6,87.812825644656,34.44882,6,P-GPS,
15200,2023-06-02 17:24:42,52.2063661275031,0.086727390218429,34.120736,34.120736,53.364005644656,87.484741644656,29.199476,0,10.0201446776,10.9637142616,26,5,15.011,89.125161644656,35.761156,0.447388,10.0201446776,0,0,0.671082,280.3, 3.4, 5.7,0,0,1024,1024,542,1024,0,0,-73,0,280.1,0,0,58,3.803,3.809,3.817,3.807,0,0,9.351,71.6,87.484741644656,34.120736,6,P-GPS,
15400,2023-06-02 17:24:42,52.2063676525436,0.0867294275526411,34.120736,34.120736,53.364005644656,87.484741644656,29.199476,0,10.739173572,11.6828087728,26,5,15.011,89.125161644656,35.761156,0.447388,10.739173572,0,0,0.447388,280.7, 3.7, 8.2,0,0,1024,1024,1024,1024,0,0,0,0,280.1,0,0,58,3.803,3.809,3.817,3.807,0,0,9.351,71.6,87.484741644656,34.120736,6,P-GPS,
15600,2023-06-02 17:24:43,52.2063690024618,0.0867312677272817,33.464568,33.464568,53.364005644656,86.828573644656,29.199476,0,11.3808074508,12.3245738852,26,5,15.24,89.125161644656,35.761156,0.447388,11.3808074508,0,0,2.23694,280.8, 2.8, 9.5,0,0,1024,1024,1024,1024,0,0,0,0,280.1,0,0,58,3.843,3.84,3.841,3.836,0,0,6.786,71.96,86.828573644656,33.464568,6,P-GPS,
15800,2023-06-02 17:24:43,52.2063703622319,0.0867328698628614,32.8084,32.8084,53.364005644656,86.172405644656,28.871392,0,11.9919951344,12.9364833536,26,5,15.24,89.125161644656,35.761156,0.447388,11.9919951344,0,0,1.342164,280.5, 0.5, 4.6,0,0,1024,1024,1024,1024,0,0,0,0,280.1,0,0,58,3.843,3.84,3.841,3.836,0,0,6.786,71.96,86.172405644656,32.8084,6,P-GPS,
16000,2023-06-02 17:24:43,52.2063715170582,0.0867339866833792,32.8084,32.8084,53.364005644656,86.172405644656,29.52756,0,12.4772641788,13.4262799572,26,5,15.24,89.125161644656,35.761156,0.447388,12.4772641788,0,0,0.223694,280.4, 2.6, 5.1,0,0,1024,1024,1024,1024,0,0,0,0,280.1,0,0,58,3.843,3.84,3.841,3.836,0,0,6.786,71.96,86.172405644656,32.8084,6,P-GPS,
16200,2023-06-02 17:24:43,52.206372505389,0.0867348701654356,32.8084,32.8084,53.364005644656,86.172405644656,30.183728,0,12.8829072364,13.8374020176,26,5,15.24,89.125161644656,35.761156,0.447388,12.8829072364,0,0,0,280.4, 2.8, 7.1,0,0,1024,1024,1024,1024,0,0,0,0,280.1,-0.6,0,58,3.843,3.84,3.841,3.836,0,0,6.786,71.96,86.172405644656,32.8084,6,P-GPS,
16400,2023-06-02 17:24:43,52.2063733349089,0.0867355803019617,33.136484,33.136484,53.364005644656,86.500489644656,30.511812,0,13.2193573784,14.1791999288,26,5,15.24,89.125161644656,35.761156,0.447388,13.2193573784,0,0,0,280.7, 2.6, 6.9,0,0,1024,1024,1024,1024,0,0,0,0,280.1,-2.9,0,58,3.843,3.84,3.841,3.836,0,0,6.786,71.96,86.500489644656,33.136484,6,P-GPS,
16600,2023-06-02 17:24:44,52.2063740067807,0.0867361525833579,33.136484,33.136484,53.364005644656,86.500489644656,30.511812,0,13.49163429,14.455709124,26,5,14.987,89.125161644656,35.761156,0.447388,13.49163429,0,0,0,280.6, 2.8, 5.9,0,0,1024,1024,1024,1024,0,0,0,0,280.1,-5.7,0,58,3.798,3.796,3.8,3.791,0,0,8,72.14,86.500489644656,33.136484,6,P-GPS,
16800,2023-06-02 17:24:44,52.2063745017589,0.0867365388328472,33.136484,33.136484,53.364005644656,86.500489644656,30.839896,0,13.6875660548,14.6558731724,26,5,14.987,89.125161644656,35.761156,0.447388,13.6875660548,0,0,0,279.7, 1.4, 7,0,0,1024,1024,1024,1024,0,0,0,0,280.1,-8.6,0,58,3.798,3.796,3.8,3.791,0,0,8,72.14,86.500489644656,33.136484,6,P-GPS,
17000,2023-06-02 17:24:44,52.2063748991023,0.0867367914525039,33.136484,33.136484,53.364005644656,86.500489644656,31.16798,0,13.8371723588,14.8114834136,26,5,14.987,89.125161644656,35.761156,0.447388,13.8371723588,0,0,0,279.4, 0.1, 6.6,0,0,1024,1024,1024,1024,0,0,0,0,280.1,-11.5,0,58,3.798,3.796,3.8,3.791,0,0,8,72.14,86.500489644656,33.136484,6,P-GPS,
17200,2023-06-02 17:24:44,52.2063752001323,0.0867367900964945,33.464568,33.464568,53.364005644656,86.828573644656,31.16798,0,13.92470517,14.9212931284,26,5,14.987,89.125161644656,35.761156,0.447388,13.92470517,0,0,0,279, 2.6, 5.9,0,0,1024,1024,1024,1024,0,0,0,0,280.1,-14.4,0,58,3.798,3.796,3.8,3.791,0,0,8,72.14,86.828573644656,33.464568,6,P-GPS,
17400,2023-06-02 17:24:44,52.2063753535505,0.0867366966821259,33.464568,33.464568,53.364005644656,86.828573644656,31.16798,0,13.9570542524,14.9810372248,26,5,14.987,89.125161644656,35.761156,0.447388,13.9570542524,0,0,0,278.6, 1.5, 5,0,0,1024,1024,1024,1024,0,0,0,0,280.1,-17.4,0,58,3.798,3.796,3.8,3.791,0,0,8,72.14,86.828573644656,33.464568,6,P-GPS,
17600,2023-06-02 17:24:45,52.206375502244,0.0867365221483399,33.464568,33.464568,53.364005644656,86.828573644656,31.16798,0,13.9774282688,15.0478679356,26,5,15.056,89.125161644656,35.761156,0.447388,13.9774282688,0,0,0,278.2, 1.5, 6.4,0,0,1024,1024,1024,1024,0,0,0,0,280.1,-20.3,0,58,3.795,3.797,3.795,3.793,0,0,8.756,72.14,86.828573644656,33.464568,6,P-GPS,
17800,2023-06-02 17:24:45,52.2063763278316,0.086737217763683,33.464568,33.464568,53.364005644656,86.828573644656,31.496064,0,14.3122707992,15.3868771328,26,5,15.056,89.125161644656,35.761156,0.447388,14.3122707992,0,0,0,279.4, 1.9, 4.8,0,0,1024,1024,1024,1024,0,0,0,0,280.1,-23.2,0,58,3.795,3.797,3.795,3.793,0,0,8.756,72.14,86.828573644656,33.464568,6,P-GPS,
18000,2023-06-02 17:24:45,52.2063771038233,0.0867376490969897,33.464568,33.464568,53.364005644656,86.828573644656,31.16798,0.223694,14.5979991548,15.6859585072,26,5,15.056,89.125161644656,35.761156,0.447388,14.5979991548,0.223694,0,0,280.3, 4.1, 4.6,0,0,1024,1024,1024,1024,0,0,0,0,280.1,-26.1,0,58,3.795,3.797,3.795,3.793,0,0,8.756,72.14,86.828573644656,33.464568,6,P-GPS,
18200,2023-06-02 17:24:45,52.206377803923,0.0867378617982462,33.464568,33.464568,53.364005644656,86.828573644656,31.16798,0.223694,14.8333666164,15.9458010352,26,5,15.056,89.125161644656,35.761156,0.447388,14.8333666164,0.223694,0,0,280, 5.5, 2.1,0,0,1024,1024,1024,1024,0,0,0,0,280.1,-29,0,58,3.795,3.797,3.795,3.793,0,0,8.756,72.14,86.828573644656,33.464568,6,P-GPS,
18400,2023-06-02 17:24:45,52.2063782916001,0.0867379888786933,33.464568,33.464568,53.364005644656,86.828573644656,31.16798,0,14.99507922,16.125984768,26,5,15.056,89.125161644656,35.761156,0.447388,14.99507922,0,0,0,280.3, 5.6, 2.8,0,0,1024,1024,1024,1024,0,0,0,0,280.1,-31.9,0,58,3.795,3.797,3.795,3.793,0,0,8.756,72.14,86.828573644656,33.464568,6,P-GPS,
18600,2023-06-02 17:24:46,52.2063786197958,0.0867381194714842,33.464568,33.464568,53.364005644656,86.828573644656,31.16798,0,15.10990862,16.2492131184,26,5,15.204,89.125161644656,35.761156,0.447388,15.10990862,0,0,0,280.3, 4.3, 3.3,0,0,1024,1024,1024,1024,0,0,0,0,280.1,-34.9,0,57,3.798,3.799,3.798,3.798,0,0,7.568,72.14,86.828573644656,33.464568,6,P-GPS,
18800,2023-06-02 17:24:46,52.2063788129429,0.0867383203111535,33.464568,33.464568,53.364005644656,86.828573644656,31.16798,0,15.1933731896,16.3327761132,26,5,15.204,89.125161644656,35.761156,0.447388,15.1933731896,0,0,0,280.2, 4.2, 3.3,0,0,1024,1024,1024,1024,0,0,0,0,280.1,-37.8,0,57,3.798,3.799,3.798,3.798,0,0,7.568,72.14,86.828573644656,33.464568,6,P-GPS,
19000,2023-06-02 17:24:46,52.2063788151853,0.086738541396602,33.464568,33.464568,53.364005644656,86.828573644656,30.839896,0.3131716,15.2224086236,16.382218372,26,5,15.204,89.125161644656,35.761156,0.447388,15.2224086236,-0.223694,0.223694,0,280.3, 1.9, 5.5,0,0,1024,1024,1024,1024,0,0,0,0,280.1,-40.7,0,57,3.798,3.799,3.798,3.798,0,0,7.568,72.14,86.828573644656,33.464568,6,P-GPS,
19200,2023-06-02 17:24:46,52.2063787044732,0.0867386315118138,33.464568,33.464568,53.364005644656,86.828573644656,30.839896,0.223694,15.20095193,16.4273627304,26,5,15.204,89.125161644656,35.761156,0.447388,15.2224086236,-0.223694,0,0,280.4, 1.9, 7.1,0,0,1024,1024,1024,1024,0,0,0,0,280.1,-43.6,0,57,3.798,3.799,3.798,3.798,0,0,7.568,72.14,86.828573644656,33.464568,6,P-GPS,
19400,2023-06-02 17:24:46,52.2063785300725,0.0867385323448899,33.464568,33.464568,53.364005644656,86.828573644656,30.839896,0.223694,15.1361881484,16.494751184,26,5,15.204,89.125161644656,35.761156,0.447388,15.2224086236,-0.223694,0,0,280.4, 1.7, 8.7,0,0,1024,1024,1024,1024,0,0,0,0,280.1,-46.6,0,57,3.798,3.799,3.798,3.798,0,0,7.568,72.14,86.828573644656,33.464568,6,P-GPS,
19600,2023-06-02 17:24:47,52.2063783672886,0.0867382361686738,33.464568,33.464568,53.364005644656,86.828573644656,31.16798,0,15.0494755472,16.5836947564,26,5,15.201,89.125161644656,35.761156,0.447388,15.2224086236,0,0,0,280.5, 2.3, 8.2,0,0,1024,1024,1024,1024,0,0,0,0,280.1,-49.5,0,57,3.796,3.796,3.796,3.79,0,0,7.454,72.32,86.828573644656,33.464568,6,P-GPS,
19800,2023-06-02 17:24:47,52.2063782263161,0.0867377744265071,33.792652,33.792652,53.364005644656,87.156657644656,31.16798,0,14.9480319744,16.6990490908,26,5,15.201,89.125161644656,35.761156,0.447388,15.2224086236,0,0,0,280.3, 3.4, 8.8,0,0,1024,1024,1024,1024,0,0,0,0,280.1,-52.4,0,57,3.796,3.796,3.796,3.79,0,0,7.454,72.32,87.156657644656,33.792652,6,P-GPS,
20000,2023-06-02 17:24:47,52.2063780470516,0.0867371567327758,33.792652,33.792652,53.364005644656,87.156657644656,30.839896,0,14.81545323,16.8518378096,26,5,15.201,89.125161644656,35.761156,0.447388,15.2224086236,0,0,0,280.5, 4.6, 9.4,0,0,1024,1024,1024,1024,0,0,0,0,280.1,-55.3,0,57,3.796,3.796,3.796,3.79,0,0,7.454,72.32,87.156657644656,33.792652,6,P-GPS,
20200,2023-06-02 17:24:47,52.2063778704621,0.0867365158925234,33.792652,33.792652,53.364005644656,87.156657644656,30.839896,0,14.6811356404,17.0089572372,26,5,15.201,89.125161644656,35.761156,0.447388,15.2224086236,0,0,0,280.5, 5.3, 9.9,0,0,1024,1024,1024,1024,0,0,0,0,280.1,-58.2,0,57,3.796,3.796,3.796,3.79,0,0,7.454,72.32,87.156657644656,33.792652,6,P-GPS,
20400,2023-06-02 17:24:47,52.206377683586,0.0867359192483915,33.792652,33.792652,53.364005644656,87.156657644656,30.839896,0,14.54970519,17.1587603916,26,5,15.201,89.125161644656,35.761156,0.447388,15.2224086236,0,0,0,280.7, 5.4, 10.1,0,0,1024,1024,1024,1024,0,0,0,0,280.1,-61.1,0,57,3.796,3.796,3.796,3.79,0,0,7.454,72.32,87.156657644656,33.792652,6,P-GPS,
20600,2023-06-02 17:24:48,52.2063775207914,0.0867354176437425,33.792652,33.792652,53.364005644656,87.156657644656,30.839896,0,14.4377629292,17.2856632828,26,5,15.194,89.125161644656,35.761156,0.447388,15.2224086236,0,0,0,280.7, 4.7, 9.8,0,0,1024,1024,1024,1024,0,0,0,0,280.1,-64.1,0,57,3.784,3.781,3.779,3.774,0,0,7.293,72.32,87.156657644656,33.792652,6,P-GPS,
20800,2023-06-02 17:24:48,52.2063774322332,0.086734940702388,34.120736,34.120736,53.364005644656,87.484741644656,30.839896,0,14.3516736876,17.3971134176,26,5,15.194,89.125161644656,35.761156,0.447388,15.2224086236,0,0,0,280.3, 5.1, 9.5,0,0,1024,1024,1024,1024,0,0,0,0,280.1,-67,0,57,3.784,3.781,3.779,3.774,0,0,7.293,72.32,87.484741644656,34.120736,6,P-GPS,
21000,2023-06-02 17:24:48,52.206377403729,0.0867345345985447,34.120736,34.120736,53.364005644656,87.484741644656,30.839896,0,14.2929466516,17.4884848116,26,5,15.194,89.125161644656,35.761156,0.447388,15.2224086236,0,0,0,280.4, 5.1, 9.5,0,0,1027,1024,1024,1024,0,0,0,0,280.1,-69.9,0,57,3.784,3.781,3.779,3.774,0,0,7.293,72.32,87.484741644656,34.120736,6,P-GPS,
21200,2023-06-02 17:24:48,52.2063774505599,0.0867341510470947,34.120736,34.120736,53.364005644656,87.484741644656,30.839896,0,14.2603679104,17.575952006,26,5,15.194,89.125161644656,35.761156,0.447388,15.2224086236,0,0,0,280.3, 5, 9,0,0,1027,1024,1024,1024,0,0,0,0,280.1,-72.8,0,57,3.784,3.781,3.779,3.774,0,0,7.293,72.32,87.484741644656,34.120736,6,P-GPS,
21400,2023-06-02 17:24:48,52.2063775492313,0.0867338697555282,34.44882,34.44882,53.364005644656,87.812825644656,30.511812,0.223694,14.2564965192,17.6483929532,26,5,15.194,89.125161644656,35.761156,0.447388,15.2224086236,0.223694,0,0,280.7, 5.5, 7.9,0,0,1039,1024,1024,1024,2,0,0,0,280.1,-75.8,0,57,3.784,3.781,3.779,3.774,0,0,7.293,72.32,87.812825644656,34.44882,6,P-GPS,
21600,2023-06-02 17:24:49,52.2063776144875,0.0867337441604007,34.44882,34.44882,53.364005644656,87.812825644656,30.511812,0.223694,14.2614177792,17.6852367864,26,5,15.144,89.125161644656,35.761156,0.447388,15.2224086236,0,0.223694,0,280.4, 4.6, 7.3,0,0,1037,1024,1024,1024,2,0,0,0,280.1,-78.7,0,57,3.795,3.794,3.796,3.79,0,0,7.766,72.32,87.812825644656,34.44882,6,P-GPS,
21800,2023-06-02 17:24:49,52.2063776143933,0.086733702298853,34.44882,34.44882,53.364005644656,87.812825644656,30.839896,0,14.2563652856,17.6945871804,26,5,15.144,89.125161644656,35.761156,0.447388,15.2224086236,0,0,0,280.2, 3.2, 7.6,0,0,1035,1024,1024,1024,2,0,0,0,280.1,-81.6,0,57,3.795,3.794,3.796,3.79,0,0,7.766,72.32,87.812825644656,34.44882,6,P-GPS,
22000,2023-06-02 17:24:49,52.2063776104996,0.0867336608112564,34.44882,34.44882,53.364005644656,87.812825644656,30.839896,0,14.2501973064,17.7039703828,26,5,15.144,89.125161644656,35.761156,0.447388,15.2224086236,0,0,0,280, 2.9, 7.2,0,0,1026,1024,1024,1024,0,0,0,0,280.1,-84.5,0,57,3.795,3.794,3.796,3.79,0,0,7.766,72.32,87.812825644656,34.44882,6,P-GPS,
22200,2023-06-02 17:24:49,52.2063776301842,0.0867336041209772,34.44882,34.44882,53.364005644656,87.812825644656,30.511812,0,14.2494427132,17.7185373124,26,5,15.144,89.125161644656,35.761156,0.447388,15.2224086236,0,0,0,280.3, 2.4, 7.1,0,0,1024,1024,1024,1024,0,0,0,0,280.1,-87.4,0,57,3.795,3.794,3.796,3.79,0,0,7.766,72.32,87.812825644656,34.44882,6,P-GPS,
22400,2023-06-02 17:24:49,52.2063776890795,0.0867334497840424,34.44882,34.44882,53.364005644656,87.812825644656,30.511812,0.223694,14.2491474376,17.75918692,26,5,15.144,89.125161644656,35.761156,0.447388,15.2224086236,0.223694,0,0,280.3, 3.6, 5.7,0,0,1024,1024,1024,1024,0,0,0,0,280.1,-89.9,0,57,3.795,3.794,3.796,3.79,0,0,7.766,72.32,87.812825644656,34.44882,6,P-GPS,
22600,2023-06-02 17:24:50,52.2063777367757,0.0867332921025175,34.44882,34.44882,53.364005644656,87.812825644656,30.839896,0,14.245079196,17.7984913832,26,5,15.169,89.125161644656,35.761156,0.447388,15.2224086236,0,0,0,280.4, 4.1, 5.7,0,0,1024,1024,1024,1024,0,0,0,0,280.1,-90,0,57,3.791,3.793,3.793,3.788,0,0,8.052,72.32,87.812825644656,34.44882,6,P-GPS,
22800,2023-06-02 17:24:50,52.2063776731922,0.0867331818918058,34.44882,34.44882,53.364005644656,87.812825644656,30.511812,0,14.2123364128,17.832349652,26,5,15.169,89.125161644656,35.761156,0.447388,15.2224086236,0,0,0,280.2, 2.8, 6.5,0,0,1133,1024,1024,1024,17,0,0,0,280.1,-90,0,57,3.791,3.793,3.793,3.788,0,0,8.052,72.32,87.812825644656,34.44882,6,P-GPS,
23000,2023-06-02 17:24:50,52.2063774873762,0.0867330342929795,34.44882,34.44882,53.364005644656,87.812825644656,30.511812,0,14.1373692188,17.9077433552,26,5,15.169,89.125161644656,35.761156,0.447388,15.2224086236,0,0,0,280.4, 2.8, 7.6,0,0,1684,1024,1024,1024,100,0,0,0,280.1,-89.9,0,57,3.791,3.793,3.793,3.788,0,0,8.052,72.32,87.812825644656,34.44882,6,P-GPS,
23200,2023-06-02 17:24:50,52.2063771912699,0.0867326808043975,34.776904,34.776904,53.364005644656,88.140909644656,30.839896,0.3131716,14.0038718392,18.0416016272,26,5,15.169,89.125161644656,35.761156,0.447388,15.2224086236,-0.223694,-0.223694,0,280.2, -3.5, 2.7,0,0,1684,1024,1024,1024,100,0,0,0,280.1,-89.9,0,57,3.791,3.793,3.793,3.788,0,0,8.052,72.32,88.140909644656,34.776904,6,P-GPS,
23400,2023-06-02 17:24:50,52.2063766532024,0.0867316039127645,34.776904,34.776904,53.364005644656,88.140909644656,30.839896,1.006623,13.7100398088,18.3522643668,26,5,15.169,89.125161644656,35.761156,1.006623,15.2224086236,-0.447388,-0.894776,0,279.9, -4.5, 5.3,0,0,1684,1024,1024,1024,100,0,0,0,280.1,-89.9,0,57,3.791,3.793,3.793,3.788,0,0,8.052,72.32,88.140909644656,34.776904,6,P-GPS,
23600,2023-06-02 17:24:51,52.2063759880556,0.086729690321399,34.776904,34.776904,53.364005644656,88.140909644656,30.839896,1.7000744,13.2810699788,18.844160708,26,5,15.162,89.125161644656,35.761156,1.7000744,15.2224086236,-0.671082,-1.565858,0,279.8, -4.5, 7.2,0,0,1684,1024,1024,1024,100,0,0,0,280.1,-89.9,0,57,3.784,3.786,3.788,3.782,0,0,7.522,72.5,88.140909644656,34.776904,6,P-GPS,
23800,2023-06-02 17:24:51,52.2063754374633,0.08672697823971,34.776904,34.776904,53.364005644656,88.140909644656,30.839896,2.2816788,12.8061683888,19.482940256,26,5,15.162,89.125161644656,35.761156,2.2816788,15.2224086236,-0.447388,-2.23694,0,283.4, -4.6, 8,0,0,1684,1024,1024,1024,100,0,0,0,280.1,-89.9,0,57,3.784,3.786,3.788,3.782,0,0,7.522,72.5,88.140909644656,34.776904,6,P-GPS,
24000,2023-06-02 17:24:51,52.2063749705802,0.0867234860402267,34.776904,34.776904,53.364005644656,88.140909644656,30.839896,2.684328,12.296096194,20.2821200716,26,5,15.162,89.125161644656,35.761156,2.684328,15.2224086236,-0.223694,-2.684328,0,283.6, -3.8, 9,0,0,1684,1024,1024,1024,100,0,0,0,280.1,-90,0,57,3.784,3.786,3.788,3.782,0,0,7.522,72.5,88.140909644656,34.776904,6,P-GPS,
24200,2023-06-02 17:24:51,52.2063746854974,0.0867194022921313,34.776904,34.776904,53.364005644656,88.140909644656,30.511812,3.131716,11.8286421108,21.2010833556,26,5,15.162,89.125161644656,35.761156,3.131716,15.2224086236,0,-3.131716,0,283.9, -3.2, 8.3,0,0,1632,1044,1024,1024,92,3,0,0,280.1,-89.9,0,57,3.784,3.786,3.788,3.782,0,0,7.522,72.5,88.140909644656,34.776904,6,P-GPS,
24400,2023-06-02 17:24:51,52.206374543077,0.0867149192848947,34.776904,34.776904,53.364005644656,88.140909644656,30.511812,3.35541,11.4382877676,22.2047907368,26,5,15.162,89.125161644656,35.761156,3.35541,15.2224086236,0,-3.35541,0,283.7, -4.8, 7.9,0,0,1343,1606,1024,1024,48,88,0,0,280.1,-89.9,0,57,3.784,3.786,3.788,3.782,0,0,7.522,72.5,88.140909644656,34.776904,6,P-GPS,
24600,2023-06-02 17:24:52,52.2063745113881,0.0867098982424887,34.776904,34.776904,53.364005644656,88.140909644656,30.511812,3.802798,11.1385830336,23.3274941848,26,5,15.162,89.125161644656,35.761156,3.802798,15.2224086236,0,-3.802798,0,283.8, -4, 12.7,0,0,1362,1658,1024,1024,51,96,0,0,280.1,-90,0,57,3.784,3.786,3.788,3.782,0,0,7.522,72.5,88.140909644656,34.776904,6,P-GPS,
24800,2023-06-02 17:24:52,52.2063748291707,0.0867045395900038,34.776904,34.776904,53.364005644656,88.140909644656,30.839896,3.8699062,11.0649937924,24.5312015724,26,5,15.119,89.125161644656,35.761156,3.8699062,15.2224086236,0.671082,-3.802798,0,283.5, -2.2, 24.8,0,0,1389,1652,1024,1024,55,95,0,0,280.1,-89.9,0,57,3.787,3.786,3.787,3.782,0,0,8.026,72.5,88.140909644656,34.776904,6,P-GPS,
25000,2023-06-02 17:24:52,52.206376196561,0.0866992736322446,34.776904,34.776904,53.364005644656,88.140909644656,30.511812,4.4067718,11.5048560112,25.8099417708,26,5,15.119,89.125161644656,35.761156,4.4067718,15.2224086236,2.23694,-3.802798,0,283.1, -4.1, 30.2,0,0,1467,1587,1024,1024,67,85,0,0,280.1,-89.9,0,57,3.787,3.786,3.787,3.782,0,0,8.026,72.5,88.140909644656,34.776904,6,P-GPS,
25200,2023-06-02 17:24:52,52.2063790031773,0.0866941330003442,34.776904,34.776904,53.364005644656,88.140909644656,30.511812,5.5476112,12.5846788804,27.3493118988,26,5,15.119,89.125161644656,35.761156,5.5476112,15.2224086236,4.026492,-3.802798,0,283.1, -4.6, 30.4,0,0,1565,1353,1024,1024,82,50,0,0,280.1,-89.9,0,57,3.787,3.786,3.787,3.782,0,0,8.026,72.5,88.140909644656,34.776904,6,P-GPS,
25400,2023-06-02 17:24:52,52.2063832462224,0.0866890603142507,34.776904,34.776904,53.364005644656,88.140909644656,30.511812,6.7555588,14.266568698,29.26837364,26,5,15.119,89.125161644656,35.761156,6.7555588,15.2224086236,5.59235,-3.802798,0,284.2, -1.9, 17.4,0,0,1600,1265,1024,1024,87,37,0,0,280.1,-90,0,57,3.787,3.786,3.787,3.782,0,0,8.026,72.5,88.140909644656,34.776904,6,P-GPS,
25600,2023-06-02 17:24:53,52.2063881189495,0.0866840464057472,35.104988,35.104988,53.364005644656,88.468993644656,27.559056,6.7555588,16.2235569496,31.3701453608,26,5,15.119,89.125161644656,35.761156,6.7555588,16.2235569496,5.59235,-3.802798,-0.223694,284.1, -2.7, 6,0,0,1655,1024,1024,1024,96,0,0,0,280.1,-89.9,0,57,3.787,3.786,3.787,3.782,0,0,8.026,72.5,88.468993644656,35.104988,6,P-GPS,
25800,2023-06-02 17:24:53,52.2063928064816,0.0866788384157786,35.433072,35.4002636,53.396814044656,88.797077644656,27.88714,6.71082,18.1583667228,33.439305532,26,5,15.012,89.125161644656,35.761156,6.7555588,18.1583667228,5.368656,-4.026492,0,284.1, -2.3, 6.5,0,0,1190,1024,1024,1024,25,0,0,0,280.1,-90,0,57,3.781,3.788,3.786,3.789,0,0,8.838,72.5,88.797077644656,35.433072,6,P-GPS,
26000,2023-06-02 17:24:53,52.206397285624,0.086673383331542,35.433072,35.3346468,53.462430844656,88.797077644656,30.839896,6.822667,20.0630583848,35.478347592,26,5,15.012,89.125161644656,35.761156,6.822667,20.0630583848,5.144962,-4.47388,0,284.3, -2.4, 5.7,0,0,1056,1024,1024,1024,5,0,0,0,280.1,-90,0,57,3.781,3.788,3.786,3.789,0,0,8.838,72.5,88.797077644656,35.433072,6,P-GPS,
26200,2023-06-02 17:24:53,52.2064015615853,0.0866676242583086,35.433072,35.26903,53.528047644656,88.797077644656,30.839896,6.6437118,21.9436030644,37.501313536,26,5,15.012,89.125161644656,35.761156,6.822667,21.9436030644,4.921268,-4.47388,0,284.8, 3.5, 5.1,0,0,1024,1024,1024,1024,0,0,0,0,280.1,-90,0,57,3.781,3.788,3.786,3.789,0,0,8.838,72.5,88.797077644656,35.433072,6,P-GPS,
26400,2023-06-02 17:24:53,52.2064055475699,0.0866622232239772,35.104988,34.9081376,53.560856044656,88.468993644656,30.839896,5.8607828,23.7202435412,39.39140546,26,5,15.012,89.125161644656,35.761156,6.822667,23.7202435412,4.250186,-4.026492,0,282, 18.4, -11.4,0,0,1024,1024,1024,1024,0,0,0,0,280.1,-90,0,57,3.781,3.788,3.786,3.789,0,0,8.838,72.5,88.468993644656,35.104988,6,P-GPS,
26600,2023-06-02 17:24:54,52.2064084142295,0.0866581632235206,35.104988,34.8753292,53.593664444656,88.468993644656,30.183728,3.3330406,25.0227370212,40.776248024,26,5,15.012,89.125161644656,35.761156,6.822667,25.0227370212,2.23694,-2.460634,0,281.3, 29.8, -11.9,0,0,1024,1024,1024,1024,0,0,0,0,280.1,-89.9,0,57,3.781,3.788,3.786,3.789,0,0,8.838,72.5,88.468993644656,35.104988,6,P-GPS,
26800,2023-06-02 17:24:54,52.2064098462035,0.0866565234167418,35.104988,34.8425208,53.626472844656,88.468993644656,29.855644,1.11847,25.6439968836,41.414699488,26,5,15.132,89.125161644656,35.761156,6.822667,25.6439968836,0.671082,-0.894776,0,285.7, 13.3, -1.8,0,0,1024,1024,1024,1024,0,0,0,0,280.1,-89.9,0,57,3.773,3.761,3.756,3.758,0,0,8.239,72.68,88.468993644656,35.104988,6,P-GPS,
27000,2023-06-02 17:24:54,52.2064104836107,0.086656391534344,35.104988,34.8425208,53.626472844656,88.468993644656,29.855644,0.3131716,25.8707685444,41.648951464,26,5,15.132,89.125161644656,35.761156,6.822667,25.8707685444,0.223694,-0.223694,0,284.7, 8.8, 2.9,0,0,1024,1024,1024,1024,0,0,0,0,280.1,-89.9,0,57,3.773,3.761,3.756,3.758,0,0,8.239,72.68,88.468993644656,35.104988,6,P-GPS,
27200,2023-06-02 17:24:54,52.2064109125038,0.0866571077938816,34.776904,34.5144368,53.626472844656,88.140909644656,29.855644,0.223694,25.9572842952,41.873032836,26,5,15.132,89.125161644656,35.761156,6.822667,25.9572842952,0,0.223694,0,284.4, 2.9, 3.9,0,0,1024,1024,1024,1024,0,0,0,0,280.1,-89.9,0,57,3.773,3.761,3.756,3.758,0,0,8.239,72.68,88.140909644656,34.776904,6,P-GPS,
27400,2023-06-02 17:24:54,52.2064112232809,0.0866581113736357,34.776904,34.5144368,53.626472844656,88.140909644656,29.52756,0.447388,25.982284296,42.12434518,26,5,15.132,89.125161644656,35.761156,6.822667,25.982284296,0,0.447388,0,284.3, -2.4, 3,0,0,1024,1024,1024,1024,0,0,0,0,280.1,-90,0,57,3.773,3.761,3.756,3.758,0,0,8.239,72.68,88.140909644656,34.776904,6,P-GPS,
27600,2023-06-02 17:24:55,52.2064114887219,0.0866588947661228,34.776904,34.5144368,53.626472844656,88.140909644656,29.855644,0,26.0112541132,42.32447642,26,5,15.132,89.125161644656,35.761156,6.822667,26.0112541132,0,0,0,283.8, -4.1, 4.2,0,0,1024,1024,1024,1024,0,0,0,0,280.1,-90,0,57,3.773,3.761,3.756,3.758,0,0,8.239,72.68,88.140909644656,34.776904,6,P-GPS,
27800,2023-06-02 17:24:55,52.2064117089383,0.0866592241435997,34.776904,34.5144368,53.626472844656,88.140909644656,29.855644,0,26.0610900728,42.433400308,26,5,15.069,89.125161644656,35.761156,6.822667,26.0610900728,0,0,0,284.7, 1.8, 4.3,0,0,1024,1024,1024,1024,0,0,0,0,280.1,-90,0,57,3.777,3.777,3.782,3.774,0,0,8.865,72.68,88.140909644656,34.776904,6,P-GPS,
28000,2023-06-02 17:24:55,52.2064117868628,0.0866595541396685,34.776904,34.5144368,53.626472844656,88.140909644656,29.855644,0,26.0624352172,42.512468552,26,5,15.069,89.125161644656,35.761156,6.822667,26.0624352172,0,0,0,284.3, -1.2, 4.5,0,0,1024,1024,1024,1024,0,0,0,0,280.1,-89.9,0,57,3.777,3.777,3.782,3.774,0,0,8.865,72.68,88.140909644656,34.776904,6,P-GPS,
28200,2023-06-02 17:24:55,52.20641172734,0.0866596462574404,34.44882,34.1863528,53.626472844656,87.812825644656,30.183728,0,26.0350073948,42.54265228,26,5,15.069,89.125161644656,35.761156,6.822667,26.0624352172,0,0,0,284.3, -0.1, 5.8,0,0,1024,1024,1024,1024,0,0,0,0,280.1,-90,0,57,3.777,3.777,3.782,3.774,0,0,8.865,72.68,87.812825644656,34.44882,6,P-GPS,
28400,2023-06-02 17:24:55,52.2064115880208,0.0866595876939111,34.44882,34.1863528,53.626472844656,87.812825644656,29.855644,0,25.9917331152,42.59514572,26,5,15.069,89.125161644656,35.761156,6.822667,26.0624352172,0,0,0,285.1, 0.5, 7,0,0,1024,1024,1024,1024,0,0,0,0,280.1,-90,0,57,3.777,3.777,3.782,3.774,0,0,8.865,72.68,87.812825644656,34.44882,6,P-GPS,
28600,2023-06-02 17:24:56,52.2064114174967,0.0866596075098216,34.120736,33.8582688,53.626472844656,87.484741644656,29.855644,0,25.93175936,42.65748168,26,5,15.069,89.125161644656,35.761156,6.822667,26.0624352172,0,0,0,284.7, 0.7, 7.1,0,0,1024,1024,1024,1024,0,0,0,0,280.1,-89.9,0,57,3.777,3.777,3.782,3.774,0,0,8.865,72.68,87.484741644656,34.120736,6,P-GPS,
28800,2023-06-02 17:24:56,52.2064112758345,0.0866597311058837,34.120736,33.8582688,53.626472844656,87.484741644656,29.855644,0,25.8737213004,42.715880632,26,5,15.111,89.125161644656,35.761156,6.822667,26.0624352172,0,0,0,284.2, -2.1, 6.7,0,0,1024,1024,1024,1024,0,0,0,0,280.1,-89.9,0,57,3.778,3.78,3.78,3.774,0,0,7.932,72.68,87.484741644656,34.120736,6,P-GPS,
29000,2023-06-02 17:24:56,52.2064111939692,0.0866596073735217,34.120736,33.8582688,53.626472844656,87.484741644656,29.855644,0,25.8551845544,42.756563048,26,5,15.111,89.125161644656,35.761156,6.822667,26.0624352172,0,0,0,284.3, -1.7, 7,0,1,1024,1024,1024,1024,0,0,0,0,280.1,-90,0,57,3.778,3.78,3.78,3.774,0,0,7.932,72.68,87.484741644656,34.120736,6,P-GPS,
29200,2023-06-02 17:24:56,52.2064111498283,0.086659154445416,33.792652,33.5301848,53.626472844656,87.156657644656,29.855644,0.223694,25.8751320616,42.85925334,27,5,15.111,89.125161644656,35.761156,6.822667,26.0624352172,0,-0.223694,0,284.4, 0.9, 6.7,0,1,1024,1024,1024,1024,0,0,0,0,280.1,-90,0,57,3.778,3.78,3.78,3.774,0,0,7.932,72.68,87.156657644656,33.792652,6,P-GPS,
29400,2023-06-02 17:24:56,52.206411117514,0.086658623260191,33.792652,33.5301848,53.626472844656,87.156657644656,29.855644,0.223694,25.905676682,42.978675916,27,5,15.111,89.125161644656,35.761156,6.822667,26.0624352172,0,-0.223694,0,285, 3.6, 7.5,0,1,1024,1024,1024,1024,0,0,0,0,280.1,-90,0,57,3.778,3.78,3.78,3.774,0,0,7.932,72.68,87.156657644656,33.792652,6,P-GPS,
29600,2023-06-02 17:24:57,52.2064110277757,0.0866581968301863,33.792652,33.5301848,53.626472844656,87.156657644656,29.855644,0,25.9088262884,43.079397704,27,5,15.111,89.125161644656,35.761156,6.822667,26.0624352172,0,0,0,284.7, 4, 8.4,0,1,1024,1024,1024,1024,0,0,0,0,280.1,-89.9,0,57,3.778,3.78,3.78,3.774,0,0,7.932,72.68,87.156657644656,33.792652,6,P-GPS,
29800,2023-06-02 17:24:57,52.2064108918833,0.0866579677554659,33.792652,33.5301848,53.626472844656,87.156657644656,29.855644,0,25.8807751064,43.150591932,27,5,15.102,89.125161644656,35.761156,6.822667,26.0624352172,0,0,0,284.7, 2.6, 8.8,0,1,1024,1024,1024,1024,0,0,0,0,280.1,-89.9,0,57,3.778,3.782,3.778,3.776,0,0,7.903,72.86,87.156657644656,33.792652,6,P-GPS,
30000,2023-06-02 17:24:57,52.206410789783,0.0866577979956717,33.792652,33.5301848,53.626472844656,87.156657644656,29.855644,0,25.8596464968,43.20374154,27,5,15.102,89.125161644656,35.761156,6.822667,26.0624352172,0,0,0,284.8, 2.3, 8.4,0,1,1024,1024,1024,1024,0,0,0,0,280.1,-90,0,57,3.778,3.782,3.778,3.776,0,0,7.903,72.86,87.156657644656,33.792652,6,P-GPS,
30200,2023-06-02 17:24:57,52.206410712244,0.0866576552547141,33.792652,33.5301848,53.626472844656,87.156657644656,29.855644,0,25.8447842916,43.24639246,27,5,15.102,89.125161644656,35.761156,6.822667,26.0624352172,0,0,0,284.3, 1.9, 8.7,0,1,1024,1024,1024,1024,0,0,0,0,280.1,-89.9,0,57,3.778,3.782,3.778,3.776,0,0,7.903,72.86,87.156657644656,33.792652,6,P-GPS,
30400,2023-06-02 17:24:57,52.2064107163561,0.0866574126164049,33.792652,33.5301848,53.626472844656,87.156657644656,29.855644,0,25.8658472844,43.300854404,27,5,15.102,89.125161644656,35.761156,6.822667,26.0624352172,0,0,0,284.8, 2.8, 7.4,0,1,1024,1024,1024,1024,0,0,0,0,280.1,-89.9,0,57,3.778,3.782,3.778,3.776,0,0,7.903,72.86,87.156657644656,33.792652,6,P-GPS,
30600,2023-06-02 17:24:58,52.2064108246845,0.0866571968466529,33.792652,33.5301848,53.626472844656,87.156657644656,29.855644,0.223694,25.9202108032,43.363190364,27,5,15.102,89.125161644656,35.761156,6.822667,26.0624352172,0.223694,0,0,284.4, 3.2, 7.6,0,1,1024,1024,1024,1024,0,0,0,0,280.1,-90,0,57,3.778,3.782,3.778,3.776,0,0,7.903,72.86,87.156657644656,33.792652,6,P-GPS,
30800,2023-06-02 17:24:58,52.2064110136703,0.0866569924876501,33.792652,33.5301848,53.626472844656,87.156657644656,29.855644,0.223694,26.0010507008,43.445867532,27,5,15.078,89.125161644656,35.761156,6.822667,26.0624352172,0.223694,0,0,284.9, 5, 5.1,0,1,1024,1024,1024,1024,0,0,0,0,280.1,-89.9,0,57,3.775,3.778,3.779,3.775,0,0,8.295,72.86,87.156657644656,33.792652,6,P-GPS,
31000,2023-06-02 17:24:58,52.2064112198498,0.0866569084150678,33.792652,33.5301848,53.626472844656,87.156657644656,30.183728,0.223694,26.0779535904,43.523295356,27,5,15.078,89.125161644656,35.761156,6.822667,26.0779535904,0.223694,0,0,284.7, 4.4, 4.3,0,1,1024,1024,1024,1024,0,0,0,0,280.1,-90,0,57,3.775,3.778,3.779,3.775,0,0,8.295,72.86,87.156657644656,33.792652,6,P-GPS,
31200,2023-06-02 17:24:58,52.2064112877768,0.086656799493963,33.792652,33.5301848,53.626472844656,87.156657644656,30.183728,0,26.109908972,43.55807226,27,5,15.078,89.125161644656,35.761156,6.822667,26.109908972,0,0,0,284.4, 3.3, 5.6,0,1,1024,1024,1024,1024,0,0,0,0,280.1,-90,0,57,3.775,3.778,3.779,3.775,0,0,8.295,72.86,87.156657644656,33.792652,6,P-GPS,
31400,2023-06-02 17:24:58,52.2064113406602,0.0866566290911128,33.792652,33.5301848,53.626472844656,87.156657644656,29.855644,0,26.1417987368,43.60072318,27,5,15.078,89.125161644656,35.761156,6.822667,26.1417987368,0,0,0,284.5, 4.9, 5.7,0,1,1024,1024,1024,1024,0,0,0,0,280.1,-90,0,57,3.775,3.778,3.779,3.775,0,0,8.295,72.86,87.156657644656,33.792652,6,P-GPS,
31600,2023-06-02 17:24:59,52.2064113629641,0.086656631257932,33.792652,33.5301848,53.626472844656,87.156657644656,30.183728,0,26.1492134352,43.60892528,27,5,15.078,89.125161644656,35.761156,6.822667,26.1492134352,0,0,0,285.1, 5.2, 4,0,1,1024,1024,1024,1024,0,0,0,0,280.1,-89.9,0,57,3.775,3.778,3.779,3.775,0,0,8.295,72.86,87.156657644656,33.792652,6,P-GPS,
31800,2023-06-02 17:24:59,52.206411207128,0.0866567752290836,33.792652,33.5301848,53.626472844656,87.156657644656,29.855644,0,26.0845152704,43.674213996,27,5,15.086,89.125161644656,35.761156,6.822667,26.1492134352,0,0,0,284.5, 2.9, 6.1,0,1,1024,1024,1024,1024,0,0,0,0,280.1,-89.9,0,57,3.771,3.768,3.773,3.768,0,0,8.089,72.86,87.156657644656,33.792652,6,P-GPS,
32000,2023-06-02 17:24:59,52.2064110607497,0.086656891664158,33.792652,33.5301848,53.626472844656,87.156657644656,29.855644,0,26.0252961084,43.733925284,27,5,15.086,89.125161644656,35.761156,6.822667,26.1492134352,0,0,0,284.8, 2.8, 6.5,0,1,1024,1024,1024,1024,0,0,0,0,280.1,-90,0,57,3.771,3.768,3.773,3.768,0,0,8.089,72.86,87.156657644656,33.792652,6,P-GPS,
32200,2023-06-02 17:24:59,52.2064109140287,0.0866569615650442,33.792652,33.5301848,53.626472844656,87.156657644656,29.855644,0,25.9697514872,43.78937148,27,5,15.086,89.125161644656,35.761156,6.822667,26.1492134352,0,0,0,284.7, 2.7, 6.8,0,1,1024,1024,1024,1024,0,0,0,0,280.1,-89.9,0,57,3.771,3.768,3.773,3.768,0,0,8.089,72.86,87.156657644656,33.792652,6,P-GPS,
32400,2023-06-02 17:24:59,52.2064108006587,0.086657000983678,33.792652,33.5301848,53.626472844656,87.156657644656,29.855644,0,25.9280192024,43.831694316,27,5,15.086,89.125161644656,35.761156,6.822667,26.1492134352,0,0,0,284.7, 2.9, 7.2,0,1,1024,1024,1024,1024,0,0,0,0,280.1,-90,0,57,3.771,3.768,3.773,3.768,0,0,8.089,72.86,87.156657644656,33.792652,6,P-GPS,
32600,2023-06-02 17:25:00,52.2064106999805,0.0866570155363148,33.792652,33.5301848,53.626472844656,87.156657644656,29.855644,0,25.8926517472,43.868767808,26,5,15.086,89.125161644656,35.761156,6.822667,26.1492134352,0,0,0,284.4, 2, 7.7,0,1,1024,1024,1024,1024,0,0,0,0,280.1,-90,0,57,3.771,3.768,3.773,3.768,0,0,8.089,72.86,87.156657644656,33.792652,6,P-GPS,
32800,2023-06-02 17:25:00,52.2064106555055,0.08665701030799,33.792652,33.5301848,53.626472844656,87.156657644656,29.855644,0,25.8779863924,43.884843924,26,5,15.077,89.125161644656,35.761156,6.822667,26.1492134352,0,0,0,284.8, 3.5, 7.3,0,1,1024,1024,1024,1024,0,0,0,0,280.1,-90,0,57,3.774,3.777,3.78,3.774,0,0,8.049,72.86,87.156657644656,33.792652,6,P-GPS,
33000,2023-06-02 17:25:00,52.2064106622562,0.0866570492303523,33.792652,33.5301848,53.626472844656,87.156657644656,29.855644,0,25.8771005656,43.894030276,26,5,15.077,89.125161644656,35.761156,6.822667,26.1492134352,0,0,0,284.8, 2.8, 7,0,1,1024,1024,1024,1024,0,0,0,0,280.1,-90,0,57,3.774,3.777,3.78,3.774,0,0,8.049,72.86,87.156657644656,33.792652,6,P-GPS,
33200,2023-06-02 17:25:00,52.2064106593263,0.0866570972498601,33.792652,33.5301848,53.626472844656,87.156657644656,29.855644,0,25.8721464972,43.904857048,26,5,15.077,89.125161644656,35.761156,6.822667,26.1492134352,0,0,0,284.5, 2.9, 6.7,0,1,1024,1024,1024,1024,0,0,0,0,280.1,-89.9,0,57,3.774,3.777,3.78,3.774,0,0,8.049,72.86,87.156657644656,33.792652,6,P-GPS,
33400,2023-06-02 17:25:00,52.206410664929,0.0866571586547183,33.792652,33.5301848,53.626472844656,87.156657644656,29.855644,0,25.8690296992,43.918636576,26,5,15.077,89.125161644656,35.761156,6.822667,26.1492134352,0,0,0,284.5, 1.9, 6.1,0,1,1024,1024,1024,1024,0,0,0,0,280.1,-90,0,57,3.774,3.777,3.78,3.774,0,0,8.049,72.86,87.156657644656,33.792652,6,P-GPS,
33600,2023-06-02 17:25:01,52.2064106374464,0.0866571677483689,33.792652,33.5301848,53.626472844656,87.156657644656,29.855644,0,25.8589575204,43.92880718,26,5,15.077,89.125161644656,35.761156,6.822667,26.1492134352,0,0,0,284.5, 2.2, 7,0,1,1024,1024,1024,1024,0,0,0,0,280.1,-90,0,57,3.774,3.777,3.78,3.774,0,0,8.049,72.86,87.156657644656,33.792652,6,P-GPS,
33800,2023-06-02 17:25:01,52.2064105755549,0.0866571130431757,33.792652,33.5301848,53.626472844656,87.156657644656,29.855644,0,25.8424220868,43.954725816,26,5,15.092,89.125161644656,35.761156,6.822667,26.1492134352,0,0,0,284.8, 3.3, 7.2,0,1,1024,1024,1024,1024,0,0,0,0,280.1,-89.9,0,57,3.776,3.779,3.775,3.774,0,0,7.819,73.04,87.156657644656,33.792652,6,P-GPS,
34000,2023-06-02 17:25:01,52.2064104640524,0.0866571118094867,33.792652,33.5301848,53.626472844656,87.156657644656,29.855644,0,25.8046596184,43.995408232,26,5,15.092,89.125161644656,35.761156,6.822667,26.1492134352,0,0,0,284.9, 2.9, 7.4,0,1,1024,1024,1024,1024,0,0,0,0,280.1,-90,0,57,3.776,3.779,3.775,3.774,0,0,7.819,73.04,87.156657644656,33.792652,6,P-GPS,
