time(millisecond),datetime(utc),latitude,longitude,height_above_takeoff(feet),height_above_ground_at_drone_location(feet),ground_elevation_at_drone_location(feet),altitude_above_seaLevel(feet),height_sonar(feet),speed(mph),distance(feet),mileage(feet),satellites,gpslevel,voltage(v),max_altitude(feet),max_ascent(feet),max_speed(mph),max_distance(feet), xSpeed(mph), ySpeed(mph), zSpeed(mph), compass_heading(degrees), pitch(degrees), roll(degrees),isPhoto,isVideo,rc_elevator,rc_aileron,rc_throttle,rc_rudder,rc_elevator(percent),rc_aileron(percent),rc_throttle(percent),rc_rudder(percent),gimbal_heading(degrees),gimbal_pitch(degrees),gimbal_roll(degrees),battery_percent,voltageCell1,voltageCell2,voltageCell3,voltageCell4,voltageCell5,voltageCell6,current(A),battery_temperature(f),altitude(feet),ascent(feet),flycStateRaw,flycState,message
0,2023-06-05 17:49:35,52.2063947302235,0.0867211498583834,0,0,53.875204151828,53.875204151828,0.328084,0,0,0,21,5,0,53.875204151828,0,0,0,0,0,0,120.4, 3.3, 1.2,0,0,1024,1024,1024,1024,0,0,0,0,120.5,0,0,96,4.258,4.261,4.257,4.25,0,0,0,73.22,53.875204151828,0,6,P-GPS,"Aircraft not in flight. Vision systems and obstacle avoidance disabled (Code: 180059)"
200,2023-06-05 17:49:35,52.206394352378,0.0867209628960383,0,0,53.875204151828,53.875204151828,0.328084,0,0.14405512272,0.14405512272,21,5,0,53.875204151828,0,0,0.14405512272,0,0,0,120.4, 3.3, 1.2,0,0,1024,1024,1024,1024,0,0,0,0,120.5,0,0,96,4.258,4.261,4.257,4.25,0,0,0,73.22,53.875204151828,0,41,Motors_Started,
400,2023-06-05 17:49:35,52.2063939056566,0.0867207652998634,0,0,53.875204151828,53.875204151828,0.328084,0,0.312888461456,0.312922910276,21,5,0,53.875204151828,0,0,0.312888461456,0,0,0,120.4, 3.3, 1.2,0,0,1024,1024,1024,1024,0,0,0,0,120.5,0,0,96,4.258,4.261,4.257,4.25,0,0,0,73.22,53.875204151828,0,41,Motors_Started,
600,2023-06-05 17:49:35,52.2063934259098,0.0867205474406032,0,0.032808399999993,53.842395751828,53.875204151828,0,0,0.49457350664,0.49460959588,21,5,0,53.875204151828,0,0,0.49457350664,0,0,0,120.4, 3.3, 1.2,0,0,1024,1024,1024,1024,0,0,0,0,120.5,0,0,96,4.258,4.261,4.257,4.25,0,0,0,73.22,53.875204151828,0,41,Motors_Started,
800,2023-06-05 17:49:35,52.2063929251712,0.0867203140888,0,0.032808399999993,53.842395751828,53.875204151828,0,0,0.68457023188,0.68460632112,22,5,0,53.875204151828,0,0,0.68457023188,0,0,0,120.4, 3.3, 1.2,0,0,1024,1024,1024,1024,0,0,0,0,120.5,0,0,96,4.258,4.261,4.257,4.25,0,0,0,73.22,53.875204151828,0,41,Motors_Started,"Setting new Return-To-Home altitude to 26m (85 ft). Data Recorder File Index is 30. Setting new Maximum Flight Altitude to 120m (394 ft)"
1000,2023-06-05 17:49:36,52.2063923945069,0.0867200866626801,0,0.032808399999993,53.842395751828,53.875204151828,0,0,0.88471787608,0.88478677372,22,5,17.146,53.875204151828,0,0,0.88471787608,0,0,0,120.4, 3.3, 1.2,0,0,1024,1024,1024,1024,0,0,0,0,120.5,0,0,96,4.258,4.261,4.257,4.25,0,0,1.749,73.22,53.875204151828,0,41,Motors_Started,
1200,2023-06-05 17:49:36,52.2063918785438,0.0867198480956379,0,0.032808399999993,53.842395751828,53.875204151828,0,0,1.08037733116,1.0804462288,22,5,17.146,53.875204151828,0,0,1.08037733116,0,0,0,120.4, 3.3, 1.2,0,0,1024,1024,1024,1024,0,0,0,0,120.5,0,0,96,4.258,4.261,4.257,4.25,0,0,1.749,73.22,53.875204151828,0,41,Motors_Started,
1400,2023-06-05 17:49:36,52.2063913753746,0.0867196179754001,0,0.032808399999993,53.842395751828,53.875204151828,0,0,1.27103350524,1.27110240288,21,5,17.146,53.875204151828,0,0,1.27103350524,0,0,0,120.5, 3.3, 1.2,0,0,1024,1024,1024,1024,0,0,0,0,120.5,0,0,96,4.258,4.261,4.257,4.25,0,0,1.749,73.22,53.875204151828,0,41,Motors_Started,
1600,2023-06-05 17:49:36,52.2063909395908,0.0867193907273007,0,0.032808399999993,53.842395751828,53.875204151828,0,0,1.43785109588,1.43801841872,21,5,17.146,53.875204151828,0,0,1.43785109588,0,0,0,120.9, 3.3, 1.2,0,0,1024,1024,1024,1024,0,0,0,0,120.5,0,0,96,4.258,4.261,4.257,4.25,0,0,1.749,73.22,53.875204151828,0,11,AutoTakeoff,
1800,2023-06-05 17:49:36,52.2063905293157,0.0867191959525612,0,0.032808399999993,53.842395751828,53.875204151828,0,0,1.59374348932,1.593914093,21,5,17.146,53.875204151828,0,0,1.59374348932,0,0,0,121.3, 3.2, 1.2,0,0,1024,1024,1024,1024,0,0,0,0,120.5,0,0,96,4.258,4.261,4.257,4.25,0,0,1.749,73.22,53.875204151828,0,11,AutoTakeoff,
2000,2023-06-05 17:49:37,52.2063901767194,0.0867190308390022,0,0.065616799999999,53.809587351828,53.875204151828,0,0,1.72757879544,1.72774939912,21,5,16.941,53.875204151828,0,0,1.72757879544,0,0,0,121.1, 1.8, 1.1,0,0,1024,1024,1024,1024,0,0,0,0,120.6,0,0,96,4.267,4.27,4.268,4.27,0,0,4.481,73.22,53.875204151828,0,11,AutoTakeoff,
2200,2023-06-05 17:49:37,52.2063898612892,0.0867187982191586,0,0.065616799999999,53.809587351828,53.875204151828,0,0,1.852608327,1.85404205408,22,5,16.941,53.875204151828,0,0,1.852608327,0,0,-0.671082,121.6, -1.9, 0.3,0,0,1024,1024,1024,1024,0,0,0,0,120.6,0,0,96,4.267,4.27,4.268,4.27,0,0,4.481,73.22,53.875204151828,0,11,AutoTakeoff,
2400,2023-06-05 17:49:37,52.2063895338524,0.0867187613715159,0.328084,0.3937008,53.809587351828,54.203288151828,0.328084,0,1.96967197904,1.97378943324,22,5,16.941,54.203288151828,0.328084,0,1.96967197904,0,0,-1.11847,121.4, 0.8, 0.1,0,0,1024,1024,1024,1024,0,0,0,0,120.6,0,0,96,4.267,4.27,4.268,4.27,0,0,4.481,73.22,54.203288151828,0.328084,11,AutoTakeoff,
2600,2023-06-05 17:49:37,52.2063892394282,0.0867187445779482,0.656168,0.7217848,53.809587351828,54.531372151828,0.656168,0,2.07424219236,2.08127631332,22,5,16.941,54.531372151828,0.656168,0,2.07424219236,0,0,-0.894776,121.4, 0.9, 0.2,0,0,1024,1024,1024,1024,0,0,0,0,120.7,0,0,96,4.267,4.27,4.268,4.27,0,0,4.481,73.22,54.531372151828,0.656168,11,AutoTakeoff,
2800,2023-06-05 17:49:37,52.2063889582394,0.0867186782603606,0.984252,1.0498688,53.809587351828,54.859456151828,0.984252,0,2.17720479408,2.18493445312,22,5,16.941,54.859456151828,0.984252,0,2.17720479408,0,0,-0.894776,121.4, 0.3, -0.5,0,0,1024,1024,1024,1024,0,0,0,0,120.7,0,0,96,4.267,4.27,4.268,4.27,0,0,4.481,73.22,54.859456151828,0.984252,11,AutoTakeoff,
3000,2023-06-05 17:49:38,52.2063886732865,0.086718616422776,1.312336,1.3779528,53.809587351828,55.187540151828,1.312336,0,2.28131240896,2.2898130654,22,5,16.858,55.187540151828,1.312336,0,2.28131240896,0,0,-0.894776,121.5, 0.3, -1.3,0,0,1024,1024,1024,1024,0,0,0,0,120.7,0,0,96,4.204,4.212,4.204,4.207,0,0,4.33,73.22,55.187540151828,1.312336,11,AutoTakeoff,
3200,2023-06-05 17:49:38,52.2063884725175,0.0867185761411924,1.64042,1.7060368,53.809587351828,55.515624151828,1.64042,0,2.35452435356,2.3636155612,22,5,16.858,55.515624151828,1.64042,0,2.35452435356,0,0,-0.894776,121.4, 0, -1.4,0,0,1024,1024,1493,1024,0,0,71,0,120.8,0,0,96,4.204,4.212,4.204,4.207,0,0,4.33,73.22,55.515624151828,1.64042,11,AutoTakeoff,
3400,2023-06-05 17:49:38,52.2063883353214,0.086718560937578,1.968504,2.0341208,53.809587351828,55.843708151828,1.968504,0,2.40390755724,2.41378616648,21,5,16.858,55.843708151828,1.968504,0,2.40390755724,0,0,-1.11847,121.3, 0.2, -1.1,0,0,1024,1024,1680,1024,0,0,99,0,120.8,0,0,96,4.204,4.212,4.204,4.207,0,0,4.33,73.22,55.843708151828,1.968504,11,AutoTakeoff,
3600,2023-06-05 17:49:38,52.206388265425,0.0867185688932421,2.296588,2.3622048,53.809587351828,56.171792151828,2.624672,0,2.42824482836,2.43935047176,22,5,16.858,56.171792151828,2.296588,0,2.42824482836,0,0,-2.460634,121.4, 0, -0.8,0,0,1024,1024,1193,1024,0,0,26,0,120.8,0,0,96,4.204,4.212,4.204,4.207,0,0,4.33,73.22,56.171792151828,2.296588,11,AutoTakeoff,
3800,2023-06-05 17:49:38,52.2063881814392,0.0867186059695813,3.28084,3.3464568,53.809587351828,57.156044151828,3.608924,0,2.4560860366,2.4710958796,22,5,16.858,57.156044151828,3.28084,0,2.4560860366,0,0,-4.250186,121.2, 0, -0.4,0,0,1024,1024,1024,1024,0,0,0,0,120.8,0,0,96,4.204,4.212,4.204,4.207,0,0,4.33,73.22,57.156044151828,3.28084,11,AutoTakeoff,"Home Point updated (Code: 3000001)"
4000,2023-06-05 17:49:39,52.2063881276052,0.0867186321967117,4.593176,4.6587928,53.809587351828,58.468380151828,4.92126,0,2.47385834688,2.49159128708,22,5,16.771,58.468380151828,4.593176,0,2.47385834688,0,0,-3.802798,121.4, -0.1, -1.4,0,0,1024,1024,1097,1024,0,0,11,0,120.8,0,0,96,4.191,4.197,4.192,4.19,0,0,7.145,73.22,58.468380151828,4.593176,6,P-GPS,
4200,2023-06-05 17:49:39,52.2063880849907,0.0867186595882933,5.577428,5.6430448,53.809587351828,59.452632151828,5.905512,0,2.48762147068,2.50830388604,22,5,16.771,59.452632151828,5.577428,0,2.48762147068,0,0,-1.789552,121, 0, -1,0,0,1024,1024,1684,1024,0,0,100,0,120.8,0,0,96,4.191,4.197,4.192,4.19,0,0,7.145,73.22,59.452632151828,5.577428,6,P-GPS,
4400,2023-06-05 17:49:39,52.2063880295921,0.0867186680362991,5.905512,5.9711288,53.809587351828,59.780716151828,6.233596,0,2.5069062482,2.52860244312,22,5,16.771,59.780716151828,5.905512,0,2.5069062482,0,0,-1.342164,121, 0.1, -0.3,0,0,1024,1024,1684,1024,0,0,100,0,120.8,0,0,96,4.191,4.197,4.192,4.19,0,0,7.145,73.22,59.780716151828,5.905512,6,P-GPS,
4600,2023-06-05 17:49:39,52.206387994131,0.086718602158193,6.56168,6.6272968,53.809587351828,60.436884151828,6.889764,0,2.52280847968,2.54820874296,22,5,16.771,60.436884151828,6.56168,0,2.52280847968,0,0,-3.131716,120.7, 0.4, -0.7,0,0,1024,1024,1684,1024,0,0,100,0,120.8,0,0,96,4.191,4.197,4.192,4.19,0,0,7.145,73.22,60.436884151828,6.56168,6,P-GPS,
4800,2023-06-05 17:49:39,52.206387948502,0.0867184734724539,7.874016,7.9396328,53.809587351828,61.749220151828,8.2021,0,2.54563984524,2.58145021384,22,5,16.771,61.749220151828,7.874016,0,2.54563984524,0,0,-5.368656,120.8, 0.1, -0.9,0,0,1024,1024,1662,1024,0,0,97,0,120.8,0,0,96,4.191,4.197,4.192,4.19,0,0,7.145,73.22,61.749220151828,7.874016,6,P-GPS,
5000,2023-06-05 17:49:40,52.2063879727292,0.0867182881752908,10.170604,10.2362208,53.809587351828,64.045808151828,10.170604,0,2.54713918912,2.62381241992,23,5,16.895,64.045808151828,10.170604,0,2.54713918912,0,0,-7.605596,120.9, -0.5, -0.9,0,0,1024,1024,1035,1024,0,0,2,0,120.8,0,0,96,4.192,4.161,4.144,4.146,0,0,7.739,73.22,64.045808151828,10.170604,6,P-GPS,
5200,2023-06-05 17:49:40,52.2063879906212,0.0867181487058721,13.12336,13.1889768,53.809587351828,66.998564151828,12.795276,0,2.5488517876,2.65567265716,23,5,16.895,66.998564151828,13.12336,0,2.5488517876,0,0,-8.94776,120.8, -1.2, -1.3,0,0,1024,1024,1024,1024,0,0,0,0,120.8,0,0,96,4.192,4.161,4.144,4.146,0,0,7.739,73.22,66.998564151828,13.12336,6,P-GPS,
5400,2023-06-05 17:49:40,52.2063879533471,0.0867180681254489,16.076116,16.1417328,53.809587351828,69.951320151828,15.091864,0,2.56675205064,2.67824483636,23,5,16.895,69.951320151828,16.076116,0,2.56675205064,0,0,-7.381902,120.7, -1.1, -1.4,0,0,1024,1024,1294,1024,0,0,41,0,120.8,0,0,96,4.192,4.161,4.144,4.146,0,0,7.739,73.22,69.951320151828,16.076116,6,P-GPS,
5600,2023-06-05 17:49:40,52.206387859119,0.086717995309345,17.060368,17.1259848,53.809587351828,70.935572151828,17.060368,0,2.604248771,2.71628289532,23,5,16.895,70.935572151828,17.060368,0,2.604248771,0,0,-4.921268,120.8, -0.8, -1.8,0,0,1024,1024,1672,1024,0,0,98,0,120.8,0,0,96,4.192,4.161,4.144,4.146,0,0,7.739,73.22,70.935572151828,17.060368,6,P-GPS,
5800,2023-06-05 17:49:40,52.2063877122236,0.0867179109428714,18.372704,18.4383208,53.809587351828,72.247908151828,18.372704,0,2.66095152872,2.77310048244,23,5,16.895,72.247908151828,18.372704,0,2.66095152872,0,0,-4.697574,120.8, -0.1, -1,0,0,1024,1024,1024,1024,0,0,0,0,120.8,0,0,96,4.192,4.161,4.144,4.146,0,0,7.739,73.22,72.247908151828,18.372704,6,P-GPS,
6000,2023-06-05 17:49:41,52.2063875005104,0.086717792781317,20.341208,20.4068248,53.809587351828,74.216412151828,20.013124,0,2.74247384104,2.85473762416,23,5,16.309,74.216412151828,20.341208,0,2.74247384104,0,0,-5.59235,120, -0.5, -3.5,0,0,1024,1024,1024,399,0,0,0,-95,120.8,0,0,96,4.184,4.193,4.186,4.195,0,0,12.237,73.4,74.216412151828,20.341208,6,P-GPS,
6200,2023-06-05 17:49:41,52.2063872794014,0.0867177130213175,21.981628,22.0472448,53.809587351828,75.856832151828,21.653544,0,2.82494759696,2.93735573704,23,5,16.309,75.856832151828,21.981628,0,2.82494759696,0,0,-3.802798,119.1, -0.2, -5.2,0,0,1024,1024,1024,364,0,0,0,-100,120.2,0,0,96,4.184,4.193,4.186,4.195,0,0,12.237,73.4,75.856832151828,21.981628,6,P-GPS,
6400,2023-06-05 17:49:41,52.2063871282814,0.0867176591841752,22.637796,22.7034128,53.809587351828,76.513000151828,22.309712,0,2.8812829006,2.99379274672,23,5,16.309,76.513000151828,22.637796,0,2.8812829006,0,0,-1.565858,114.7, -0.7, -4.9,0,0,1024,1024,1024,364,0,0,0,-100,110.8,0,0,96,4.184,4.193,4.186,4.195,0,0,12.237,73.4,76.513000151828,22.637796,6,P-GPS,
6600,2023-06-05 17:49:41,52.206387002602,0.0867176290475814,22.637796,22.7034128,53.809587351828,76.513000151828,22.637796,0,2.92725403068,3.04013789256,23,5,16.309,76.513000151828,22.637796,0,2.92725403068,0,0,-0.223694,102.7, -0.6, -4.7,0,0,1024,1024,1024,364,0,0,0,-100,98.9,0,0,96,4.184,4.193,4.186,4.195,0,0,12.237,73.4,76.513000151828,22.637796,6,P-GPS,
6800,2023-06-05 17:49:41,52.2063869751595,0.0867175844395512,22.96588,23.0314968,53.809587351828,76.841084151828,22.637796,0,2.93958670824,3.05427175128,23,5,16.309,76.841084151828,22.96588,0,2.93958670824,0,0,0,90.9, -1.3, -4.1,0,0,1024,1024,1024,364,0,0,0,-100,86.9,0,0,96,4.184,4.193,4.186,4.195,0,0,12.237,73.4,76.841084151828,22.96588,6,P-GPS,
7000,2023-06-05 17:49:42,52.2063870716632,0.0867175226847517,22.96588,23.0314968,53.809587351828,76.841084151828,22.637796,0,2.909530933,3.09208999396,23,5,16.824,76.841084151828,22.96588,0,2.93958670824,0,0,0,78.9, -1.9, -3.3,0,0,1024,1024,1024,364,0,0,0,-100,74.9,0,0,96,4.232,4.236,4.225,4.219,0,0,6.668,73.58,76.841084151828,22.96588,6,P-GPS,
7200,2023-06-05 17:49:42,52.2063872441528,0.0867174482367559,22.96588,23.0314968,53.809587351828,76.841084151828,22.96588,0,2.85393053752,3.15718842124,23,5,16.824,76.841084151828,22.96588,0,2.93958670824,0,0,0,67, -1.9, -2.2,0,0,1024,1024,1024,364,0,0,0,-100,62.9,0,0,96,4.232,4.236,4.225,4.219,0,0,6.668,73.58,76.841084151828,22.96588,6,P-GPS,
7400,2023-06-05 17:49:42,52.2063874806533,0.0867173325888959,22.96588,23.0314968,53.809587351828,76.841084151828,22.96588,0,2.77929470836,3.24726388344,23,5,16.824,76.841084151828,22.96588,0,2.93958670824,0,0,0,54.9, -1.8, -1.4,0,0,1024,1024,1024,364,0,0,0,-100,50.9,0,0,96,4.232,4.236,4.225,4.219,0,0,6.668,73.58,76.841084151828,22.96588,6,P-GPS,
7600,2023-06-05 17:49:42,52.2063877432161,0.0867171265240464,22.637796,22.7034128,53.809587351828,76.513000151828,22.96588,0.223694,2.70326780304,3.3535762228,23,5,16.824,76.841084151828,22.96588,0.223694,2.93958670824,0.223694,0,0,42.8, -1.6, -0.5,0,0,1024,1024,1024,364,0,0,0,-100,38.9,0,0,96,4.232,4.236,4.225,4.219,0,0,6.668,73.58,76.513000151828,22.637796,6,P-GPS,
7800,2023-06-05 17:49:42,52.2063880102272,0.0867168136625648,22.637796,22.7034128,53.809587351828,76.513000151828,22.96588,0,2.6365158324,3.4734909248,23,5,16.824,76.841084151828,22.96588,0.223694,2.93958670824,0,0,0,30.7, -1.4, 0.3,0,0,1024,1024,1024,364,0,0,0,-100,26.9,0,0,96,4.232,4.236,4.225,4.219,0,0,6.668,73.58,76.513000151828,22.637796,6,P-GPS,
8000,2023-06-05 17:49:43,52.2063882243311,0.0867164210273227,22.637796,22.7034128,53.809587351828,76.513000151828,22.96588,0,2.59850073932,3.5910106136,23,5,16.741,76.841084151828,22.96588,0.223694,2.93958670824,0,0,0,18.6, -1, 1.4,0,0,1024,1024,1024,364,0,0,0,-100,14.9,0,0,96,4.183,4.191,4.184,4.187,0,0,6.373,73.58,76.513000151828,22.637796,6,P-GPS,
8200,2023-06-05 17:49:43,52.2063883143175,0.0867159602632699,22.637796,22.7034128,53.809587351828,76.513000151828,22.96588,0.223694,2.61263787888,3.6991471,23,5,16.741,76.841084151828,22.96588,0.223694,2.93958670824,0,-0.223694,0,6.6, -1.1, 2.5,0,0,1024,1024,1024,364,0,0,0,-100,2.9,0,0,96,4.183,4.191,4.184,4.187,0,0,6.373,73.58,76.513000151828,22.637796,6,P-GPS,
8400,2023-06-05 17:49:43,52.2063883218243,0.0867154828670692,22.637796,22.7034128,53.809587351828,76.513000151828,22.96588,0,2.65935375964,3.8059056336,23,5,16.741,76.841084151828,22.96588,0.223694,2.93958670824,0,0,0,354.7, -0.9, 3.5,0,0,1024,1024,1024,364,0,0,0,-100,351,0,0,96,4.183,4.191,4.184,4.187,0,0,6.373,73.58,76.513000151828,22.637796,6,P-GPS,
8600,2023-06-05 17:49:43,52.2063882273948,0.086715102036231,22.637796,22.7034128,53.809587351828,76.513000151828,22.96588,0,2.7308399824,3.8977691536,23,5,16.741,76.841084151828,22.96588,0.223694,2.93958670824,0,0,0,342.8, -0.5, 4.4,0,0,1024,1024,1024,364,0,0,0,-100,339,0,0,96,4.183,4.191,4.184,4.187,0,0,6.373,73.58,76.513000151828,22.637796,6,P-GPS,
8800,2023-06-05 17:49:43,52.2063880695445,0.0867148808883405,22.96588,23.0314968,53.809587351828,76.841084151828,22.637796,0,2.8053970714,3.9736549828,23,5,16.741,76.841084151828,22.96588,0.223694,2.93958670824,0,0,0,330.8, 0, 4.7,0,0,1024,1024,1024,1024,0,0,0,0,327,0,0,96,4.183,4.191,4.184,4.187,0,0,6.373,73.58,76.841084151828,22.96588,6,P-GPS,
9000,2023-06-05 17:49:44,52.2063878846093,0.0867148386692812,22.96588,23.0314968,53.809587351828,76.841084151828,22.637796,0,2.86867463248,4.0417980296,23,5,16.739,76.841084151828,22.96588,0.223694,2.93958670824,0,0,0,319.4, 0, 5,0,0,1024,1024,1024,1024,0,0,0,0,319.9,0,0,95,4.182,4.188,4.183,4.186,0,0,6.878,73.58,76.841084151828,22.96588,6,P-GPS,
9200,2023-06-05 17:49:44,52.2063877067247,0.0867149688143524,22.96588,23.0314968,53.809587351828,76.841084151828,22.637796,0,2.91143053936,4.1129266408,23,5,16.739,76.841084151828,22.96588,0.223694,2.93958670824,0,0,0,318, -0.3, 5.6,0,0,1024,1024,1024,364,0,0,0,-100,319.6,0,0,95,4.182,4.188,4.183,4.186,0,0,6.878,73.58,76.841084151828,22.96588,6,P-GPS,
9400,2023-06-05 17:49:44,52.2063875514584,0.0867152725139984,22.96588,23.0314968,53.809587351828,76.841084151828,22.637796,0,2.93033802028,4.2013452788,23,5,16.739,76.841084151828,22.96588,0.223694,2.93958670824,0,0,0,318.3, -0.4, 5.1,0,0,1024,1024,1020,364,0,0,-1,-100,319.1,0,0,95,4.182,4.188,4.183,4.186,0,0,6.878,73.58,76.841084151828,22.96588,6,P-GPS,
9600,2023-06-05 17:49:44,52.2063874569786,0.0867157540830892,22.96588,23.0314968,53.809587351828,76.841084151828,22.637796,0.223694,2.91500665496,4.3144030252,23,5,16.739,76.841084151828,22.96588,0.223694,2.93958670824,0,0.223694,0,314.2, -0.6, 4.8,0,0,1024,1024,1024,1024,0,0,0,0,309.6,0,0,95,4.182,4.188,4.183,4.186,0,0,6.878,73.58,76.841084151828,22.96588,6,P-GPS,
9800,2023-06-05 17:49:44,52.2063874438332,0.086716326293279,22.96588,23.0314968,53.809587351828,76.841084151828,22.637796,0.223694,2.86886820204,4.4424542104,23,5,16.739,76.841084151828,22.96588,0.223694,2.93958670824,0,0.223694,0,301.3, -1.4, 3.8,0,0,1024,1024,1024,1024,0,0,0,0,299.2,0,0,95,4.182,4.188,4.183,4.186,0,0,6.878,73.58,76.841084151828,22.96588,6,P-GPS,
10000,2023-06-05 17:49:45,52.2063875138384,0.0867167388781865,23.293964,23.3595808,53.809587351828,77.169168151828,22.637796,0,2.81154536556,4.5381563132,23,5,16.725,77.169168151828,23.293964,0.223694,2.93958670824,0,0,0,295.6, -0.8, 3.6,0,0,1024,1024,1313,1024,0,0,44,0,298,0,0,95,4.179,4.186,4.18,4.182,0,0,6.995,73.76,77.169168151828,23.293964,6,P-GPS,
10200,2023-06-05 17:49:45,52.2063876121898,0.086716975168094,23.293964,23.3595808,53.809587351828,77.169168151828,22.637796,0,2.75965560012,4.602034268,23,5,16.725,77.169168151828,23.293964,0.223694,2.93958670824,0,0,-0.223694,296.8, 1.5, 4.2,0,0,1024,1024,1684,1020,0,0,100,-1,298,0,0,95,4.179,4.186,4.18,4.182,0,0,6.995,73.76,77.169168151828,23.293964,6,P-GPS,
10400,2023-06-05 17:49:45,52.2063877358828,0.0867173073549676,23.622048,23.6876648,53.809587351828,77.497252151828,23.293964,0,2.69262147724,4.6889437196,23,5,16.725,77.497252151828,23.622048,0.223694,2.93958670824,0,0,-2.460634,296.8, 1.5, 3.1,0,0,1024,1024,1323,1024,0,0,45,0,298,0,0,95,4.179,4.186,4.18,4.182,0,0,6.995,73.76,77.497252151828,23.622048,6,P-GPS,
10600,2023-06-05 17:49:45,52.2063878282797,0.0867177289324273,24.934384,25.0000008,53.809587351828,78.809588151828,24.278216,0,2.63176845692,4.789042148,23,5,16.725,78.809588151828,24.934384,0.223694,2.93958670824,0,0,-4.697574,296.6, 1.2, 3.9,0,0,1050,1024,1024,1024,4,0,0,0,298,0,0,95,4.179,4.186,4.18,4.182,0,0,6.995,73.76,78.809588151828,24.934384,6,P-GPS,
10800,2023-06-05 17:49:45,52.2063878908792,0.0867181029871244,26.24672,26.3123368,53.809587351828,80.121924151828,25.590552,0,2.58665034524,4.8757219408,23,5,16.725,80.121924151828,26.24672,0.223694,2.93958670824,0,0,-3.802798,296.5, 1.5, 5.2,0,0,1684,1024,1024,1024,100,0,0,0,298,0,0,95,4.179,4.186,4.18,4.182,0,0,6.995,73.76,80.121924151828,26.24672,6,P-GPS,
11000,2023-06-05 17:49:46,52.206387938167,0.08671838511679,27.230972,27.2965888,53.809587351828,81.106176151828,26.574804,0,2.55401582976,4.9411418904,23,5,16.687,81.106176151828,27.230972,0.223694,2.93958670824,0,0,-1.789552,296.5, -16.3, 1,0,0,1684,1024,1024,1024,100,0,0,0,298,0,0,95,4.112,4.121,4.113,4.111,0,0,7.878,73.76,81.106176151828,27.230972,6,P-GPS,
11200,2023-06-05 17:49:46,52.206388050693,0.086717737644952,27.559056,27.6246728,53.809587351828,81.434260151828,26.902888,1.2079476,2.55365165652,5.0916012128,23,5,16.687,81.434260151828,27.559056,1.2079476,2.93958670824,0.447388,-1.11847,-0.223694,296, -28.6, 0.6,0,0,1684,1024,1024,1024,100,0,0,0,298,0,0,95,4.112,4.121,4.113,4.111,0,0,7.878,73.76,81.434260151828,27.559056,6,P-GPS,
11400,2023-06-05 17:49:46,52.206388601176,0.0867148546312852,27.559056,27.6246728,53.809587351828,81.434260151828,27.230972,3.3330406,2.64227698744,5.7667652764,23,5,16.687,81.434260151828,27.559056,3.3330406,2.93958670824,1.11847,-3.131716,0,295.4, -27.9, 2.2,0,0,1684,1024,1024,1024,100,0,0,0,298,0,0,95,4.112,4.121,4.113,4.111,0,0,7.878,73.76,81.434260151828,27.559056,6,P-GPS,
11600,2023-06-05 17:49:46,52.2063898109992,0.0867093826415571,27.559056,27.6246728,53.809587351828,81.434260151828,27.88714,5.3239172,3.18486230664,7.067421486,23,5,16.687,81.434260151828,27.559056,5.3239172,3.18486230664,2.013246,-4.921268,0,295.1, -28.1, 3.9,0,0,1684,1024,1024,1024,100,0,0,0,298,0,0,95,4.112,4.121,4.113,4.111,0,0,7.878,73.76,81.434260151828,27.559056,6,P-GPS,
11800,2023-06-05 17:49:46,52.2063913610943,0.0867010429265277,27.559056,27.5918644,53.842395751828,81.434260151828,27.88714,7.6503348,4.6606628788,9.0159451704,23,5,16.687,81.434260151828,27.559056,7.6503348,4.6606628788,2.684328,-7.158208,0,291, -29, 4.3,0,0,1684,1024,1024,1024,100,0,0,0,298,0,0,95,4.112,4.121,4.113,4.111,0,0,7.878,73.76,81.434260151828,27.559056,6,P-GPS,
12000,2023-06-05 17:49:47,52.2063935380299,0.0866900206145133,27.559056,27.559056,53.875204151828,81.434260151828,28.215224,9.618842,6.9736550788,11.6052169068,23,5,16.777,81.434260151828,27.559056,9.618842,6.9736550788,2.908022,-9.171454,0,288.1, -28.1, 4.3,0,0,1684,1024,1024,1024,100,0,0,0,298,0,0,95,4.167,4.172,4.165,4.166,0,0,7.921,73.76,81.434260151828,27.559056,6,P-GPS,
12200,2023-06-05 17:49:47,52.2063963730403,0.0866765126229444,27.559056,27.5262476,53.908012551828,81.434260151828,28.215224,11.743935,9.9982614748,14.7976382688,23,5,16.777,81.434260151828,27.559056,11.743935,9.9982614748,3.579104,-11.1847,0,287.8, -25.8, 3.6,0,0,1684,1024,1024,1024,100,0,0,0,298,0,0,95,4.167,4.172,4.165,4.166,0,0,7.921,73.76,81.434260151828,27.559056,6,P-GPS,
12400,2023-06-05 17:49:47,52.2063996377948,0.08666074837341,27.559056,27.4934392,53.940820951828,81.434260151828,27.88714,13.2203154,13.6231303572,18.5181436372,23,5,16.777,81.434260151828,27.559056,13.2203154,13.6231303572,4.250186,-12.526864,0,287.8, -23.7, 4,0,0,1283,1024,1024,1024,39,0,0,0,298,0,0,95,4.167,4.172,4.165,4.166,0,0,7.921,73.76,81.434260151828,27.559056,6,P-GPS,
12600,2023-06-05 17:49:47,52.2064032515636,0.0866433440452216,27.559056,27.4606308,53.973629351828,81.434260151828,28.215224,14.5624794,17.6719821928,22.626805186,23,5,16.777,81.434260151828,27.559056,14.5624794,17.6719821928,4.47388,-13.869028,0,287.7, -17.2, 2.1,0,0,1070,1024,1024,1024,7,0,0,0,298,0,0,95,4.167,4.172,4.165,4.166,0,0,7.921,73.76,81.434260151828,27.559056,6,P-GPS,
12800,2023-06-05 17:49:47,52.206407052385,0.0866248358652545,27.230972,27.06693,54.039246151828,81.106176151828,27.88714,14.8532816,21.9987867932,26.9911754044,23,5,16.777,81.434260151828,27.559056,14.8532816,21.9987867932,4.697574,-14.092722,0,288.2, -0.2, 2.4,0,0,1024,1024,1024,1024,0,0,0,0,298,0,0,95,4.167,4.172,4.165,4.166,0,0,7.921,73.76,81.106176151828,27.230972,6,P-GPS,
13000,2023-06-05 17:49:48,52.2064107268422,0.0866067552213042,27.230972,27.0341216,54.072054551828,81.106176151828,27.559056,14.1374608,26.2345480836,31.2502634672,23,5,16.617,81.434260151828,27.559056,14.8532816,26.2345480836,4.47388,-13.42164,0,288.4, 22.4, 1.1,0,0,1024,1024,1024,1024,0,0,0,0,298,0,0,95,4.16,4.167,4.156,4.157,0,0,8.262,73.94,81.106176151828,27.230972,6,P-GPS,
13200,2023-06-05 17:49:48,52.2064139038493,0.0865907662997267,27.230972,27.0013132,54.104862951828,81.106176151828,26.902888,11.520241,29.9795941352,35.008531304,23,5,16.617,81.434260151828,27.559056,14.8532816,29.9795941352,3.579104,-10.961006,0,289, 30.5, 2,0,0,1024,1024,1024,1024,0,0,0,0,298,0,0,95,4.16,4.167,4.156,4.157,0,0,8.262,73.94,81.106176151828,27.230972,6,P-GPS,
13400,2023-06-05 17:49:48,52.2064163415686,0.0865779548977356,27.230972,26.9685048,54.137671351828,81.106176151828,26.574804,9.1267152,32.973098168,38.007875232,23,5,16.617,81.434260151828,27.559056,14.8532816,32.973098168,2.684328,-8.724066,0,289.1, 29.3, 1.9,0,0,1024,1024,1024,1024,0,0,0,0,298,0,0,95,4.16,4.167,4.156,4.157,0,0,8.262,73.94,81.106176151828,27.230972,6,P-GPS,
13600,2023-06-05 17:49:48,52.2064180516116,0.0865684401069611,27.230972,26.9685048,54.137671351828,81.106176151828,25.918636,6.5094954,35.187993252,40.22473882,23,5,16.617,81.434260151828,27.559056,14.8532816,35.187993252,1.789552,-6.263432,0.223694,289.4, 28.8, 4.2,0,0,1024,1024,1024,1024,0,0,0,0,298,0,0,95,4.16,4.167,4.156,4.157,0,0,8.262,73.94,81.106176151828,27.230972,6,P-GPS,
13800,2023-06-05 17:49:48,52.2064191292189,0.0865621233856846,27.230972,26.9356964,54.170479751828,81.106176151828,25.590552,3.9593838,36.65354448,41.690618132,23,5,16.617,81.434260151828,27.559056,14.8532816,36.65354448,1.11847,-3.802798,0,289.5, 28.4, 4.5,0,0,1024,1024,1024,1024,0,0,0,0,298,0,0,95,4.16,4.167,4.156,4.157,0,0,8.262,73.94,81.106176151828,27.230972,6,P-GPS,
14000,2023-06-05 17:49:49,52.206419612738,0.086558821727857,27.230972,26.9356964,54.170479751828,81.106176151828,25.262468,1.8342908,37.412402772,42.449804508,23,5,16.695,81.434260151828,27.559056,14.8532816,37.412402772,0.447388,-1.789552,0,288.8, 15.7, 5.3,0,0,1024,1024,1024,1024,0,0,0,0,298,0,0,95,4.172,4.177,4.169,4.165,0,0,7.171,74.12,81.106176151828,27.230972,6,P-GPS,
14200,2023-06-05 17:49:49,52.2064198035876,0.0865574116264784,27.230972,26.9356964,54.170479751828,81.106176151828,25.262468,0.9171454,37.735237428,42.772639164,23,5,16.695,81.434260151828,27.559056,14.8532816,37.735237428,0.223694,-0.894776,0,287.1, 7.3, 4.9,0,0,1024,1024,1024,1024,0,0,0,0,298,0,0,95,4.172,4.177,4.169,4.165,0,0,7.171,74.12,81.106176151828,27.230972,6,P-GPS,
14400,2023-06-05 17:49:49,52.2064199121326,0.0865568090387664,27.559056,27.2637804,54.170479751828,81.434260151828,25.590552,0.4921268,37.87565738,42.913059116,23,5,16.695,81.434260151828,27.559056,14.8532816,37.87565738,0.223694,-0.447388,0,288.2, 4.1, 4.3,0,0,1024,1024,1024,1024,0,0,0,0,298,0,0,95,4.172,4.177,4.169,4.165,0,0,7.171,74.12,81.434260151828,27.559056,6,P-GPS,
14600,2023-06-05 17:49:49,52.2064199733325,0.0865566014427213,27.559056,27.2637804,54.170479751828,81.434260151828,25.590552,0.3131716,37.926182316,42.964568304,23,5,16.695,81.434260151828,27.559056,14.8532816,37.926182316,0.223694,-0.223694,0,288.5, 1.7, 3.8,0,0,1024,1024,1118,1024,0,0,14,0,298,0,0,95,4.172,4.177,4.169,4.165,0,0,7.171,74.12,81.434260151828,27.559056,6,P-GPS,
14800,2023-06-05 17:49:49,52.2064199968209,0.0865564588514984,27.559056,27.2637804,54.170479751828,81.434260151828,25.918636,0.3131716,37.958990716,42.997704788,23,5,16.695,81.434260151828,27.559056,14.8532816,37.958990716,0.223694,-0.223694,0,288.1, 2.1, 3.3,0,0,1024,1024,1024,1024,0,0,0,0,298,0,0,95,4.172,4.177,4.169,4.165,0,0,7.171,74.12,81.434260151828,27.559056,6,P-GPS,
15000,2023-06-05 17:49:50,52.2064200259249,0.086556331735617,27.559056,27.2637804,54.170479751828,81.434260151828,25.918636,0.223694,37.989174444,43.027888516,23,5,16.658,81.434260151828,27.559056,14.8532816,37.989174444,0.223694,0,0,288.3, 2.7, 2.3,0,0,1024,1024,1024,1024,0,0,0,0,298,0,0,95,4.167,4.173,4.165,4.17,0,0,7.988,74.12,81.434260151828,27.559056,6,P-GPS,
15200,2023-06-05 17:49:50,52.206419987318,0.086556223743735,27.559056,27.2637804,54.170479751828,81.434260151828,25.918636,0,38.009187568,43.055775656,23,5,16.658,81.434260151828,27.559056,14.8532816,38.009187568,0,0,0,288.3, 3.4, 2.4,0,0,1024,1024,1024,1024,0,0,0,0,298,0,0,95,4.167,4.173,4.165,4.17,0,0,7.988,74.12,81.434260151828,27.559056,6,P-GPS,
15400,2023-06-05 17:49:50,52.2064198450108,0.0865561748013947,27.559056,27.2637804,54.170479751828,81.434260151828,26.24672,0,38.007219064,43.108925264,23,5,16.658,81.434260151828,27.559056,14.8532816,38.009187568,0,0,0,288.3, 3.2, 3.7,0,0,1024,1024,1024,1024,0,0,0,0,298,0,0,95,4.167,4.173,4.165,4.17,0,0,7.988,74.12,81.434260151828,27.559056,6,P-GPS,
15600,2023-06-05 17:49:50,52.2064196730855,0.0865562836739872,27.559056,27.2637804,54.170479751828,81.434260151828,26.24672,0,37.968505152,43.176182484,23,5,16.658,81.434260151828,27.559056,14.8532816,38.009187568,0,0,0,288.5, 2.5, 4.3,0,0,1024,1024,1024,1024,0,0,0,0,298,0,0,95,4.167,4.173,4.165,4.17,0,0,7.988,74.12,81.434260151828,27.559056,6,P-GPS,
15800,2023-06-05 17:49:50,52.2064195462801,0.086556483637208,27.559056,27.2637804,54.170479751828,81.434260151828,26.574804,0,37.914043208,43.240486948,23,5,16.658,81.434260151828,27.559056,14.8532816,38.009187568,0,0,0,288.5, 2, 4.6,0,0,1024,1024,1024,1024,0,0,0,0,298,0,0,95,4.167,4.173,4.165,4.17,0,0,7.988,74.12,81.434260151828,27.559056,6,P-GPS,
16000,2023-06-05 17:49:51,52.2064194492876,0.0865567212612871,27.559056,27.2637804,54.170479751828,81.434260151828,26.574804,0,37.854003836,43.304463328,23,5,16.671,81.434260151828,27.559056,14.8532816,38.009187568,0,0,0,288.3, 1.4, 4.8,0,0,1024,1024,1024,1024,0,0,0,0,298,0,0,95,4.167,4.172,4.166,4.171,0,0,7.055,74.12,81.434260151828,27.559056,6,P-GPS,
16200,2023-06-05 17:49:51,52.2064193853162,0.0865569135078064,27.559056,27.2637804,54.170479751828,81.434260151828,26.24672,0,37.80675974,43.353347844,23,5,16.671,81.434260151828,27.559056,14.8532816,38.009187568,0,0,0,288.3, 1.1, 4.9,0,0,1024,1024,1024,1024,0,0,0,0,298,0,0,95,4.167,4.172,4.166,4.171,0,0,7.055,74.12,81.434260151828,27.559056,6,P-GPS,
16400,2023-06-05 17:49:51,52.2064193500441,0.0865570547989329,27.559056,27.2637804,54.170479751828,81.434260151828,26.24672,0,37.772967088,43.38746858,23,5,16.671,81.434260151828,27.559056,14.8532816,38.009187568,0,0,0,288.1, 1.1, 5.1,0,0,1024,1024,1024,1024,0,0,0,0,298,0,0,95,4.167,4.172,4.166,4.171,0,0,7.055,74.12,81.434260151828,27.559056,6,P-GPS,
16600,2023-06-05 17:49:51,52.206419347035,0.0865571434850817,27.559056,27.2637804,54.170479751828,81.434260151828,26.24672,0,37.753610132,43.40715362,23,5,16.671,81.434260151828,27.559056,14.8532816,38.009187568,0,0,0,288.3, 1.3, 4.9,0,0,1024,1024,1646,1024,0,0,94,0,298,0,0,95,4.167,4.172,4.166,4.171,0,0,7.055,74.12,81.434260151828,27.559056,6,P-GPS,
16800,2023-06-05 17:49:51,52.2064193660857,0.0865571780844226,27.559056,27.2637804,54.170479751828,81.434260151828,26.24672,0,37.74770462,43.417652308,23,5,16.671,81.434260151828,27.559056,14.8532816,38.009187568,0,0,-0.447388,288.4, 1.1, 4.4,0,0,1024,1024,1492,1024,0,0,71,0,298,0,0,95,4.167,4.172,4.166,4.171,0,0,7.055,74.12,81.434260151828,27.559056,6,P-GPS,
17000,2023-06-05 17:49:52,52.206419411244,0.0865571710666977,28.215224,27.9199484,54.170479751828,82.090428151828,26.902888,0,37.752953964,43.434384592,23,5,16.659,82.090428151828,28.215224,14.8532816,38.009187568,0,0,-2.684328,288.3, 1.5, 3.5,0,0,1024,1024,1024,1024,0,0,0,0,298,0,0,95,4.165,4.17,4.163,4.167,0,0,7.179,74.12,82.090428151828,28.215224,6,P-GPS,
17200,2023-06-05 17:49:52,52.2064194257157,0.0865571301905471,29.199476,28.9042004,54.170479751828,83.074680151828,27.88714,0,37.763124568,43.44488328,23,5,16.659,83.074680151828,29.199476,14.8532816,38.009187568,0,0,-2.684328,288.3, 3, 5.4,0,0,1024,1024,1314,1024,0,0,44,0,298,0,0,95,4.165,4.17,4.163,4.167,0,0,7.179,74.12,83.074680151828,29.199476,6,P-GPS,
17400,2023-06-05 17:49:52,52.2064193907884,0.0865570713227393,29.52756,29.2322844,54.170479751828,83.402764151828,28.543308,0,37.772967088,43.463255984,23,5,16.659,83.402764151828,29.52756,14.8532816,38.009187568,0,0,-0.894776,288.7, 3, 5.7,0,0,1024,1024,1560,1024,0,0,81,0,298,0,0,95,4.165,4.17,4.163,4.167,0,0,7.179,74.12,83.402764151828,29.52756,6,P-GPS,
17600,2023-06-05 17:49:52,52.2064193728685,0.0865570730142626,30.183728,29.8884524,54.170479751828,84.058932151828,28.543308,0,37.770998584,43.46948958,23,5,16.659,84.058932151828,30.183728,14.8532816,38.009187568,0,0,-1.789552,288.5, 0.6, 3.2,0,0,1024,1024,1035,1024,0,0,2,0,298,0,0,95,4.165,4.17,4.163,4.167,0,0,7.179,74.12,84.058932151828,30.183728,6,P-GPS,
17800,2023-06-05 17:49:52,52.2064192742033,0.0865569310101801,30.839896,30.5446204,54.170479751828,84.715100151828,29.52756,0,37.793308296,43.517717928,23,5,16.659,84.715100151828,30.839896,14.8532816,38.009187568,0,0,-2.013246,288.3, 2.2, 6.5,0,0,1024,1024,1024,1024,0,0,0,0,298,0,0,95,4.165,4.17,4.163,4.167,0,0,7.179,74.12,84.715100151828,30.839896,6,P-GPS,
18000,2023-06-05 17:49:53,52.2064191613277,0.086556724546477,31.16798,30.8727044,54.170479751828,85.043184151828,30.183728,0,37.828413284,43.57939772,23,5,16.785,85.043184151828,31.16798,14.8532816,38.009187568,0,0,-0.671082,288.9, 3.2, 7,0,0,1024,1024,1684,1024,0,0,100,0,298,0,0,95,4.193,4.197,4.188,4.169,0,0,8.061,74.48,85.043184151828,31.16798,6,P-GPS,
18200,2023-06-05 17:49:53,52.2064191385589,0.0865566691595726,31.16798,30.8727044,54.170479751828,85.043184151828,30.183728,0,37.838583888,43.594489584,23,5,16.785,85.043184151828,31.16798,14.8532816,38.009187568,0,0,-0.223694,288.5, 2.1, 5.1,0,0,1024,1024,1024,1024,0,0,0,0,298,0,0,95,4.193,4.197,4.188,4.169,0,0,8.061,74.48,85.043184151828,31.16798,6,P-GPS,
18400,2023-06-05 17:49:53,52.2064191555943,0.086556707295735,31.496064,31.2007884,54.170479751828,85.371268151828,30.183728,0,37.831694124,43.604988272,23,5,16.785,85.371268151828,31.496064,14.8532816,38.009187568,0,0,0,288.3, 2.1, 5.3,0,0,1024,1024,1024,1024,0,0,0,0,298,0,0,95,4.193,4.197,4.188,4.169,0,0,8.061,74.48,85.371268151828,31.496064,6,P-GPS,
18600,2023-06-05 17:49:53,52.2064191415338,0.0865567365688743,31.496064,31.2007884,54.170479751828,85.371268151828,30.511812,0,37.824148192,43.613190372,23,5,16.785,85.371268151828,31.496064,14.8532816,38.009187568,0,0,0,288.4, 2, 4.9,0,0,1024,1024,756,1024,0,0,-41,0,298,0,0,95,4.193,4.197,4.188,4.169,0,0,8.061,74.48,85.371268151828,31.496064,6,P-GPS,
18800,2023-06-05 17:49:53,52.2064191300027,0.0865568085075442,31.496064,31.2007884,54.170479751828,85.371268151828,30.839896,0,37.807415908,43.629922656,23,5,16.785,85.371268151828,31.496064,14.8532816,38.009187568,0,0,-0.894776,288.7, 1.3, 3.5,0,0,1024,1024,1024,1024,0,0,0,0,298,0,0,95,4.193,4.197,4.188,4.169,0,0,8.061,74.48,85.371268151828,31.496064,6,P-GPS,
19000,2023-06-05 17:49:54,52.2064190780615,0.0865569137314789,32.152232,31.8569564,54.170479751828,86.027436151828,31.16798,0,37.780184936,43.660106384,23,5,16.685,86.027436151828,32.152232,14.8532816,38.009187568,0,0,-0.671082,288.1, 2.4, 6.6,0,0,1024,1024,850,1024,0,0,-26,0,298,0,0,95,4.224,4.202,4.17,4.16,0,0,7.785,74.12,86.027436151828,32.152232,6,P-GPS,
19200,2023-06-05 17:49:54,52.2064190397802,0.0865570546870966,32.152232,31.8569564,54.170479751828,86.027436151828,31.16798,0,37.746392284,43.694555204,23,5,16.685,86.027436151828,32.152232,14.8532816,38.009187568,0,0,-0.447388,288.5, 1.4, 6,0,0,1024,1024,1024,1024,0,0,0,0,298,0,0,95,4.224,4.202,4.17,4.16,0,0,7.785,74.12,86.027436151828,32.152232,6,P-GPS,
19400,2023-06-05 17:49:54,52.2064190411723,0.0865571971525037,32.152232,31.8569564,54.170479751828,86.027436151828,31.16798,0,37.715552388,43.726379352,23,5,16.685,86.027436151828,32.152232,14.8532816,38.009187568,0,0,0,288.3, 1.4, 6,0,0,1024,1024,1340,1024,0,0,48,0,298,0,0,95,4.224,4.202,4.17,4.16,0,0,7.785,74.12,86.027436151828,32.152232,6,P-GPS,
19600,2023-06-05 17:49:54,52.206419113278,0.0865573078703945,32.152232,31.8569564,54.170479751828,86.027436151828,31.16798,0,37.697507768,43.762468592,23,5,16.685,86.027436151828,32.152232,14.8532816,38.009187568,0,0,0,288.6, 2.1, 4.7,0,0,1024,1024,1024,1024,0,0,0,0,298,0,0,95,4.224,4.202,4.17,4.16,0,0,7.785,74.12,86.027436151828,32.152232,6,P-GPS,
19800,2023-06-05 17:49:54,52.2064191728995,0.086557381850076,32.480316,32.1850404,54.170479751828,86.355520151828,31.496064,0,37.686680996,43.790027648,23,5,16.685,86.355520151828,32.480316,14.8532816,38.009187568,0,0,-1.11847,288.3, 1.2, 4.3,0,0,1024,1024,1024,1024,0,0,0,0,298,0,0,95,4.224,4.202,4.17,4.16,0,0,7.785,74.12,86.355520151828,32.480316,6,P-GPS,
20000,2023-06-05 17:49:55,52.2064191924042,0.0865573548136618,32.8084,32.5131244,54.170479751828,86.683604151828,31.824148,0,37.694226928,43.799214,23,5,16.618,86.683604151828,32.8084,14.8532816,38.009187568,0,0,-0.671082,288.3, 2.6, 7,0,0,1024,1024,1118,1024,0,0,14,0,298,0,0,95,4.175,4.173,4.158,4.146,0,0,7.35,74.48,86.683604151828,32.8084,6,P-GPS,
20200,2023-06-05 17:49:55,52.2064192301586,0.0865573570923254,33.136484,32.8412084,54.170479751828,87.011688151828,31.824148,0,37.6968516,43.812993528,23,5,16.618,87.011688151828,33.136484,14.8532816,38.009187568,0,0,0,288.8, 1.8, 5.2,0,0,1024,1024,993,1024,0,0,-5,0,298,0,0,95,4.175,4.173,4.158,4.146,0,0,7.35,74.48,87.011688151828,33.136484,6,P-GPS,
20400,2023-06-05 17:49:55,52.2064192792642,0.0865573940122685,33.136484,32.8412084,54.170479751828,87.011688151828,32.152232,0,37.693242676,43.832678568,23,5,16.618,87.011688151828,33.136484,14.8532816,38.009187568,0,0,-1.11847,288.3, 0.7, 3.4,0,0,1024,1024,1024,1024,0,0,0,0,298,0,0,95,4.175,4.173,4.158,4.146,0,0,7.35,74.48,87.011688151828,33.136484,6,P-GPS,
20600,2023-06-05 17:49:55,52.2064193228784,0.0865574634905409,33.464568,33.1692924,54.170479751828,87.339772151828,32.480316,0,37.681759736,43.85498828,23,5,16.618,87.339772151828,33.464568,14.8532816,38.009187568,0,0,-0.447388,288.1, 1.5, 4.9,0,0,1024,1024,1024,1024,0,0,0,0,298,0,0,95,4.175,4.173,4.158,4.146,0,0,7.35,74.48,87.339772151828,33.464568,6,P-GPS,
20800,2023-06-05 17:49:55,52.2064193794886,0.0865575449492718,33.464568,33.1692924,54.170479751828,87.339772151828,32.480316,0,37.669292544,43.882547336,23,5,16.618,87.339772151828,33.464568,14.8532816,38.009187568,0,0,0,288.3, 0.9, 3.9,0,0,1024,1024,1024,1024,0,0,0,0,298,0,0,95,4.175,4.173,4.158,4.146,0,0,7.35,74.48,87.339772151828,33.464568,6,P-GPS,
21000,2023-06-05 17:49:56,52.206419399124,0.0865575842736944,33.464568,33.1692924,54.170479751828,87.339772151828,32.480316,0,37.66240278,43.894030276,23,5,16.783,87.339772151828,33.464568,14.8532816,38.009187568,0,0,0,288.1, 0.5, 3.4,0,0,1024,1024,1024,1024,0,0,0,0,298,0,0,95,4.092,4.103,4.189,4.217,0,0,7.826,74.3,87.339772151828,33.464568,6,P-GPS,
21200,2023-06-05 17:49:56,52.2064193647985,0.0865576054946234,33.464568,33.1692924,54.170479751828,87.339772151828,32.480316,0,37.654856848,43.907153636,23,5,16.783,87.339772151828,33.464568,14.8532816,38.009187568,0,0,0,288.1, 0.5, 3.6,0,0,1024,1024,1024,1024,0,0,0,0,298,0,0,95,4.092,4.103,4.189,4.217,0,0,7.826,74.3,87.339772151828,33.464568,6,P-GPS,
21400,2023-06-05 17:49:56,52.2064192867495,0.0865576136027518,33.464568,33.1692924,54.170479751828,87.339772151828,32.480316,0,37.646326664,43.935696944,23,5,16.783,87.339772151828,33.464568,14.8532816,38.009187568,0,0,0,288.2, 0.7, 4.3,0,0,1024,1024,1024,1024,0,0,0,0,298,0,0,95,4.092,4.103,4.189,4.217,0,0,7.826,74.3,87.339772151828,33.464568,6,P-GPS,
21600,2023-06-05 17:49:56,52.2064192172654,0.0865576191666054,33.464568,33.1692924,54.170479751828,87.339772151828,32.480316,0,37.638780732,43.961287496,23,5,16.783,87.339772151828,33.464568,14.8532816,38.009187568,0,0,0,288, 0.4, 4.2,0,0,1024,1024,1024,1024,0,0,0,0,298,0,0,95,4.092,4.103,4.189,4.217,0,0,7.826,74.3,87.339772151828,33.464568,6,P-GPS,
21800,2023-06-05 17:49:56,52.2064191807189,0.0865576057602345,33.464568,33.1692924,54.170479751828,87.339772151828,32.480316,0,37.638780732,43.97473894,23,5,16.783,87.339772151828,33.464568,14.8532816,38.009187568,0,0,0,288.2, 0.4, 4.2,0,0,1024,1024,1024,1024,0,0,0,0,298,0,0,95,4.092,4.103,4.189,4.217,0,0,7.826,74.3,87.339772151828,33.464568,6,P-GPS,
22000,2023-06-05 17:49:57,52.2064191507775,0.086557555419941,33.464568,33.1692924,54.170479751828,87.339772151828,32.480316,0,37.646982832,43.990486972,23,5,16.641,87.339772151828,33.464568,14.8532816,38.009187568,0,0,0,288.1, 0.5, 4.2,0,0,1024,1024,1024,1024,0,0,0,0,298,-0.3,0,95,4.154,4.159,4.153,4.156,0,0,7.485,74.48,87.339772151828,33.464568,6,P-GPS,
22200,2023-06-05 17:49:57,52.2064191299471,0.0865575010116038,33.464568,33.1692924,54.170479751828,87.339772151828,32.480316,0,37.657153436,44.004922668,23,5,16.641,87.339772151828,33.464568,14.8532816,38.009187568,0,0,0,288.3, 1.2, 4.6,0,0,1024,1024,1024,1024,0,0,0,0,298,-2.3,0,95,4.154,4.159,4.153,4.156,0,0,7.485,74.48,87.339772151828,33.464568,6,P-GPS,
22400,2023-06-05 17:49:57,52.2064190891043,0.0865575263425152,33.464568,33.1692924,54.170479751828,87.339772151828,32.480316,0,37.647967084,44.0206707,23,5,16.641,87.339772151828,33.464568,14.8532816,38.009187568,0,0,0,288.6, 0.6, 5,0,0,1024,1024,1024,1024,0,0,0,0,298,-5.1,0,95,4.154,4.159,4.153,4.156,0,0,7.485,74.48,87.339772151828,33.464568,6,P-GPS,
22600,2023-06-05 17:49:57,52.2064190864014,0.0865576367947948,33.464568,33.1692924,54.170479751828,87.339772151828,32.480316,0,37.623688868,44.045605084,23,5,16.641,87.339772151828,33.464568,14.8532816,38.009187568,0,0,0,288.4, 0.1, 4.5,0,0,1024,1024,1024,1024,0,0,0,0,298,-8,0,95,4.154,4.159,4.153,4.156,0,0,7.485,74.48,87.339772151828,33.464568,6,P-GPS,
22800,2023-06-05 17:49:57,52.2064191166062,0.0865577636310855,33.464568,33.1692924,54.170479751828,87.339772151828,32.480316,0,37.598754484,44.076116896,23,5,16.641,87.339772151828,33.464568,14.8532816,38.009187568,0,0,0,287.9, -0.5, 3.6,0,0,1024,1024,1024,1024,0,0,0,0,298,-10.9,0,95,4.154,4.159,4.153,4.156,0,0,7.485,74.48,87.339772151828,33.464568,6,P-GPS,
23000,2023-06-05 17:49:58,52.206419138726,0.0865577402712881,33.464568,33.1692924,54.170479751828,87.339772151828,32.480316,0,37.605972332,44.085631332,23,5,16.628,87.339772151828,33.464568,14.8532816,38.009187568,0,0,0,287.8, 0, 4,0,0,1024,1024,1024,1024,0,0,0,0,298,-13.8,0,95,4.158,4.165,4.157,4.163,0,0,7.325,74.66,87.339772151828,33.464568,6,P-GPS,
23200,2023-06-05 17:49:58,52.2064191211124,0.0865576232765877,33.464568,33.1692924,54.170479751828,87.339772151828,32.480316,0,37.62959438,44.11253422,23,5,16.628,87.339772151828,33.464568,14.8532816,38.009187568,0,0,0,287.5, 0.8, 4.4,0,0,1024,1024,1024,1024,0,0,0,0,298,-16.7,0,95,4.158,4.165,4.157,4.163,0,0,7.325,74.66,87.339772151828,33.464568,6,P-GPS,
23400,2023-06-05 17:49:58,52.2064190873866,0.0865574752333474,33.464568,33.1692924,54.170479751828,87.339772151828,32.152232,0,37.65912194,44.147967292,23,5,16.628,87.339772151828,33.464568,14.8532816,38.009187568,0,0,0,287, 0.7, 4.6,0,0,1024,1024,1024,1024,0,0,0,0,298,-19.7,0,95,4.158,4.165,4.157,4.163,0,0,7.325,74.66,87.339772151828,33.464568,6,P-GPS,
23600,2023-06-05 17:49:58,52.206419043933,0.0865573260997037,33.464568,33.1692924,54.170479751828,87.339772151828,32.152232,0,37.687665248,44.1847127,23,5,16.628,87.339772151828,33.464568,14.8532816,38.009187568,0,0,0,287.4, 1.1, 5.3,0,0,1024,1024,1024,1024,0,0,0,0,298,-22.6,0,95,4.158,4.165,4.157,4.163,0,0,7.325,74.66,87.339772151828,33.464568,6,P-GPS,
23800,2023-06-05 17:49:58,52.2064189912079,0.0865571736389315,33.792652,33.4973764,54.170479751828,87.667856151828,32.152232,0,37.716208556,44.223754696,23,5,16.628,87.667856151828,33.792652,14.8532816,38.009187568,0,0,0,288.1, 0.7, 5.4,0,0,1024,1024,1024,1024,0,0,0,0,298,-25.5,0,95,4.158,4.165,4.157,4.163,0,0,7.325,74.66,87.667856151828,33.792652,6,P-GPS,
24000,2023-06-05 17:49:59,52.2064189739713,0.0865570433217374,33.792652,33.4973764,54.170479751828,87.667856151828,32.152232,0,37.743111444,44.25361034,23,5,16.627,87.667856151828,33.792652,14.8532816,38.009187568,0,0,0,288.2, 1.1, 5.2,0,0,1024,1024,1024,1024,0,0,0,0,298,-28.4,0,95,4.155,4.163,4.157,4.162,0,0,7.152,74.66,87.667856151828,33.792652,6,P-GPS,
24200,2023-06-05 17:49:59,52.2064189570302,0.0865569249989815,33.792652,33.4973764,54.170479751828,87.667856151828,32.152232,0,37.76738966,44.280841312,23,5,16.627,87.667856151828,33.792652,14.8532816,38.009187568,0,0,0,288.1, 1.1, 5.1,0,0,1024,1024,1024,1024,0,0,0,0,298,-31.3,0,95,4.155,4.163,4.157,4.162,0,0,7.152,74.66,87.667856151828,33.792652,6,P-GPS,
24400,2023-06-05 17:49:59,52.2064189342015,0.0865568086193804,33.792652,33.4973764,54.170479751828,87.667856151828,32.152232,0,37.790683624,44.308072284,23,5,16.627,87.667856151828,33.792652,14.8532816,38.009187568,0,0,0,288.1, 1.3, 5.4,0,0,1024,1024,1024,1024,0,0,0,0,298,-34.2,0,95,4.155,4.163,4.157,4.162,0,0,7.152,74.66,87.667856151828,33.792652,6,P-GPS,
24600,2023-06-05 17:49:59,52.2064189137844,0.0865567274961582,33.792652,33.4973764,54.170479751828,87.667856151828,32.152232,0,37.80675974,44.327757324,23,5,16.627,87.667856151828,33.792652,14.8532816,38.009187568,0,0,0,288.2, 1.3, 5.4,0,0,1024,1024,1024,1024,0,0,0,0,298,-37.2,0,95,4.155,4.163,4.157,4.162,0,0,7.152,74.66,87.667856151828,33.792652,6,P-GPS,
24800,2023-06-05 17:49:59,52.2064189297767,0.0865566984746505,33.792652,33.4973764,54.170479751828,87.667856151828,32.152232,0,37.814305672,44.336615592,23,5,16.627,87.667856151828,33.792652,14.8532816,38.009187568,0,0,0,288.2, 0.5, 5.2,0,0,1024,1024,1024,1024,0,0,0,0,298,-40.1,0,95,4.155,4.163,4.157,4.162,0,0,7.152,74.66,87.667856151828,33.792652,6,P-GPS,
25000,2023-06-05 17:50:00,52.2064189468034,0.0865566728641485,33.792652,33.4973764,54.170479751828,87.667856151828,32.152232,0,37.821195436,44.344817692,23,5,16.619,87.667856151828,33.792652,14.8532816,38.009187568,0,0,0,288.2, 0.6, 5.1,0,0,1024,1024,1024,1024,0,0,0,0,298,-43,0,95,4.153,4.163,4.155,4.161,0,0,7.23,74.84,87.667856151828,33.792652,6,P-GPS,
25200,2023-06-05 17:50:00,52.2064189656421,0.0865565881621662,33.792652,33.4973764,54.170479751828,87.667856151828,32.152232,0,37.84120856,44.3651589,23,5,16.619,87.667856151828,33.792652,14.8532816,38.009187568,0,0,0,288.1, 1, 5.1,0,0,1024,1024,1024,1024,0,0,0,0,298,-45.9,0,95,4.153,4.163,4.155,4.161,0,0,7.23,74.84,87.667856151828,33.792652,6,P-GPS,
25400,2023-06-05 17:50:00,52.2064189821827,0.0865564890892253,33.792652,33.4973764,54.170479751828,87.667856151828,32.152232,0,37.86417444,44.38812478,23,5,16.619,87.667856151828,33.792652,14.8532816,38.009187568,0,0,0,288.1, 1.1, 5.2,0,0,1024,1024,1024,1024,0,0,0,0,298,-48.8,0,95,4.153,4.163,4.155,4.161,0,0,7.23,74.84,87.667856151828,33.792652,6,P-GPS,
25600,2023-06-05 17:50:00,52.2064190028996,0.0865563870805829,33.792652,33.4973764,54.170479751828,87.667856151828,32.152232,0,37.888124572,44.412074912,23,5,16.619,87.667856151828,33.792652,14.8532816,38.009187568,0,0,0,288.1, 1.3, 4.9,0,0,1024,1024,1024,1024,0,0,0,0,298,-51.8,0,95,4.153,4.163,4.155,4.161,0,0,7.23,74.84,87.667856151828,33.792652,6,P-GPS,
25800,2023-06-05 17:50:00,52.2064190752837,0.086556316931293,33.792652,33.4973764,54.170479751828,87.667856151828,32.152232,0,37.909778116,44.442914808,23,5,16.619,87.667856151828,33.792652,14.8532816,38.009187568,0,0,0,288.2, 1.5, 4.2,0,0,1024,1024,1024,1024,0,0,0,0,298,-54.7,0,95,4.153,4.163,4.155,4.161,0,0,7.23,74.84,87.667856151828,33.792652,6,P-GPS,
26000,2023-06-05 17:50:01,52.2064191174672,0.0865562838836802,33.792652,33.4973764,54.170479751828,87.667856151828,32.152232,0,37.920604888,44.459975176,23,5,16.614,87.667856151828,33.792652,14.8532816,38.009187568,0,0,0,288.1, 1.5, 4,0,0,1024,1024,1024,1024,0,0,0,0,298,-57.6,0,95,4.151,4.16,4.152,4.156,0,0,7.208,74.84,87.667856151828,33.792652,6,P-GPS,
26200,2023-06-05 17:50:01,52.2064191277753,0.0865563127094745,33.792652,33.4973764,54.170479751828,87.667856151828,32.152232,0,37.91502746,44.467193024,23,5,16.614,87.667856151828,33.792652,14.8532816,38.009187568,0,0,0,288.1, 0.5, 4.2,0,0,1024,1024,1024,1024,0,0,0,0,298,-60.5,0,95,4.151,4.16,4.152,4.156,0,0,7.208,74.84,87.667856151828,33.792652,6,P-GPS,
26400,2023-06-05 17:50:01,52.2064191271435,0.0865563458829031,33.792652,33.4973764,54.170479751828,87.667856151828,31.824148,0,37.907809612,44.474738956,23,5,16.614,87.667856151828,33.792652,14.8532816,38.009187568,0,0,0,288.1, 0, 4.2,0,0,1024,1024,1024,1024,0,0,0,0,298,-63.4,0,95,4.151,4.16,4.152,4.156,0,0,7.208,74.84,87.667856151828,33.792652,6,P-GPS,
26600,2023-06-05 17:50:01,52.20641911222,0.0865563893732261,33.792652,33.4973764,54.170479751828,87.667856151828,32.152232,0,37.89698284,44.485893812,23,5,16.614,87.667856151828,33.792652,14.8532816,38.009187568,0,0,0,288.2, 0, 4.1,0,0,1024,1024,1024,1024,0,0,0,0,298,-66.4,0,95,4.151,4.16,4.152,4.156,0,0,7.208,74.84,87.667856151828,33.792652,6,P-GPS,
26800,2023-06-05 17:50:01,52.2064191171288,0.0865564590891504,33.792652,33.4973764,54.170479751828,87.667856151828,32.152232,0,37.88221906,44.501641844,23,5,16.614,87.667856151828,33.792652,14.8532816,38.009187568,0,0,0,288.1, -0.2, 4,0,0,1024,1024,1024,1024,0,0,0,0,298,-69.3,0,95,4.151,4.16,4.152,4.156,0,0,7.208,74.84,87.667856151828,33.792652,6,P-GPS,
27000,2023-06-05 17:50:02,52.2064190986649,0.086556525813455,33.792652,33.4973764,54.170479751828,87.667856151828,32.152232,0,37.866142944,44.518046044,23,5,16.627,87.667856151828,33.792652,14.8532816,38.009187568,0,0,0,288.2, -0.9, 3.6,0,0,1024,1024,1024,1024,0,0,0,0,298,-72.2,0,95,4.154,4.161,4.156,4.159,0,0,7.149,74.84,87.667856151828,33.792652,6,P-GPS,
27200,2023-06-05 17:50:02,52.2064191014406,0.0865564814564011,33.792652,33.4973764,54.170479751828,87.667856151828,32.152232,0,37.876313548,44.527888564,23,5,16.627,87.667856151828,33.792652,14.8532816,38.009187568,0,0,0,288, 0, 3.9,0,0,1024,1024,1024,1024,0,0,0,0,298,-75.1,0,95,4.154,4.161,4.156,4.159,0,0,7.149,74.84,87.667856151828,33.792652,6,P-GPS,
27400,2023-06-05 17:50:02,52.2064190751295,0.0865563570805079,33.792652,33.4973764,54.170479751828,87.667856151828,32.480316,0,37.900919848,44.557416124,23,5,16.627,87.667856151828,33.792652,14.8532816,38.009187568,0,0,0,288.1, 0.5, 4.2,0,0,1024,1024,1024,1024,0,0,0,0,298,-78,0,95,4.154,4.161,4.156,4.159,0,0,7.149,74.84,87.667856151828,33.792652,6,P-GPS,
27600,2023-06-05 17:50:02,52.2064190379619,0.0865562791306394,33.792652,33.4973764,54.170479751828,87.667856151828,32.152232,0,37.914699376,44.579397752,23,5,16.627,87.667856151828,33.792652,14.8532816,38.009187568,0,0,0,288.1, 0.6, 4.2,0,0,1024,1024,1024,1024,0,0,0,0,298,-80.9,0,95,4.154,4.161,4.156,4.159,0,0,7.149,74.84,87.667856151828,33.792652,6,P-GPS,
27800,2023-06-05 17:50:02,52.2064189808912,0.0865562408966203,33.792652,33.4973764,54.170479751828,87.667856151828,32.152232,0,37.9183083,44.602035548,23,5,16.627,87.667856151828,33.792652,14.8532816,38.009187568,0,0,0,288.2, 0.6, 4.6,0,0,1024,1024,1024,1024,0,0,0,0,298,-83.8,0,95,4.154,4.161,4.156,4.159,0,0,7.149,74.84,87.667856151828,33.792652,6,P-GPS,
28000,2023-06-05 17:50:03,52.2064189144248,0.086556256637573,33.792652,33.4973764,54.170479751828,87.667856151828,32.152232,0,37.909121948,44.626313764,23,5,16.619,87.667856151828,33.792652,14.8532816,38.009187568,0,0,0,288.3, 0.4, 4.7,0,0,1024,1024,1024,1024,0,0,0,0,298,-86.8,0,95,4.151,4.159,4.155,4.155,0,0,7.113,75.02,87.667856151828,33.792652,6,P-GPS,
28200,2023-06-05 17:50:03,52.2064188417837,0.086556368152297,33.792652,33.4973764,54.170479751828,87.667856151828,32.152232,0,37.878610136,44.662731088,23,5,16.619,87.667856151828,33.792652,14.8532816,38.009187568,0,0,0,288.1, -0.6, 5.2,0,0,1024,1024,1024,1024,0,0,0,0,298,-89.7,0,95,4.151,4.159,4.155,4.155,0,0,7.113,75.02,87.667856151828,33.792652,6,P-GPS,
28400,2023-06-05 17:50:03,52.2064187687828,0.0865564862234214,33.792652,33.4973764,54.170479751828,87.667856151828,32.152232,0,37.846785988,44.700460748,23,5,16.619,87.667856151828,33.792652,14.8532816,38.009187568,0,0,0,288, -0.9, 5.4,0,0,1024,1024,1024,1024,0,0,0,0,298,-90,0,95,4.151,4.159,4.155,4.155,0,0,7.113,75.02,87.667856151828,33.792652,6,P-GPS,
28600,2023-06-05 17:50:03,52.2064187422361,0.08655660416873,33.464568,33.1692924,54.170479751828,87.339772151828,32.152232,0,37.818898848,44.728347888,23,5,16.619,87.667856151828,33.792652,14.8532816,38.009187568,0,0,0,288, -1.6, 4.9,0,0,1024,1024,1024,1024,0,0,0,0,298,-89.9,0,95,4.151,4.159,4.155,4.155,0,0,7.113,75.02,87.339772151828,33.464568,6,P-GPS,
28800,2023-06-05 17:50:03,52.2064187421418,0.0865566588007397,33.464568,33.1692924,54.170479751828,87.339772151828,32.152232,0,37.807087824,44.740486996,23,5,16.619,87.667856151828,33.792652,14.8532816,38.009187568,0,0,0,288, -1.5, 5,0,0,1024,1024,1024,1024,0,0,0,0,298,-90,0,95,4.151,4.159,4.155,4.155,0,0,7.113,75.02,87.339772151828,33.464568,6,P-GPS,
29000,2023-06-05 17:50:04,52.2064187623041,0.0865566196720306,33.464568,33.1692924,54.170479751828,87.339772151828,32.152232,0,37.817258428,44.751969936,24,5,16.618,87.667856151828,33.792652,14.8532816,38.009187568,0,0,0,288.2, -0.4, 4.9,0,0,1024,1024,1024,1024,0,0,0,0,298,-90,0,95,4.146,4.155,4.151,4.155,0,0,7.123,75.02,87.339772151828,33.464568,6,P-GPS,
29200,2023-06-05 17:50:04,52.206418799114,0.0865565696952049,33.464568,33.1692924,54.170479751828,87.339772151828,32.152232,0,37.83136604,44.769686472,24,5,16.618,87.667856151828,33.792652,14.8532816,38.009187568,0,0,0,288.1, -0.6, 4.6,0,0,1024,1024,1024,1024,0,0,0,0,298,-89.9,0,95,4.146,4.155,4.151,4.155,0,0,7.123,75.02,87.339772151828,33.464568,6,P-GPS,
29400,2023-06-05 17:50:04,52.2064188611471,0.0865564871880091,33.464568,33.1692924,54.170479751828,87.339772151828,32.152232,0,37.85433192,44.798885948,24,5,16.618,87.667856151828,33.792652,14.8532816,38.009187568,0,0,0,288.1, -0.3, 4.6,0,0,1024,1024,1024,1024,0,0,0,0,298,-90,0,95,4.146,4.155,4.151,4.155,0,0,7.123,75.02,87.339772151828,33.464568,6,P-GPS,
29600,2023-06-05 17:50:04,52.2064189065368,0.0865563584924406,33.464568,33.1692924,54.170479751828,87.339772151828,32.152232,0,37.886156068,44.832022432,24,5,16.618,87.667856151828,33.792652,14.8532816,38.009187568,0,0,0,288.2, 1.2, 4.5,0,0,1024,1024,1024,1024,0,0,0,0,298,-90,0,95,4.146,4.155,4.151,4.155,0,0,7.123,75.02,87.339772151828,33.464568,6,P-GPS,
29800,2023-06-05 17:50:04,52.2064188892616,0.0865563761066505,33.464568,33.1692924,54.170479751828,87.339772151828,32.152232,0,37.880906724,44.83924028,24,5,16.618,87.667856151828,33.792652,14.8532816,38.009187568,0,0,0,288.1, 0, 4.7,0,0,1024,1024,1024,1024,0,0,0,0,298,-89.9,0,95,4.146,4.155,4.151,4.155,0,0,7.123,75.02,87.339772151828,33.464568,6,P-GPS,
30000,2023-06-05 17:50:05,52.206418869367,0.0865564729987844,33.464568,33.1692924,54.170479751828,87.339772151828,32.152232,0,37.858268928,44.86220616,24,5,16.618,87.667856151828,33.792652,14.8532816,38.009187568,0,0,0,288, -1.1, 5.1,0,0,1024,1024,1024,1024,0,0,0,0,298,-89.9,0,95,4.151,4.158,4.151,4.153,0,0,7.109,75.02,87.339772151828,33.464568,6,P-GPS,
30200,2023-06-05 17:50:05,52.2064188597806,0.0865565689822488,33.464568,33.1692924,54.170479751828,87.339772151828,32.152232,0,37.836615384,44.883859704,24,5,16.618,87.667856151828,33.792652,14.8532816,38.009187568,0,0,0,288, -1.4, 5.1,0,0,1024,1024,1024,1024,0,0,0,0,298,-89.9,0,95,4.151,4.158,4.151,4.153,0,0,7.109,75.02,87.339772151828,33.464568,6,P-GPS,
30400,2023-06-05 17:50:05,52.2064188750448,0.0865565937399993,33.464568,33.1692924,54.170479751828,87.339772151828,32.152232,0,37.832350292,44.89173372,24,5,16.618,87.667856151828,33.792652,14.8532816,38.009187568,0,0,0,288, -1, 4.5,0,0,1024,1024,1024,1024,0,0,0,0,298,-89.9,0,95,4.151,4.158,4.151,4.153,0,0,7.109,75.02,87.339772151828,33.464568,6,P-GPS,
30600,2023-06-05 17:50:05,52.2064188948108,0.0865565268758994,33.464568,33.1692924,54.170479751828,87.339772151828,29.52756,0,37.848754492,44.908466004,24,5,16.618,87.667856151828,33.792652,14.8532816,38.009187568,0,0,0,288.2, -0.9, 4.8,0,0,1024,1024,1024,1024,0,0,0,0,298,-90,0,95,4.151,4.158,4.151,4.153,0,0,7.109,75.02,87.339772151828,33.464568,6,P-GPS,
30800,2023-06-05 17:50:05,52.2064189359491,0.0865564091263043,33.464568,33.1692924,54.170479751828,87.339772151828,29.52756,0,37.877625884,44.938649732,24,5,16.618,87.667856151828,33.792652,14.8532816,38.009187568,0,0,0,288.2, 0.2, 4.6,0,0,1024,1024,1024,1024,0,0,0,0,298,-89.9,0,95,4.151,4.158,4.151,4.153,0,0,7.109,75.02,87.339772151828,33.464568,6,P-GPS,
31000,2023-06-05 17:50:06,52.2064189808205,0.0865563484271778,33.464568,33.1692924,54.170479751828,87.339772151828,29.52756,0,37.894686252,44.959975192,23,5,16.61,87.667856151828,33.792652,14.8532816,38.009187568,0,0,0,287.9, -0.1, 4.7,0,0,1024,1024,1024,1024,0,0,0,0,298,-89.9,0,94,4.148,4.157,4.152,4.155,0,0,7.146,75.02,87.339772151828,33.464568,6,P-GPS,
31200,2023-06-05 17:50:06,52.2064190132078,0.0865563077886793,33.464568,33.1692924,54.170479751828,87.339772151828,32.152232,0,37.906497276,44.974738972,23,5,16.61,87.667856151828,33.792652,14.8532816,38.009187568,0,0,0,288.1, -0.1, 4.7,0,0,1024,1024,1024,1024,0,0,0,0,298,-90,0,94,4.148,4.157,4.152,4.155,0,0,7.146,75.02,87.339772151828,33.464568,6,P-GPS,
31400,2023-06-05 17:50:06,52.2064190269341,0.0865562711343473,33.464568,33.1692924,54.170479751828,87.339772151828,32.152232,0,37.915355544,44.984581492,23,5,16.61,87.667856151828,33.792652,14.8532816,38.009187568,0,0,0,288.2, -0.2, 4.5,0,0,1024,1024,1024,1024,0,0,0,0,298,-90,0,94,4.148,4.157,4.152,4.155,0,0,7.146,75.02,87.339772151828,33.464568,6,P-GPS,
31600,2023-06-05 17:50:06,52.2064190254628,0.086556241861208,33.464568,33.1692924,54.170479751828,87.339772151828,32.152232,0,37.92158914,44.991143172,23,5,16.61,87.667856151828,33.792652,14.8532816,38.009187568,0,0,0,288.3, 0.1, 4.6,0,0,1024,1024,1024,1024,0,0,0,0,298,-89.9,0,94,4.148,4.157,4.152,4.155,0,0,7.146,75.02,87.339772151828,33.464568,6,P-GPS,
31800,2023-06-05 17:50:06,52.2064190414786,0.0865563263255383,33.464568,33.1692924,54.170479751828,87.339772151828,32.152232,0,37.904856856,45.010828212,23,5,16.61,87.667856151828,33.792652,14.8532816,38.009187568,0,0,0,288.2, -0.3, 4,0,0,1024,1024,1024,1024,0,0,0,0,298,-89.9,0,94,4.148,4.157,4.152,4.155,0,0,7.146,75.02,87.339772151828,33.464568,6,P-GPS,
32000,2023-06-05 17:50:07,52.2064190311983,0.0865564425933031,33.464568,33.1692924,54.170479751828,87.339772151828,32.152232,0,37.878610136,45.037074932,24,5,16.608,87.667856151828,33.792652,14.8532816,38.009187568,0,0,0,287.9, -1.4, 4.3,0,0,1024,1024,1024,1024,0,0,0,0,298,-89.9,0,94,4.147,4.158,4.151,4.156,0,0,7.124,75.02,87.339772151828,33.464568,6,P-GPS,
32200,2023-06-05 17:50:07,52.2064190230554,0.0865564560835511,33.464568,33.1692924,54.170479751828,87.339772151828,32.152232,0,37.875001212,45.041340024,24,5,16.608,87.667856151828,33.792652,14.8532816,38.009187568,0,0,0,288.1, -1.1, 4.3,0,0,1024,1024,1024,1024,0,0,0,0,298,-89.9,0,94,4.147,4.158,4.151,4.156,0,0,7.124,75.02,87.339772151828,33.464568,6,P-GPS,
32400,2023-06-05 17:50:07,52.2064190087937,0.0865563177700649,33.464568,33.1692924,54.170479751828,87.339772151828,32.152232,0,37.903872604,45.072836088,24,5,16.608,87.667856151828,33.792652,14.8532816,38.009187568,0,0,0,288.1, 0.4, 4.7,0,0,1024,1024,1024,1024,0,0,0,0,298,-89.9,0,94,4.147,4.158,4.151,4.156,0,0,7.124,75.02,87.339772151828,33.464568,6,P-GPS,
32600,2023-06-05 17:50:07,52.2064189763186,0.0865561719915088,33.464568,33.1692924,54.170479751828,87.339772151828,32.152232,0,37.932743996,45.107284908,24,5,16.608,87.667856151828,33.792652,14.8532816,38.009187568,0,0,0,288, 1.1, 5,0,0,1024,1024,1024,1024,0,0,0,0,298,-89.9,0,94,4.147,4.158,4.151,4.156,0,0,7.124,75.02,87.339772151828,33.464568,6,P-GPS,
32800,2023-06-05 17:50:07,52.2064189481934,0.0865560884498276,33.464568,33.1692924,54.170479751828,87.339772151828,32.152232,0,37.948492028,45.128610368,24,5,16.608,87.667856151828,33.792652,14.8532816,38.009187568,0,0,0,288.2, 1.3, 5.2,0,0,1024,1024,1024,1024,0,0,0,0,298,-90,0,94,4.147,4.158,4.151,4.156,0,0,7.124,75.02,87.339772151828,33.464568,6,P-GPS,
