time(millisecond),datetime(utc),latitude,longitude,height_above_takeoff(feet),height_above_ground_at_drone_location(feet),ground_elevation_at_drone_location(feet),altitude_above_seaLevel(feet),height_sonar(feet),speed(mph),distance(feet),mileage(feet),satellites,gpslevel,voltage(v),max_altitude(feet),max_ascent(feet),max_speed(mph),max_distance(feet), xSpeed(mph), ySpeed(mph), zSpeed(mph), compass_heading(degrees), pitch(degrees), roll(degrees),isPhoto,isVideo,rc_elevator,rc_aileron,rc_throttle,rc_rudder,rc_elevator(percent),rc_aileron(percent),rc_throttle(percent),rc_rudder(percent),gimbal_heading(degrees),gimbal_pitch(degrees),gimbal_roll(degrees),battery_percent,voltageCell1,voltageCell2,voltageCell3,voltageCell4,voltageCell5,voltageCell6,current(A),battery_temperature(f),altitude(feet),ascent(feet),flycStateRaw,flycState,message
0,2023-06-09 17:17:25,52.2063692168532,0.086717149374309,0,0,53.649150666904,53.649150666904,0.328084,0,0,0,24,5,0,53.649150666904,0,0,0,0,0,0,278.8, 5, 0.4,0,0,1024,1024,1024,1024,0,0,0,0,278.9,0,0,100,4.29,4.29,4.286,4.288,0,0,0,75.92,53.649150666904,0,41,Motors_Started,"Setting new Return-To-Home altitude to 26m (85 ft). Data Recorder File Index is 36. Setting new Maximum Flight Altitude to 120m (394 ft) Aircraft not in flight. Vision systems and obstacle avoidance disabled (Code: 180059)"
200,2023-06-09 17:17:25,52.206369307243,0.0867172620672604,0,0,53.649150666904,53.649150666904,0.328084,0,0.041502626,0.041502626,24,5,0,53.649150666904,0,0,0.041502626,0,0,0,278.8, 5.1, 0.4,0,0,1024,1024,1024,1024,0,0,0,0,278.9,0,0,100,4.29,4.29,4.286,4.288,0,0,0,75.92,53.649150666904,0,41,Motors_Started,
400,2023-06-09 17:17:26,52.2063693900899,0.0867173692839585,0,0,53.649150666904,53.649150666904,0.328084,0,0.080078086552,0.080081367392,24,5,0,53.649150666904,0,0,0.080078086552,0,0,0,278.9, 5.1, 0.5,0,0,1024,1024,1024,1024,0,0,0,0,278.9,0,0,100,4.29,4.29,4.286,4.288,0,0,0,75.92,53.649150666904,0,41,Motors_Started,
600,2023-06-09 17:17:26,52.2063694801301,0.0867174825308478,0,0,53.649150666904,53.649150666904,0,0,0.121554465832,0.121558074756,24,5,0,53.649150666904,0,0,0.121554465832,0,0,0,278.8, 5.1, 0.4,0,0,1024,1024,1024,1024,0,0,0,0,278.9,0,0,100,4.29,4.29,4.286,4.288,0,0,0,75.92,53.649150666904,0,41,Motors_Started,
800,2023-06-09 17:17:26,52.2063695628854,0.0867175982966694,0,0,53.649150666904,53.649150666904,0,0,0.16128773482,0.161327432984,25,5,0,53.649150666904,0,0,0.16128773482,0,0,0,278.9, 5.1, 0.4,0,0,1024,1024,1024,1024,0,0,0,0,278.9,0,0,100,4.29,4.29,4.286,4.288,0,0,0,75.92,53.649150666904,0,41,Motors_Started,
1000,2023-06-09 17:17:26,52.2063696913135,0.0867177115907395,0,0,53.649150666904,53.649150666904,0,0,0.213933077712,0.21459318272,25,5,17.179,53.649150666904,0,0,0.213933077712,0,0,0,278.8, 5.1, 0.4,0,0,1024,1024,1024,1024,0,0,0,0,278.9,0,0,100,4.29,4.29,4.286,4.288,0,0,2.769,75.92,53.649150666904,0,41,Motors_Started,
1200,2023-06-09 17:17:26,52.2063699211046,0.0867178351656445,0,0,53.649150666904,53.649150666904,0,0,0.299219497764,0.30286746376,25,5,17.179,53.649150666904,0,0,0.299219497764,0,0,0,278.9, 5.1, 0.4,0,0,1024,1024,1024,1024,0,0,0,0,278.9,0,0,100,4.29,4.29,4.286,4.288,0,0,2.769,75.92,53.649150666904,0,41,Motors_Started,
1400,2023-06-09 17:17:27,52.2063702249955,0.0867179733944578,0,0,53.649150666904,53.649150666904,0,0,0.4113845276,0.41796917348,25,5,17.179,53.649150666904,0,0,0.4113845276,0,0,0,278.9, 5.1, 0.4,0,0,1024,1024,1024,1024,0,0,0,0,278.9,0,0,100,4.29,4.29,4.286,4.288,0,0,2.769,75.92,53.649150666904,0,41,Motors_Started,
1600,2023-06-09 17:17:27,52.2063705614563,0.0867181086960935,0,0,53.649150666904,53.649150666904,0,0,0.53541996464,0.54439962372,25,5,17.179,53.649150666904,0,0,0.53541996464,0,0,0,279, 5.1, 0.4,0,0,1024,1024,1024,1024,0,0,0,0,278.9,0,0,100,4.29,4.29,4.286,4.288,0,0,2.769,75.92,53.649150666904,0,11,AutoTakeoff,
1800,2023-06-09 17:17:27,52.2063710088177,0.0867182785119292,0,0,53.649150666904,53.649150666904,0,0,0.70084647912,0.7119750884,25,5,17.179,53.649150666904,0,0,0.70084647912,0,0,0,279.1, 5.1, 0.4,0,0,1024,1024,1024,1024,0,0,0,0,278.9,0,0,100,4.29,4.29,4.286,4.288,0,0,2.769,75.92,53.649150666904,0,11,AutoTakeoff,
2000,2023-06-09 17:17:27,52.2063714355414,0.0867184908202221,0,0,53.649150666904,53.649150666904,0,0,0.86326446332,0.87474084164,25,5,17.26,53.649150666904,0,0,0.86326446332,0,0,0,279.4, 1.6, 0.6,0,0,1024,1024,1024,1024,0,0,0,0,278.9,0,0,100,4.32,4.312,4.306,4.305,0,0,3.674,75.92,53.649150666904,0,11,AutoTakeoff,
2200,2023-06-09 17:17:27,52.206371786695,0.0867187691037034,0,0,53.649150666904,53.649150666904,0,0,1.00511486156,1.01716866772,25,5,17.26,53.649150666904,0,0,1.00511486156,0,0,-0.671082,279.8, -1.5, 0.8,0,0,1024,1024,1024,1024,0,0,0,0,278.9,0,0,100,4.32,4.312,4.306,4.305,0,0,3.674,75.92,53.649150666904,0,11,AutoTakeoff,
2400,2023-06-09 17:17:28,52.2063721320459,0.0867189235283209,0.328084,0.328084,53.649150666904,53.977234666904,0.328084,0,1.13517064,1.14781499736,25,5,17.26,53.977234666904,0.328084,0,1.13517064,0,0,-0.894776,279.5, 0.4, 0.8,0,0,1024,1024,1024,1024,0,0,0,0,279,0,0,100,4.32,4.312,4.306,4.305,0,0,3.674,75.92,53.977234666904,0.328084,11,AutoTakeoff,
2600,2023-06-09 17:17:28,52.2063724740102,0.0867190858806292,0.656168,0.656168,53.649150666904,54.305318666904,0.656168,0,1.26479006672,1.2777559464,25,5,17.26,54.305318666904,0.656168,0,1.26479006672,0,0,-0.894776,279.7, 0, 0.6,0,0,1024,1024,1024,1024,0,0,0,0,279,0,0,100,4.32,4.312,4.306,4.305,0,0,3.674,75.92,54.305318666904,0.656168,11,AutoTakeoff,
2800,2023-06-09 17:17:28,52.2063727539145,0.0867192476179484,0.984252,0.984252,53.649150666904,54.633402666904,0.984252,0,1.37312340352,1.38609256404,26,5,17.26,54.633402666904,0.984252,0,1.37312340352,0,0,-0.894776,279.6, -0.1, 1.8,0,0,1024,1024,1453,1024,0,0,65,0,279,0,0,100,4.32,4.312,4.306,4.305,0,0,3.674,75.92,54.633402666904,0.984252,11,AutoTakeoff,
3000,2023-06-09 17:17:28,52.2063730286325,0.0867193760301721,1.312336,1.312336,53.649150666904,54.961486666904,1.312336,0,1.4771489974,1.4903543784,26,5,16.991,54.961486666904,1.312336,0,1.4771489974,0,0,-0.894776,279.5, -0.4, 3.1,0,0,1024,1024,1684,1024,0,0,100,0,279,0,0,100,4.246,4.248,4.244,4.247,0,0,5.995,75.74,54.961486666904,1.312336,11,AutoTakeoff,
3200,2023-06-09 17:17:28,52.2063733658778,0.0867194947653692,1.64042,1.64042,53.649150666904,55.289570666904,1.64042,0,1.60202761032,1.61622708584,27,5,16.991,55.289570666904,1.64042,0,1.60202761032,0,0,-1.789552,279.7, -0.5, 2.3,0,0,1024,1024,1684,1024,0,0,100,0,279,0,0,100,4.246,4.248,4.244,4.247,0,0,5.995,75.74,55.289570666904,1.64042,11,AutoTakeoff,
3400,2023-06-09 17:17:29,52.2063738012626,0.0867195976281952,2.624672,2.624672,53.649150666904,56.273822666904,2.624672,0,1.75991475448,1.77673562116,27,5,16.991,56.273822666904,2.624672,0,1.75991475448,0,0,-3.579104,279.6, -0.5, 2.2,0,0,1024,1024,1645,1024,0,0,94,0,279.1,0,0,100,4.246,4.248,4.244,4.247,0,0,5.995,75.74,56.273822666904,2.624672,11,AutoTakeoff,
3600,2023-06-09 17:17:29,52.2063742544843,0.0867196684428115,3.937008,3.937008,53.649150666904,57.586158666904,3.937008,0,1.92233930036,1.9428478312,27,5,16.991,57.586158666904,3.937008,0,1.92233930036,0,0,-5.59235,279.8, -0.2, 1.9,0,0,1024,1024,1648,1024,0,0,95,0,279.1,0,0,100,4.246,4.248,4.244,4.247,0,0,5.995,75.74,57.586158666904,3.937008,11,AutoTakeoff,
3800,2023-06-09 17:17:29,52.2063747733424,0.0867197418783464,6.233596,6.233596,53.649150666904,59.882746666904,6.233596,0,2.10852040868,2.13286424148,27,5,16.991,59.882746666904,6.233596,0,2.10852040868,0,0,-7.82929,279.6, -0.1, 1.2,0,0,1024,1024,1455,1024,0,0,65,0,279.1,0,0,100,4.246,4.248,4.244,4.247,0,0,5.995,75.74,59.882746666904,6.233596,6,P-GPS,
4000,2023-06-09 17:17:29,52.2063752741147,0.0867197935615577,9.514436,9.514436,53.649150666904,63.163586666904,8.858268,0,2.28770020444,2.31593511348,27,5,16.698,63.163586666904,9.514436,0,2.28770020444,0,0,-10.06623,279.2, 0.2, 0.2,0,0,1024,1024,1024,1024,0,0,0,0,279.1,0,0,100,4.152,4.155,4.146,4.146,0,0,9.769,75.92,63.163586666904,9.514436,6,P-GPS,
4200,2023-06-09 17:17:29,52.2063757190822,0.086719746002782,13.12336,13.12336,53.649150666904,66.772510666904,11.811024,0,2.44234259784,2.47862868824,27,5,16.698,66.772510666904,13.12336,0,2.44234259784,0,0,-9.842536,279, 2, 0.4,0,0,1024,1024,1024,1024,0,0,0,0,279.1,0,0,100,4.152,4.155,4.146,4.146,0,0,9.769,75.92,66.772510666904,13.12336,6,P-GPS,
4400,2023-06-09 17:17:30,52.2063760667371,0.0867196882819649,15.748032,15.748032,53.649150666904,69.397182666904,14.435696,0,2.56283472768,2.60612541148,27,5,16.698,69.397182666904,15.748032,0,2.56283472768,0,0,-8.052984,279.2, 1.8, 1.1,0,0,1024,1024,1024,1024,0,0,0,0,279.1,0,0,100,4.152,4.155,4.146,4.146,0,0,9.769,75.92,69.397182666904,15.748032,6,P-GPS,
4600,2023-06-09 17:17:30,52.2063763193651,0.0867194938968378,17.060368,17.060368,53.649150666904,70.709518666904,16.4042,0.223694,2.64383538644,2.70803158272,27,5,16.698,70.709518666904,17.060368,0.223694,2.64383538644,0,-0.223694,-5.59235,279.2, 3, 2.4,0,0,1024,1024,1472,1024,0,0,68,0,279.1,0,0,100,4.152,4.155,4.146,4.146,0,0,9.769,75.92,70.709518666904,17.060368,6,P-GPS,
4800,2023-06-09 17:17:30,52.2063764498889,0.086719188125647,18.372704,18.372704,53.649150666904,72.021854666904,17.716536,0.3131716,2.67804798596,2.79134851452,28,5,16.698,72.021854666904,18.372704,0.3131716,2.67804798596,-0.223694,-0.223694,-3.35541,279.5, 4.6, 3.9,0,0,1024,1024,1684,1024,0,0,100,0,279.1,0,0,100,4.152,4.155,4.146,4.146,0,0,9.769,75.92,72.021854666904,18.372704,6,P-GPS,
5000,2023-06-09 17:17:30,52.2063764890841,0.0867188798683565,19.68504,19.68504,53.649150666904,73.334190666904,18.700788,0.223694,2.6813321068,2.86173893672,28,5,17.006,73.334190666904,19.68504,0.3131716,2.6813321068,-0.223694,0,-2.908022,279.6, 4.9, 4.3,0,0,1024,1024,1684,1024,0,0,100,0,279.1,0,0,100,4.266,4.269,4.267,4.272,0,0,10.191,75.92,73.334190666904,19.68504,6,P-GPS,
5200,2023-06-09 17:17:30,52.2063765278965,0.0867189401810257,22.309712,22.309712,53.649150666904,75.958862666904,20.013124,0.223694,2.69731307844,2.88129274312,29,5,17.006,75.958862666904,22.309712,0.3131716,2.69731307844,-0.223694,0,-4.697574,279.4, 4, 5.2,0,0,1024,1024,1684,1024,0,0,100,0,279.1,0,0,100,4.266,4.269,4.267,4.272,0,0,10.191,75.92,75.958862666904,22.309712,6,P-GPS,
5400,2023-06-09 17:17:31,52.2063765573854,0.0867194110155525,25.918636,25.918636,53.649150666904,79.567786666904,21.653544,0.3131716,2.7255086174,2.98711295648,28,5,17.006,79.567786666904,25.918636,0.3131716,2.7255086174,-0.223694,0.223694,-7.158208,279.4, -0.9, 8.6,0,0,1024,1024,1684,1024,0,0,100,0,279.1,0,0,100,4.266,4.269,4.267,4.272,0,0,10.191,75.92,79.567786666904,25.918636,6,P-GPS,
5600,2023-06-09 17:17:31,52.2063769709327,0.0867197278805755,28.543308,28.543308,53.649150666904,82.192458666904,24.278216,0.223694,2.88721794016,3.15379931352,28,5,17.006,82.192458666904,28.543308,0.3131716,2.88721794016,0.223694,0,-9.395148,279.7, 1.4, 5.8,0,0,1024,1024,1680,1024,0,0,99,0,279.1,0,0,100,4.266,4.269,4.267,4.272,0,0,10.191,75.92,82.192458666904,28.543308,6,P-GPS,
5800,2023-06-09 17:17:31,52.2063775964317,0.0867200121829288,32.152232,32.152232,53.649150666904,85.801382666904,27.559056,0.223694,3.12356965376,3.3907153316,28,5,17.006,85.801382666904,32.152232,0.3131716,3.12356965376,0.223694,0,-11.855782,282.2, 3.1, 2.2,0,0,1024,1024,1648,1024,0,0,95,0,279.1,0,0,100,4.266,4.269,4.267,4.272,0,0,10.191,75.92,85.801382666904,32.152232,6,P-GPS,
6000,2023-06-09 17:17:31,52.2063779503297,0.0867201796110539,36.417324,36.417324,53.649150666904,90.066474666904,31.16798,0,3.25763789952,3.5251313464,28,5,16.481,90.066474666904,36.417324,0.3131716,3.25763789952,0,0,-12.750558,282.5, 3.7, 6.5,0,0,1024,1024,1024,1024,0,0,0,0,279.1,0,0,100,4.099,4.094,4.087,4.088,0,0,12.145,75.74,90.066474666904,36.417324,6,P-GPS,
6200,2023-06-09 17:17:31,52.2063780733784,0.0867202889969236,39.698164,39.698164,53.649150666904,93.347314666904,35.104988,0.223694,3.3066602108,3.5762468336,28,5,16.481,93.347314666904,39.698164,0.3131716,3.3066602108,-0.223694,0,-11.1847,280.4, 4.4, 10,0,0,1024,1024,1024,1024,0,0,0,0,279.1,0,0,100,4.099,4.094,4.087,4.088,0,0,12.145,75.74,93.347314666904,39.698164,6,P-GPS,
6400,2023-06-09 17:17:32,52.2063781512516,0.0867202517755049,41.994752,41.994752,53.649150666904,95.643902666904,38.057744,0.223694,3.3327100804,3.6058728188,28,5,16.481,95.643902666904,41.994752,0.3131716,3.3327100804,-0.223694,0,-8.94776,282.2, 5, 11.3,0,0,1024,1024,1034,1024,0,0,2,0,279.1,0,0,100,4.099,4.094,4.087,4.088,0,0,12.145,75.74,95.643902666904,41.994752,6,P-GPS,
6600,2023-06-09 17:17:32,52.206378197137,0.0867201613443168,43.307088,43.307088,53.649150666904,96.956238666904,40.682416,0.223694,3.3449476136,3.6321195388,28,5,16.481,96.956238666904,43.307088,0.3131716,3.3449476136,-0.223694,0,-6.71082,282.4, 5.5, 12.4,0,0,1024,1024,1024,1024,0,0,0,0,279.1,0,0,100,4.099,4.094,4.087,4.088,0,0,12.145,75.74,96.956238666904,43.307088,6,P-GPS,
6800,2023-06-09 17:17:32,52.2063782297309,0.0867200392593487,44.29134,44.29134,53.649150666904,97.940490666904,38.713912,0.223694,3.351214018,3.6618767576,28,5,16.481,97.940490666904,44.29134,0.3131716,3.351214018,-0.223694,0,-4.250186,282.3, 6.1, 13.4,0,0,1024,1024,1024,1024,0,0,0,0,279.1,0,0,100,4.099,4.094,4.087,4.088,0,0,12.145,75.74,97.940490666904,44.29134,6,P-GPS,
7000,2023-06-09 17:17:32,52.2063782600792,0.086719922463344,44.619424,44.619424,53.649150666904,98.268574666904,39.698164,0,3.3571523384,3.6902560236,28,5,16.847,98.268574666904,44.619424,0.3131716,3.3571523384,0,0,-1.789552,282.1, 6.5, 14.3,0,0,1024,1024,1024,1024,0,0,0,0,279.1,0,0,100,4.261,4.267,4.263,4.267,0,0,13.035,76.1,98.268574666904,44.619424,6,P-GPS,
7200,2023-06-09 17:17:32,52.2063784022417,0.0867199792307748,44.619424,44.619424,53.649150666904,98.268574666904,39.37008,0,3.4104987968,3.7436680988,28,5,16.847,98.268574666904,44.619424,0.3131716,3.4104987968,0,0,-0.223694,281.9, 5.8, 13.3,0,0,1024,1024,1024,1024,0,0,0,0,279.1,0,0,100,4.261,4.267,4.263,4.267,0,0,13.035,76.1,98.268574666904,44.619424,6,P-GPS,
7400,2023-06-09 17:17:33,52.2063788121202,0.0867203444998781,44.29134,44.29134,53.649150666904,97.940490666904,39.37008,0.3131716,3.5729659936,3.91404212,28,5,16.847,98.268574666904,44.619424,0.3131716,3.5729659936,0.223694,0.223694,0,281.7, 4.7, 10.9,0,0,1024,1024,1024,1024,0,0,0,0,279.1,0,0,100,4.261,4.267,4.263,4.267,0,0,13.035,76.1,97.940490666904,44.29134,6,P-GPS,
7600,2023-06-09 17:17:33,52.2063794337148,0.0867208765671549,44.29134,44.29134,53.649150666904,97.940490666904,39.37008,0.4921268,3.8196195448,4.1701444904,28,5,16.847,98.268574666904,44.619424,0.4921268,3.8196195448,0.447388,0.223694,0,281.9, 3.7, 8.5,0,0,1024,1024,1024,1024,0,0,0,0,279.1,0,0,100,4.261,4.267,4.263,4.267,0,0,13.035,76.1,97.940490666904,44.29134,6,P-GPS,
7800,2023-06-09 17:17:33,52.2063801404357,0.0867215120084584,44.29134,44.29134,53.649150666904,97.940490666904,39.698164,0.4921268,4.1030841208,4.4645342636,28,5,16.847,98.268574666904,44.619424,0.4921268,4.1030841208,0.447388,0.223694,0,282.2, 3.2, 6.8,0,0,1024,1024,1024,1024,0,0,0,0,279.1,0,0,100,4.261,4.267,4.263,4.267,0,0,13.035,76.1,97.940490666904,44.29134,6,P-GPS,
8000,2023-06-09 17:17:33,52.2063808144994,0.0867221181349554,44.29134,44.29134,53.649150666904,97.940490666904,40.026248,0.3131716,4.3748032896,4.7453413592,28,5,16.973,98.268574666904,44.619424,0.4921268,4.3748032896,0.223694,0.223694,0,282.2, 2.9, 5.9,0,0,1024,1024,1024,1024,0,0,0,0,279.1,0,0,100,4.227,4.232,4.227,4.228,0,0,5.032,76.28,97.940490666904,44.29134,6,P-GPS,
8200,2023-06-09 17:17:33,52.206381362651,0.086722640510011,44.29134,44.29134,53.649150666904,97.940490666904,40.682416,0.3131716,4.5983269188,4.9769358548,28,5,16.973,98.268574666904,44.619424,0.4921268,4.5983269188,0.223694,0.223694,0,282.1, 2.6, 5.6,0,0,1024,1024,1062,1024,0,0,6,0,279.1,0,0,100,4.227,4.232,4.227,4.228,0,0,5.032,76.28,97.940490666904,44.29134,6,P-GPS,
8400,2023-06-09 17:17:34,52.2063818120412,0.0867230913093386,44.29134,44.29134,53.649150666904,97.940490666904,41.0105,0,4.7835303368,5.1693899292,28,5,16.973,98.268574666904,44.619424,0.4921268,4.7835303368,0,0,0,282.1, 2.5, 5.9,0,0,1024,1024,1684,1024,0,0,100,0,279.1,0,0,100,4.227,4.232,4.227,4.228,0,0,5.032,76.28,97.940490666904,44.29134,6,P-GPS,
8600,2023-06-09 17:17:34,52.2063821333656,0.0867234045618998,44.29134,44.29134,53.649150666904,97.940490666904,41.338584,0,4.9157481888,5.3059712984,28,5,16.973,98.268574666904,44.619424,0.4921268,4.9157481888,0,0,-0.223694,282.1, 2.3, 6.1,0,0,1024,1024,1684,1024,0,0,100,0,279.1,0,0,100,4.227,4.232,4.227,4.228,0,0,5.032,76.28,97.940490666904,44.29134,6,P-GPS,
8800,2023-06-09 17:17:34,52.2063823526732,0.0867236158381119,44.947508,44.947508,53.649150666904,98.596658666904,41.666668,0,5.0059384804,5.3988846872,28,5,16.973,98.596658666904,44.947508,0.4921268,5.0059384804,0,0,-2.460634,282.1, 2.7, 6.1,0,0,1024,1024,1192,1024,0,0,25,0,279.1,0,0,100,4.227,4.232,4.227,4.228,0,0,5.032,76.28,98.596658666904,44.947508,6,P-GPS,
9000,2023-06-09 17:17:34,52.2063825214199,0.0867237594587554,45.93176,45.93176,53.649150666904,99.580910666904,42.979004,0,5.0741799524,5.4683072616,28,5,16.907,99.580910666904,45.93176,0.4921268,5.0741799524,0,0,-4.921268,282.4, 3.3, 7.3,0,0,1024,1024,1024,1024,0,0,0,0,279.1,0,0,100,4.159,4.168,4.161,4.164,0,0,7.157,76.28,99.580910666904,45.93176,6,P-GPS,
9200,2023-06-09 17:17:34,52.2063826580418,0.0867239262910586,47.57218,47.57218,53.649150666904,101.2213306669,44.619424,0,5.1327757548,5.5305776048,28,5,16.907,101.2213306669,47.57218,0.4921268,5.1327757548,0,0,-4.921268,282.5, 3.9, 9.9,0,0,1024,1024,1024,1024,0,0,0,0,279.1,0,0,100,4.159,4.168,4.161,4.164,0,0,7.157,76.28,101.2213306669,47.57218,6,P-GPS,
9400,2023-06-09 17:17:35,52.2063827389873,0.0867240020892529,48.556432,48.556432,53.649150666904,102.2055826669,45.93176,0,5.1659778556,5.564632724,28,5,16.907,102.2055826669,48.556432,0.4921268,5.1659778556,0,0,-2.908022,281.9, 3.7, 9.5,0,0,1024,1024,1024,1024,0,0,0,0,279.1,0,0,100,4.159,4.168,4.161,4.164,0,0,7.157,76.28,102.2055826669,48.556432,6,P-GPS,
9600,2023-06-09 17:17:35,52.2063827349448,0.0867239847131633,49.2126,49.2126,53.649150666904,102.8617506669,46.259844,0,5.1634188004,5.5687993908,28,5,16.907,102.8617506669,49.2126,0.4921268,5.1659778556,0,0,-0.894776,282, 3.4, 8.7,0,0,1024,1024,1024,1024,0,0,0,0,279.1,0,0,100,4.159,4.168,4.161,4.164,0,0,7.157,76.28,102.8617506669,49.2126,6,P-GPS,
9800,2023-06-09 17:17:35,52.2063826852224,0.0867239173791232,49.2126,49.2126,53.649150666904,102.8617506669,46.259844,0,5.1416340228,5.592355822,28,5,16.907,102.8617506669,49.2126,0.4921268,5.1659778556,0,0,0,282, 3.1, 8.3,0,0,1024,1024,1024,1024,0,0,0,0,279.1,0,0,100,4.159,4.168,4.161,4.164,0,0,7.157,76.28,102.8617506669,49.2126,6,P-GPS,
10000,2023-06-09 17:17:35,52.2063825972381,0.0867238138381616,49.2126,49.2126,53.649150666904,102.8617506669,46.259844,0,5.10416683,5.6319555608,28,5,16.968,102.8617506669,49.2126,0.4921268,5.1659778556,0,0,0,282, 3.4, 9.2,0,0,1024,1024,1024,1024,0,0,0,0,279.1,0,0,100,4.245,4.247,4.242,4.244,0,0,9.447,76.64,102.8617506669,49.2126,6,P-GPS,
10200,2023-06-09 17:17:35,52.2063825354364,0.0867237744089637,49.540684,49.540684,53.649150666904,103.1898346669,45.93176,0,5.0800198476,5.6561353516,28,5,16.968,103.1898346669,49.540684,0.4921268,5.1659778556,0,0,0,281.9, 3.4, 9.7,0,0,1024,1024,1024,1024,0,0,0,0,279.1,0,0,100,4.245,4.247,4.242,4.244,0,0,9.447,76.64,103.1898346669,49.540684,6,P-GPS,
10400,2023-06-09 17:17:36,52.2063825688988,0.0867237989045538,49.540684,49.540684,53.649150666904,103.1898346669,45.93176,0,5.0933072496,5.6695211788,29,5,16.968,103.1898346669,49.540684,0.4921268,5.1659778556,0,0,0,281.9, 3.4, 10,0,0,1024,1024,1024,1024,0,0,0,0,279.1,0,0,100,4.245,4.247,4.242,4.244,0,0,9.447,76.64,103.1898346669,49.540684,6,P-GPS,
10600,2023-06-09 17:17:36,52.2063827288473,0.0867238519760025,49.540684,49.540684,53.649150666904,103.1898346669,45.93176,0,5.1525920284,5.7290684248,29,5,16.968,103.1898346669,49.540684,0.4921268,5.1659778556,0,0,0,282, 3.5, 9.4,0,0,1024,1024,1024,1024,0,0,0,0,279.1,0,0,100,4.245,4.247,4.242,4.244,0,0,9.447,76.64,103.1898346669,49.540684,6,P-GPS,
10800,2023-06-09 17:17:36,52.2063829431239,0.0867239025481775,49.540684,49.540684,53.649150666904,103.1898346669,45.603676,0,5.2306760204,5.808071052,29,5,16.968,103.1898346669,49.540684,0.4921268,5.2306760204,0,0,0,282, 3.5, 8.4,0,0,1024,1024,1024,1024,0,0,0,0,279.1,0,0,100,4.245,4.247,4.242,4.244,0,0,9.447,76.64,103.1898346669,49.540684,6,P-GPS,
11000,2023-06-09 17:17:36,52.206383171975,0.086723981198628,49.540684,49.540684,53.649150666904,103.1898346669,45.603676,0,5.3157153932,5.8934057004,29,5,16.906,103.1898346669,49.540684,0.4921268,5.3157153932,0,0,0,282.1, 3.3, 7.5,0,0,1024,1024,1024,1024,0,0,0,0,279.1,0,0,99,4.218,4.225,4.22,4.221,0,0,6.051,76.64,103.1898346669,49.540684,6,P-GPS,
11200,2023-06-09 17:17:36,52.2063833665124,0.086724055694544,49.540684,49.540684,53.649150666904,103.1898346669,45.93176,0,5.3884844244,5.9663059652,29,5,16.906,103.1898346669,49.540684,0.4921268,5.3884844244,0,0,0,282.1, 3.1, 7.4,0,0,1024,1024,1024,1024,0,0,0,0,279.1,-1.3,0,99,4.218,4.225,4.22,4.221,0,0,6.051,76.64,103.1898346669,49.540684,6,P-GPS,
11400,2023-06-09 17:17:37,52.2063835062183,0.0867240749513141,49.540684,49.540684,53.649150666904,103.1898346669,45.93176,0,5.4385500428,6.0174542608,29,5,16.906,103.1898346669,49.540684,0.4921268,5.4385500428,0,0,0,282, 3.6, 7.9,0,0,1024,1024,1024,1024,0,0,0,0,279.1,-3.9,0,99,4.218,4.225,4.22,4.221,0,0,6.051,76.64,103.1898346669,49.540684,6,P-GPS,
11600,2023-06-09 17:17:37,52.2063836195886,0.0867241045472397,49.540684,49.540684,53.649150666904,103.1898346669,45.93176,0,5.4801182856,6.0593505876,29,5,16.906,103.1898346669,49.540684,0.4921268,5.4801182856,0,0,0,281.2, 3.6, 8.1,0,0,1024,1024,1024,1024,0,0,0,0,279.1,-6.8,0,99,4.218,4.225,4.22,4.221,0,0,6.051,76.64,103.1898346669,49.540684,6,P-GPS,
11800,2023-06-09 17:17:37,52.2063837202958,0.0867241382317341,49.540684,49.540684,53.649150666904,103.1898346669,45.93176,0,5.5174870532,6.0968505888,29,5,16.906,103.1898346669,49.540684,0.4921268,5.5174870532,0,0,0,280.6, 3.8, 8.1,0,0,1024,1024,1024,1024,0,0,0,0,279.1,-9.7,0,99,4.218,4.225,4.22,4.221,0,0,6.051,76.64,103.1898346669,49.540684,6,P-GPS,
12000,2023-06-09 17:17:37,52.2063838432599,0.0867241908750604,49.540684,49.540684,53.649150666904,103.1898346669,45.93176,0,5.5638453224,6.1432416664,29,5,16.895,103.1898346669,49.540684,0.4921268,5.5638453224,0,0,0,279.8, 3.7, 7.2,0,0,1024,1024,1024,1024,0,0,0,0,279.1,-12.6,0,99,4.218,4.223,4.217,4.221,0,0,7.133,76.64,103.1898346669,49.540684,6,P-GPS,
12200,2023-06-09 17:17:37,52.2063839388816,0.0867242450334157,49.540684,49.540684,53.649150666904,103.1898346669,45.93176,0,5.600721964,6.1801839248,29,5,16.895,103.1898346669,49.540684,0.4921268,5.600721964,0,0,0,279, 3.6, 7.1,0,0,1024,1024,1024,1024,0,0,0,0,279.1,-15.5,0,99,4.218,4.223,4.217,4.221,0,0,7.133,76.64,103.1898346669,49.540684,6,P-GPS,
12400,2023-06-09 17:17:38,52.2063840345729,0.0867242769438234,49.540684,49.540684,53.649150666904,103.1898346669,45.93176,0,5.6362206528,6.2158138472,29,5,16.895,103.1898346669,49.540684,0.4921268,5.6362206528,0,0,0,279.7, 3.5, 6.5,0,0,1024,1024,1024,1024,0,0,0,0,279.1,-18.4,0,99,4.218,4.223,4.217,4.221,0,0,7.133,76.64,103.1898346669,49.540684,6,P-GPS,
12600,2023-06-09 17:17:38,52.2063841292876,0.0867242818432035,49.540684,49.540684,53.649150666904,103.1898346669,45.93176,0,5.6696852208,6.2503610924,29,5,16.895,103.1898346669,49.540684,0.4921268,5.6696852208,0,0,0,281, 3.3, 6.3,0,0,1024,1024,1024,1024,0,0,0,0,279.1,-21.3,0,99,4.218,4.223,4.217,4.221,0,0,7.133,76.64,103.1898346669,49.540684,6,P-GPS,
12800,2023-06-09 17:17:38,52.2063841450593,0.0867242706111069,49.540684,49.540684,53.649150666904,103.1898346669,45.93176,0,5.6745080556,6.2566603052,29,5,16.895,103.1898346669,49.540684,0.4921268,5.6745080556,0,0,0,281.5, 3.2, 6.9,0,0,1024,1024,1024,1024,0,0,0,0,279.1,-24.2,0,99,4.218,4.223,4.217,4.221,0,0,7.133,76.64,103.1898346669,49.540684,6,P-GPS,
13000,2023-06-09 17:17:38,52.2063840995593,0.0867242664264291,49.540684,49.540684,53.649150666904,103.1898346669,46.259844,0,5.658300706,6.273294164,29,5,16.885,103.1898346669,49.540684,0.4921268,5.6745080556,0,0,0,281.5, 2.6, 7.6,0,0,1024,1024,1024,1024,0,0,0,0,279.1,-27.2,0,99,4.211,4.22,4.217,4.222,0,0,7.287,76.64,103.1898346669,49.540684,6,P-GPS,
13200,2023-06-09 17:17:38,52.2063840603839,0.0867242373093015,49.868768,49.868768,53.649150666904,103.5179186669,45.93176,0,5.6427495244,6.2889765792,29,5,16.885,103.5179186669,49.868768,0.4921268,5.6745080556,0,0,0,281.5, 2.4, 8.1,0,0,1024,1024,1024,1024,0,0,0,0,279.1,-30.1,0,99,4.211,4.22,4.217,4.222,0,0,7.287,76.64,103.5179186669,49.868768,6,P-GPS,
13400,2023-06-09 17:17:39,52.2063840266742,0.0867241505638431,49.868768,49.868768,53.649150666904,103.5179186669,45.93176,0,5.6255251144,6.3119424592,29,5,16.885,103.5179186669,49.868768,0.4921268,5.6745080556,0,0,0,281.5, 2.3, 8.5,0,0,1024,1024,1024,1024,0,0,0,0,279.1,-33,0,99,4.211,4.22,4.217,4.222,0,0,7.287,76.64,103.5179186669,49.868768,6,P-GPS,
13600,2023-06-09 17:17:39,52.2063839977159,0.0867239907374568,49.868768,49.868768,53.649150666904,103.5179186669,45.93176,0,5.6055447988,6.3492128016,29,5,16.885,103.5179186669,49.868768,0.4921268,5.6745080556,0,0,0,281.5, 2.6, 8.9,0,0,1024,1024,1024,1024,0,0,0,0,279.1,-35.9,0,99,4.211,4.22,4.217,4.222,0,0,7.287,76.64,103.5179186669,49.868768,6,P-GPS,
13800,2023-06-09 17:17:39,52.2063839769379,0.086723812408757,49.868768,49.868768,53.649150666904,103.5179186669,45.93176,0,5.5874673704,6.3897967924,29,5,16.885,103.5179186669,49.868768,0.4921268,5.6745080556,0,0,0,281.6, 2.9, 9.1,0,0,1024,1024,1024,1024,0,0,0,0,279.1,-38.8,0,99,4.211,4.22,4.217,4.222,0,0,7.287,76.64,103.5179186669,49.868768,6,P-GPS,
14000,2023-06-09 17:17:39,52.2063839898451,0.0867236399619345,49.868768,49.868768,53.649150666904,103.5179186669,45.93176,0,5.581857134,6.428641938,29,5,16.878,103.5179186669,49.868768,0.4921268,5.6745080556,0,0,0,281.7, 3.3, 9.2,0,0,1024,1024,1024,1024,0,0,0,0,279.1,-41.7,0,99,4.22,4.225,4.218,4.221,0,0,7.198,76.82,103.5179186669,49.868768,6,P-GPS,
14200,2023-06-09 17:17:39,52.2063840516928,0.0867234955431487,49.868768,49.868768,53.649150666904,103.5179186669,45.93176,0,5.5953741948,6.4680448264,29,5,16.878,103.5179186669,49.868768,0.4921268,5.6745080556,0,0,0,281.6, 3, 8.2,0,0,1024,1024,1024,1024,0,0,0,0,279.1,-44.7,0,99,4.22,4.225,4.218,4.221,0,0,7.198,76.82,103.5179186669,49.868768,6,P-GPS,
14400,2023-06-09 17:17:40,52.2063841580756,0.0867233821785257,50.196852,50.196852,53.649150666904,103.8460026669,45.93176,0,5.6266077916,6.5144030956,29,5,16.878,103.8460026669,50.196852,0.4921268,5.6745080556,0,0,0,281.7, 3, 7.7,0,0,1024,1024,1024,1024,0,0,0,0,279.1,-47.6,0,99,4.22,4.225,4.218,4.221,0,0,7.198,76.82,103.8460026669,50.196852,6,P-GPS,
14600,2023-06-09 17:17:40,52.2063842731571,0.0867232887128565,50.196852,50.196852,53.649150666904,103.8460026669,45.93176,0,5.6622049056,6.5612862992,29,5,16.878,103.8460026669,50.196852,0.4921268,5.6745080556,0,0,0,281.5, 3.1, 7.7,0,0,1024,1024,1024,1024,0,0,0,0,279.1,-50.5,0,99,4.22,4.225,4.218,4.221,0,0,7.198,76.82,103.8460026669,50.196852,6,P-GPS,
14800,2023-06-09 17:17:40,52.2063844662242,0.0867231983032383,50.196852,50.196852,53.649150666904,103.8460026669,45.93176,0.223694,5.7257547764,6.6345802648,29,5,16.878,103.8460026669,50.196852,0.4921268,5.7257547764,0.223694,0,0,281.6, 4, 6.7,0,0,1024,1024,1024,1024,0,0,0,0,279.1,-53.4,0,99,4.22,4.225,4.218,4.221,0,0,7.198,76.82,103.8460026669,50.196852,6,P-GPS,
15000,2023-06-09 17:17:40,52.2063846550978,0.0867231634453391,50.196852,50.196852,53.649150666904,103.8460026669,45.93176,0,5.7909122588,6.7039372224,29,5,16.861,103.8460026669,50.196852,0.4921268,5.7909122588,0,0,0,281.8, 3.8, 6.4,0,0,1024,1024,1024,1024,0,0,0,0,279.1,-56.3,0,99,4.214,4.221,4.216,4.22,0,0,7.187,76.82,103.8460026669,50.196852,6,P-GPS,
15200,2023-06-09 17:17:40,52.2063847668959,0.0867231606933422,50.196852,50.196852,53.649150666904,103.8460026669,46.259844,0,5.8304463808,6.7447180636,29,5,16.861,103.8460026669,50.196852,0.4921268,5.8304463808,0,0,0,281.7, 5, 6.7,0,0,1024,1024,1024,1024,0,0,0,0,279.1,-59.3,0,99,4.214,4.221,4.216,4.22,0,0,7.187,76.82,103.8460026669,50.196852,6,P-GPS,
15400,2023-06-09 17:17:41,52.2063848448934,0.0867232425376731,50.196852,50.196852,53.649150666904,103.8460026669,46.259844,0,5.862368954,6.778543524,29,5,16.861,103.8460026669,50.196852,0.4921268,5.862368954,0,0,0,281.7, 4.6, 6.5,0,0,1024,1024,1024,1024,0,0,0,0,279.1,-62.2,0,99,4.214,4.221,4.216,4.22,0,0,7.187,76.82,103.8460026669,50.196852,6,P-GPS,
15600,2023-06-09 17:17:41,52.2063848997334,0.0867233850299082,50.196852,50.196852,53.649150666904,103.8460026669,46.259844,0,5.8893046504,6.8161747588,29,5,16.861,103.8460026669,50.196852,0.4921268,5.8893046504,0,0,0,281.7, 4.4, 6.9,0,0,1024,1024,1024,1024,0,0,0,0,279.1,-65.1,0,99,4.214,4.221,4.216,4.22,0,0,7.187,76.82,103.8460026669,50.196852,6,P-GPS,
15800,2023-06-09 17:17:41,52.2063849526951,0.0867235451568538,50.196852,50.196852,53.649150666904,103.8460026669,46.259844,0,5.9166340476,6.8568571748,29,5,16.861,103.8460026669,50.196852,0.4921268,5.9166340476,0,0,0,281.7, 4.6, 6.8,0,0,1024,1024,1024,1024,0,0,0,0,279.1,-68,0,99,4.214,4.221,4.216,4.22,0,0,7.187,76.82,103.8460026669,50.196852,6,P-GPS,
16000,2023-06-09 17:17:41,52.2063850097111,0.0867236980354253,50.196852,50.196852,53.649150666904,103.8460026669,46.259844,0,5.9451445472,6.8968834228,29,5,16.856,103.8460026669,50.196852,0.4921268,5.9451445472,0,0,0,281.7, 4.4, 6,0,0,1024,1024,1024,1024,0,0,0,0,279.1,-70.9,0,99,4.212,4.217,4.209,4.214,0,0,7.088,77,103.8460026669,50.196852,6,P-GPS,
16200,2023-06-09 17:17:41,52.2063850524107,0.0867238336357638,50.524936,50.524936,53.649150666904,104.1740866669,46.259844,0,5.9677495348,6.9309713504,29,5,16.856,104.1740866669,50.524936,0.4921268,5.9677495348,0,0,0,281.6, 4.3, 6.3,0,0,1024,1024,1024,1024,0,0,0,0,279.1,-73.9,0,99,4.212,4.217,4.209,4.214,0,0,7.088,77,104.1740866669,50.524936,6,P-GPS,
16400,2023-06-09 17:17:42,52.2063851050008,0.0867239884832614,50.524936,50.524936,53.649150666904,104.1740866669,46.259844,0,5.995078932,6.9705382808,29,5,16.856,104.1740866669,50.524936,0.4921268,5.995078932,0,0,0,281.5, 4, 6.6,0,0,1024,1024,1024,1024,0,0,0,0,279.1,-76.8,0,99,4.212,4.217,4.209,4.214,0,0,7.088,77,104.1740866669,50.524936,6,P-GPS,
16600,2023-06-09 17:17:42,52.2063851968081,0.0867241437772296,50.196852,50.196852,53.649150666904,103.8460026669,46.259844,0,6.0363847076,7.0187994372,29,5,16.856,104.1740866669,50.524936,0.4921268,6.0363847076,0,0,0,281.6, 3.8, 5.7,0,0,1024,1024,1024,1024,0,0,0,0,279.1,-79.7,0,99,4.212,4.217,4.209,4.214,0,0,7.088,77,103.8460026669,50.196852,6,P-GPS,
16800,2023-06-09 17:17:42,52.206385301847,0.0867243141729964,50.196852,50.196852,53.649150666904,103.8460026669,46.259844,0,6.0833007196,7.072834872,29,5,16.856,104.1740866669,50.524936,0.4921268,6.0833007196,0,0,0,281.7, 4, 4.6,0,0,1024,1024,1024,1024,0,0,0,0,279.1,-82.6,0,99,4.212,4.217,4.209,4.214,0,0,7.088,77,103.8460026669,50.196852,6,P-GPS,
17000,2023-06-09 17:17:42,52.2063853820911,0.0867244871562824,50.196852,50.196852,53.649150666904,103.8460026669,46.259844,0,6.1218177812,7.1213256872,29,5,16.866,104.1740866669,50.524936,0.4921268,6.1218177812,0,0,0,281.7, 3.6, 5.2,0,0,1024,1024,1024,1024,0,0,0,0,279.1,-85.5,0,99,4.216,4.22,4.213,4.213,0,0,7.194,77,103.8460026669,50.196852,6,P-GPS,
17200,2023-06-09 17:17:42,52.2063854278513,0.0867246064936495,50.196852,50.196852,53.649150666904,103.8460026669,46.259844,0,6.1450789368,7.1528217512,29,5,16.866,104.1740866669,50.524936,0.4921268,6.1450789368,0,0,0,281.7, 3.1, 5.5,0,0,1024,1024,1024,1024,0,0,0,0,279.1,-88.5,0,99,4.216,4.22,4.213,4.213,0,0,7.194,77,103.8460026669,50.196852,6,P-GPS,
17400,2023-06-09 17:17:43,52.2063854435416,0.0867246633941723,49.868768,49.868768,53.649150666904,103.5179186669,46.587928,0,6.1540684384,7.1667653212,29,5,16.866,104.1740866669,50.524936,0.4921268,6.1540684384,0,0,0,281.8, 3.4, 6.4,0,0,1024,1024,1024,1024,0,0,0,0,279.1,-89.9,0,99,4.216,4.22,4.213,4.213,0,0,7.194,77,103.5179186669,49.868768,6,P-GPS,
17600,2023-06-09 17:17:43,52.2063854206679,0.0867247227712521,49.868768,49.868768,53.649150666904,103.5179186669,46.587928,0,6.1496721128,7.1824477364,29,5,16.866,104.1740866669,50.524936,0.4921268,6.1540684384,0,0,0,281.5, 1.9, 6.7,0,0,1024,1024,1024,1024,0,0,0,0,279.1,-89.9,0,99,4.216,4.22,4.213,4.213,0,0,7.194,77,103.5179186669,49.868768,6,P-GPS,
17800,2023-06-09 17:17:43,52.2063854389336,0.0867246632255445,49.868768,49.868768,53.649150666904,103.5179186669,46.259844,0,6.1524280184,7.19734275,29,5,16.866,104.1740866669,50.524936,0.4921268,6.1540684384,0,0,0,281.5, 2.5, 7,0,0,1024,1024,1024,1024,0,0,0,0,279.1,-90,0,99,4.216,4.22,4.213,4.213,0,0,7.194,77,103.5179186669,49.868768,6,P-GPS,
18000,2023-06-09 17:17:43,52.2063855180715,0.0867245070713999,49.868768,49.868768,53.649150666904,103.5179186669,46.259844,0,6.1708007224,7.2426511504,29,5,16.84,104.1740866669,50.524936,0.4921268,6.1708007224,0,0,0,281.7, 3.9, 6.1,0,0,1223,1024,1024,1024,30,0,0,0,279.1,-90,0,99,4.211,4.218,4.214,4.217,0,0,7.282,77,103.5179186669,49.868768,6,P-GPS,
18200,2023-06-09 17:17:43,52.2063855446407,0.0867243992623201,49.868768,49.868768,53.649150666904,103.5179186669,46.259844,0,6.1737862868,7.2686354032,29,5,16.84,104.1740866669,50.524936,0.4921268,6.1737862868,0,0,0,281.9, 1, 1.7,0,0,1684,1024,1024,1024,100,0,0,0,279.1,-89.9,0,99,4.211,4.218,4.214,4.217,0,0,7.282,77,103.5179186669,49.868768,6,P-GPS,
18400,2023-06-09 17:17:44,52.2063853539285,0.0867240558356496,49.868768,49.868768,53.649150666904,103.5179186669,46.259844,0.3131716,6.0867456016,7.3722443304,29,5,16.84,104.1740866669,50.524936,0.4921268,6.1737862868,-0.223694,-0.223694,0,281.1, -6.4, 2.4,0,0,1684,1024,1024,1024,100,0,0,0,279.1,-89.9,0,99,4.211,4.218,4.214,4.217,0,0,7.282,77,103.5179186669,49.868768,6,P-GPS,
18600,2023-06-09 17:17:44,52.206384981874,0.0867227917896765,49.868768,49.868768,53.649150666904,103.5179186669,46.259844,1.4092722,5.8885828656,7.6857614008,29,5,16.84,104.1740866669,50.524936,1.4092722,6.1737862868,-0.447388,-1.342164,0,280.4, -13, 6.4,0,0,1684,1024,1024,1024,100,0,0,0,279.1,-90,0,99,4.211,4.218,4.214,4.217,0,0,7.282,77,103.5179186669,49.868768,6,P-GPS,
18800,2023-06-09 17:17:44,52.2063846822452,0.0867199462906345,49.868768,49.868768,53.649150666904,103.5179186669,45.603676,2.23694,5.6770999192,8.3312994792,29,5,16.84,104.1740866669,50.524936,2.23694,6.1737862868,-0.223694,-2.23694,0,281, -7, 7.7,0,0,1684,1024,1024,1024,100,0,0,0,279.1,-90,0,99,4.211,4.218,4.214,4.217,0,0,7.282,77,103.5179186669,49.868768,6,P-GPS,
19000,2023-06-09 17:17:44,52.2063846774156,0.0867163119745713,49.540684,49.540684,53.649150666904,103.1898346669,44.947508,2.908022,5.6438978184,9.1438979304,29,5,16.798,104.1740866669,50.524936,2.908022,6.1737862868,0,-2.908022,0,283.3, -6, 8.9,0,0,1669,1024,1024,1024,98,0,0,0,279.1,-89.9,0,99,4.196,4.205,4.197,4.206,0,0,7.388,77.18,103.1898346669,49.540684,6,P-GPS,
19200,2023-06-09 17:17:44,52.2063848821905,0.0867119156177023,49.540684,49.540684,53.649150666904,103.1898346669,44.619424,3.35541,5.8340553048,10.1296919252,29,5,16.798,104.1740866669,50.524936,3.35541,6.1737862868,0.223694,-3.35541,0,285.7, -3.7, 9.1,0,0,1647,1024,1024,1024,94,0,0,0,279.1,-89.9,0,99,4.196,4.205,4.197,4.206,0,0,7.388,77.18,103.1898346669,49.540684,6,P-GPS,
19400,2023-06-09 17:17:45,52.2063852876131,0.0867069229741615,49.540684,49.540684,53.649150666904,103.1898346669,44.619424,3.6014734,6.2934385216,11.25574183,29,5,16.798,104.1740866669,50.524936,3.6014734,6.2934385216,0.447388,-3.579104,0,285.8, -2.9, 9.4,0,0,1642,1024,1024,1024,94,0,0,0,279.1,-90,0,99,4.196,4.205,4.197,4.206,0,0,7.388,77.18,103.1898346669,49.540684,6,P-GPS,
19600,2023-06-09 17:17:45,52.2063858758782,0.0867017805209876,49.540684,49.540684,53.649150666904,103.1898346669,44.29134,3.8699062,6.9821524544,12.4253940984,28,5,16.798,104.1740866669,50.524936,3.8699062,6.9821524544,0.671082,-3.802798,0,285.6, -3.2, 9.4,0,0,1638,1024,1024,1024,93,0,0,0,279.1,-90,0,99,4.196,4.205,4.197,4.206,0,0,7.388,77.18,103.1898346669,49.540684,6,P-GPS,
19800,2023-06-09 17:17:45,52.2063866222585,0.0866964986702918,49.540684,49.540684,53.649150666904,103.1898346669,44.619424,4.1159696,7.8514766292,13.6373363944,29,5,16.798,104.1740866669,50.524936,4.1159696,7.8514766292,0.894776,-4.026492,0,285.4, -3.5, 9.4,0,0,1638,1024,1024,1024,93,0,0,0,279.1,-90,0,99,4.196,4.205,4.197,4.206,0,0,7.388,77.18,103.1898346669,49.540684,6,P-GPS,
20000,2023-06-09 17:17:45,52.2063876084919,0.0866906347636247,49.540684,49.540684,53.649150666904,103.1898346669,44.619424,4.3844024,8.9538388692,14.9969164904,29,5,16.829,104.1740866669,50.524936,4.3844024,8.9538388692,1.11847,-4.250186,0,285.5, -3.6, 8.9,0,0,1648,1024,1024,1024,95,0,0,0,279.1,-89.9,0,99,4.21,4.216,4.21,4.214,0,0,7.602,77.18,103.1898346669,49.540684,6,P-GPS,
20200,2023-06-09 17:17:45,52.2063887510585,0.08668461261244,49.540684,49.540684,53.649150666904,103.1898346669,44.619424,4.6752046,10.1841538692,16.4064309712,29,5,16.829,104.1740866669,50.524936,4.6752046,10.1841538692,1.342164,-4.47388,0,285.4, -3.1, 8.5,0,0,1647,1024,1024,1024,94,0,0,0,279.1,-90,0,99,4.21,4.216,4.21,4.214,0,0,7.602,77.18,103.1898346669,49.540684,6,P-GPS,
20400,2023-06-09 17:17:46,52.2063900277852,0.0866783020675328,49.540684,49.540684,53.649150666904,103.1898346669,45.275592,4.8765292,11.5366145424,17.8922905988,29,5,16.829,104.1740866669,50.524936,4.8765292,11.5366145424,1.342164,-4.697574,0,285.4, -3.3, 8.2,0,0,1652,1024,1024,1024,95,0,0,0,279.1,-89.9,0,99,4.21,4.216,4.21,4.214,0,0,7.602,77.18,103.1898346669,49.540684,6,P-GPS,
20600,2023-06-09 17:17:46,52.206391398221,0.0866717067076569,49.540684,49.5078756,53.681959066904,103.1898346669,45.603676,5.1673314,12.989501728,19.4493772628,29,5,16.829,104.1740866669,50.524936,5.1673314,12.989501728,1.565858,-4.921268,0,285.3, -3.6, 7.6,0,0,1644,1024,1024,1024,94,0,0,0,279.1,-90,0,99,4.21,4.216,4.21,4.214,0,0,7.602,77.18,103.1898346669,49.540684,6,P-GPS,
20800,2023-06-09 17:17:46,52.2063928441998,0.0866648251069027,49.540684,49.5078756,53.681959066904,103.1898346669,45.93176,5.59235,14.531988654,21.075952118,29,5,16.829,104.1740866669,50.524936,5.59235,14.531988654,1.565858,-5.368656,0,285.2, -3.6, 7.3,0,0,1024,1024,1024,1024,0,0,0,0,279.1,-90,0,99,4.21,4.216,4.21,4.214,0,0,7.602,77.18,103.1898346669,49.540684,6,P-GPS,
21000,2023-06-09 17:17:46,52.2063943299761,0.0866577445043797,49.540684,49.4750672,53.714767466904,103.1898346669,46.259844,5.59235,16.1358929048,22.7493117516,29,5,16.832,104.1740866669,50.524936,5.59235,16.1358929048,1.565858,-5.368656,0,285.1, 5.1, 4.7,0,0,1073,1024,1024,1024,7,0,0,0,279.1,-90,0,99,4.208,4.216,4.211,4.212,0,0,7.186,77.18,103.1898346669,49.540684,6,P-GPS,
21200,2023-06-09 17:17:46,52.2063956109605,0.086651244019919,49.2126,49.1141748,53.747575866904,102.8617506669,46.587928,4.3844024,17.6031501696,24.2760506456,29,5,16.832,104.1740866669,50.524936,5.59235,17.6031501696,1.11847,-4.250186,0,286.4, 27.1, 3.8,0,0,1129,1024,1024,1024,16,0,0,0,279.1,-89.9,0,99,4.208,4.216,4.211,4.212,0,0,7.186,77.18,102.8617506669,49.2126,6,P-GPS,
21400,2023-06-09 17:17:47,52.206396220282,0.0866470251306996,49.2126,49.1141748,53.747575866904,102.8617506669,46.587928,2.460634,18.5173234272,25.2451779732,29,5,16.832,104.1740866669,50.524936,5.59235,18.5173234272,0.223694,-2.460634,0,286.4, 19, 4.8,0,0,1054,1024,1024,1024,5,0,0,0,279.1,-89.9,0,99,4.208,4.216,4.211,4.212,0,0,7.186,77.18,102.8617506669,49.2126,6,P-GPS,
21600,2023-06-09 17:17:47,52.2063963205877,0.0866447624077919,49.540684,49.4422588,53.747575866904,103.1898346669,39.37008,1.342164,18.9666672736,25.7523958372,29,5,16.832,104.1740866669,50.524936,5.59235,18.9666672736,0,-1.342164,0,286.1, 11.6, 7.1,0,0,1262,1024,1024,1024,36,0,0,0,279.1,-90,0,99,4.208,4.216,4.211,4.212,0,0,7.186,77.18,103.1898346669,49.540684,6,P-GPS,
21800,2023-06-09 17:17:47,52.2063962327083,0.0866435456035948,49.540684,49.4422588,53.747575866904,103.1898346669,39.37008,0.9171454,19.1828418212,26.0263459772,29,5,16.832,104.1740866669,50.524936,5.59235,19.1828418212,-0.223694,-0.894776,0,286.1, 3.9, 5.8,0,0,1642,1024,1024,1024,94,0,0,0,279.1,-89.9,0,99,4.208,4.216,4.211,4.212,0,0,7.186,77.18,103.1898346669,49.540684,6,P-GPS,
22000,2023-06-09 17:17:47,52.2063960153144,0.0866424993353965,49.540684,49.4422588,53.747575866904,103.1898346669,45.275592,1.1408394,19.3437014064,26.2733604208,29,5,16.758,104.1740866669,50.524936,5.59235,19.3437014064,-0.223694,-1.11847,0,285, -4.8, 8.1,0,0,1645,1024,1024,1024,94,0,0,0,279.1,-90,0,99,4.17,4.175,4.172,4.204,0,0,7.652,77.18,103.1898346669,49.540684,6,P-GPS,
22200,2023-06-09 17:17:47,52.2063958892052,0.0866408668365968,49.540684,49.4422588,53.747575866904,103.1898346669,45.275592,1.565858,19.6366804184,26.64124101,29,5,16.758,104.1740866669,50.524936,5.59235,19.6366804184,0,-1.565858,0,285.1, -4.8, 7.4,0,0,1526,1024,1024,1024,76,0,0,0,279.1,-90,0,99,4.17,4.175,4.172,4.204,0,0,7.652,77.18,103.1898346669,49.540684,6,P-GPS,
22400,2023-06-09 17:17:48,52.2063959208,0.0866384222473004,49.540684,49.4422588,53.747575866904,103.1898346669,45.275592,2.23694,20.1187998564,27.1879601876,29,5,16.758,104.1740866669,50.524936,5.59235,20.1187998564,0,-2.23694,0,284.7, -9.4, 7.8,0,0,1560,1024,1024,1024,81,0,0,0,279.1,-90,0,99,4.17,4.175,4.172,4.204,0,0,7.652,77.18,103.1898346669,49.540684,6,P-GPS,
22600,2023-06-09 17:17:48,52.2063961574095,0.0866349317113344,49.540684,49.4422588,53.747575866904,103.1898346669,44.947508,2.908022,20.84563715,27.9731308164,29,5,16.758,104.1740866669,50.524936,5.59235,20.84563715,0.223694,-2.908022,0,285.2, -4, 6.5,0,0,1654,1024,1024,1024,95,0,0,0,279.1,-90,0,99,4.17,4.175,4.172,4.204,0,0,7.652,77.18,103.1898346669,49.540684,6,P-GPS,
22800,2023-06-09 17:17:48,52.2063964517235,0.0866307912681152,49.540684,49.4422588,53.747575866904,103.1898346669,44.947508,3.3777794,21.7153222172,28.9051190352,29,5,16.758,104.1740866669,50.524936,5.59235,21.7153222172,0.447388,-3.35541,0,284.8, -5.9, 7.3,0,0,1388,1024,1164,1024,55,0,21,0,279.1,-89.9,0,99,4.17,4.175,4.172,4.204,0,0,7.652,77.18,103.1898346669,49.540684,6,P-GPS,
23000,2023-06-09 17:17:48,52.2063968657473,0.086625804051244,49.868768,49.7703428,53.747575866904,103.5179186669,44.947508,4.2725554,22.779036162,30.03034873,29,5,16.821,104.1740866669,50.524936,5.59235,22.779036162,0.447388,-4.250186,0,284.8, -10.5, 7.4,0,0,1024,1024,1261,1024,0,0,36,0,279.1,-89.9,0,99,4.211,4.214,4.205,4.211,0,0,7.478,77.36,103.5179186669,49.868768,6,P-GPS,
23200,2023-06-09 17:17:48,52.2063974875786,0.0866195964514221,49.868768,49.7703428,53.747575866904,103.5179186669,44.947508,5.2120702,24.1274285936,31.4367136044,29,5,16.821,104.1740866669,50.524936,5.59235,24.1274285936,0.894776,-5.144962,-0.671082,284.8, -2, 7.3,0,0,1024,1024,1564,1024,0,0,82,0,279.1,-89.9,0,99,4.211,4.214,4.205,4.211,0,0,7.478,77.36,103.5179186669,49.868768,6,P-GPS,
23400,2023-06-09 17:17:49,52.2063981224681,0.0866134393385875,50.524936,50.4265108,53.747575866904,104.1740866669,45.275592,4.0488614,25.4737869044,32.832678216,29,5,16.821,104.1740866669,50.524936,5.59235,25.4737869044,0.447388,-4.026492,-2.460634,287.5, 26.4, 7.7,0,0,1024,1024,1505,1024,0,0,73,0,279.1,-90,0,99,4.211,4.214,4.205,4.211,0,0,7.478,77.36,104.1740866669,50.524936,6,P-GPS,
23600,2023-06-09 17:17:49,52.2063982838772,0.0866101924514387,51.837272,51.7388468,53.747575866904,105.4864226669,46.259844,1.11847,26.1601714408,33.561024696,29,5,16.821,105.4864226669,51.837272,5.59235,26.1601714408,0,-1.11847,-4.47388,288.4, 21.8, 15.6,0,0,1024,1024,1463,1024,0,0,67,0,279.1,-89.9,0,99,4.211,4.214,4.205,4.211,0,0,7.478,77.36,105.4864226669,51.837272,6,P-GPS,
23800,2023-06-09 17:17:49,52.2063986437581,0.0866100839564895,53.477692,53.3464584,53.780384266904,107.1268426669,47.244096,0.447388,26.2357948028,33.694554884,29,5,16.821,107.1268426669,53.477692,5.59235,26.2357948028,0.447388,0,-6.263432,286.2, 4, 9.9,0,0,1024,1024,1024,1024,0,0,0,0,279.1,-90,0,99,4.211,4.214,4.205,4.211,0,0,7.478,77.36,107.1268426669,53.477692,6,P-GPS,
24000,2023-06-09 17:17:49,52.2063992428207,0.0866105784395902,55.118112,54.9868784,53.780384266904,108.7672626669,49.540684,0.447388,26.2254929652,33.939633632,28,5,16.583,108.7672626669,55.118112,5.59235,26.2357948028,0.447388,0,-5.816044,285.6, 1.4, 7,0,0,1024,1024,1024,1024,0,0,0,0,279.1,-89.9,0,99,4.062,4.11,4.121,4.153,0,0,9.206,77.36,108.7672626669,55.118112,6,P-GPS,
24200,2023-06-09 17:17:49,52.2063996963123,0.0866108171606315,56.430448,56.2992144,53.780384266904,110.0795986669,51.837272,0.223694,26.2466871916,34.113518152,28,5,16.583,110.0795986669,56.430448,5.59235,26.2466871916,0.223694,0,-3.579104,285.8, 2.8, 7.1,0,0,1024,1024,1024,1024,0,0,0,0,279.1,-90,0,99,4.062,4.11,4.121,4.153,0,0,9.206,77.36,110.0795986669,56.430448,6,P-GPS,
24400,2023-06-09 17:17:50,52.2063999418785,0.0866107719299385,57.086616,56.9553824,53.780384266904,110.7357666669,53.149608,0.223694,26.2939312876,34.203413168,28,5,16.583,110.7357666669,57.086616,5.59235,26.2939312876,0.223694,0,-1.342164,285.9, 3.5, 7.4,0,0,1024,1024,1024,1024,0,0,0,0,279.1,-90,0,99,4.062,4.11,4.121,4.153,0,0,9.206,77.36,110.7357666669,57.086616,6,P-GPS,
24600,2023-06-09 17:17:50,52.2064000615239,0.08661057136596,57.4147,57.2834664,53.780384266904,111.0638506669,53.477692,0.223694,26.3531176412,34.266077212,29,5,16.583,111.0638506669,57.4147,5.59235,26.3531176412,0,-0.223694,-0.223694,285.8, 4.4, 7.3,0,0,1024,1024,1631,1024,0,0,92,0,279.1,-90,0,99,4.062,4.11,4.121,4.153,0,0,9.206,77.36,111.0638506669,57.4147,6,P-GPS,
24800,2023-06-09 17:17:50,52.2064001416138,0.086610411545253,57.4147,57.2834664,53.780384266904,111.0638506669,53.805776,0,26.3979011072,34.312337056,29,5,16.583,111.0638506669,57.4147,5.59235,26.3979011072,0,0,0,285.9, 5.1, 7.6,0,0,1024,1024,1511,1024,0,0,74,0,279.1,-89.9,0,99,4.062,4.11,4.121,4.153,0,0,9.206,77.36,111.0638506669,57.4147,6,P-GPS,
25000,2023-06-09 17:17:50,52.2064002547185,0.0866104849306718,57.742784,57.6115504,53.780384266904,111.3919346669,54.461944,0,26.4007226296,34.356628396,29,5,16.977,111.3919346669,57.742784,5.59235,26.4007226296,0,0,-2.013246,285.8, 4, 6.2,0,0,1024,1024,1024,1024,0,0,0,0,279.1,-90,0,99,4.21,4.212,4.2,4.183,0,0,9.205,77.54,111.3919346669,57.742784,6,P-GPS,
25200,2023-06-09 17:17:50,52.2064003558187,0.086610714816665,58.398952,58.2677184,53.780384266904,112.0481026669,55.446196,0,26.3701780092,34.419948608,29,5,16.977,112.0481026669,58.398952,5.59235,26.4007226296,0,0,-2.684328,285.6, 3.9, 7.9,0,0,1024,1024,1024,1024,0,0,0,0,279.1,-90,0,99,4.21,4.212,4.2,4.183,0,0,9.205,77.54,112.0481026669,58.398952,6,P-GPS,
25400,2023-06-09 17:17:51,52.2064003981136,0.0866108499635433,59.05512,58.9238864,53.780384266904,112.7042706669,56.102364,0,26.349574334,34.45374126,29,5,16.977,112.7042706669,59.05512,5.59235,26.4007226296,0,0,-1.11847,285.8, 3.8, 8.2,0,0,1024,1024,1024,1024,0,0,0,0,279.1,-90,0,99,4.21,4.212,4.2,4.183,0,0,9.205,77.54,112.7042706669,59.05512,6,P-GPS,
25600,2023-06-09 17:17:51,52.2064004220538,0.08661093105866,59.05512,58.9238864,53.780384266904,112.7042706669,56.430448,0,26.3370087168,34.474082468,29,5,16.977,112.7042706669,59.05512,5.59235,26.4007226296,0,0,-0.223694,285.9, 3.7, 7.7,0,0,1024,1024,1212,1024,0,0,28,0,279.1,-90,0,99,4.21,4.212,4.2,4.183,0,0,9.205,77.54,112.7042706669,59.05512,6,P-GPS,
25800,2023-06-09 17:17:51,52.2064004073337,0.0866109555158064,59.383204,59.2519704,53.780384266904,113.0323546669,56.430448,0,26.3297580604,34.4816284,29,5,16.977,113.0323546669,59.383204,5.59235,26.4007226296,0,0,0,285.8, 3.8, 8.1,0,0,1024,1024,1563,1024,0,0,82,0,279.1,-89.9,0,99,4.21,4.212,4.2,4.183,0,0,9.205,77.54,113.0323546669,59.383204,6,P-GPS,
26000,2023-06-09 17:17:51,52.2064004223751,0.0866110086449205,59.383204,59.2519704,53.780384266904,113.0323546669,56.430448,0,26.3214247268,34.49475176,29,5,16.928,113.0323546669,59.383204,5.59235,26.4007226296,0,0,-0.894776,285.7, 2.9, 5.8,0,0,1024,1024,1024,1024,0,0,0,0,279.1,-89.9,0,99,4.216,4.217,4.21,4.215,0,0,8.028,77.72,113.0323546669,59.383204,6,P-GPS,
26200,2023-06-09 17:17:51,52.2064004470092,0.0866110000894626,60.039372,59.9081384,53.780384266904,113.6885226669,56.758532,0,26.3270349632,34.503938112,29,5,16.928,113.6885226669,60.039372,5.59235,26.4007226296,0,0,-2.684328,285.5, 4, 6.4,0,0,1024,1024,1024,1024,0,0,0,0,279.1,-90,0,99,4.216,4.217,4.21,4.215,0,0,8.028,77.72,113.6885226669,60.039372,6,P-GPS,
26400,2023-06-09 17:17:52,52.2064003824404,0.0866108511168525,60.69554,60.5643064,53.780384266904,114.3446906669,57.4147,0,26.3468840452,34.544620528,29,5,16.928,114.3446906669,60.69554,5.59235,26.4007226296,0,0,-1.11847,286.1, 6.7, 10,0,0,1024,1024,1483,1022,0,0,70,-0,279.1,-89.9,0,99,4.216,4.217,4.21,4.215,0,0,8.028,77.72,114.3446906669,60.69554,6,P-GPS,
26600,2023-06-09 17:17:52,52.2064003002859,0.0866107409653318,60.69554,60.5643064,53.780384266904,114.3446906669,57.4147,0,26.3562016308,34.583662524,29,5,16.928,114.3446906669,60.69554,5.59235,26.4007226296,0,0,-0.223694,285.9, 5.1, 9.2,0,0,1024,1024,1598,1024,0,0,87,0,279.1,-89.9,0,99,4.216,4.217,4.21,4.215,0,0,8.028,77.72,114.3446906669,60.69554,6,P-GPS,
26800,2023-06-09 17:17:52,52.2064002500302,0.0866107066666128,61.023624,60.8923904,53.780384266904,114.6727746669,57.4147,0,26.3552173788,34.603347564,29,5,16.928,114.6727746669,61.023624,5.59235,26.4007226296,0,0,-1.11847,285.8, 4.3, 7.7,0,0,1024,1024,1024,1024,0,0,0,0,279.1,-90,0,99,4.216,4.217,4.21,4.215,0,0,8.028,77.72,114.6727746669,61.023624,6,P-GPS,
27000,2023-06-09 17:17:52,52.206400267466,0.0866107698120433,61.679792,61.5485584,53.780384266904,115.3289426669,58.070868,0,26.3452108168,34.618767512,29,5,16.928,115.3289426669,61.679792,5.59235,26.4007226296,0,0,-3.131716,286, 4.7, 7.6,0,0,1024,1024,1024,1024,0,0,0,0,279.1,-89.9,0,99,4.216,4.217,4.21,4.215,0,0,8.028,77.72,115.3289426669,61.679792,6,P-GPS,
27200,2023-06-09 17:17:52,52.2064002319369,0.0866108665222686,62.33596,62.2047264,53.780384266904,115.9851106669,59.05512,0,26.3201123908,34.64402998,28,5,16.857,115.9851106669,62.33596,5.59235,26.4007226296,0,0,-2.013246,286.1, 6.2, 10.8,0,0,1024,1024,1024,1024,0,0,0,0,279.1,-89.9,0,99,4.143,4.14,4.134,4.143,0,0,7.804,77.72,115.9851106669,62.33596,6,P-GPS,
27400,2023-06-09 17:17:53,52.2064001814457,0.0866109148424325,62.664044,62.5328104,53.780384266904,116.3131946669,59.05512,0,26.3024286632,34.66535544,27,5,16.857,116.3131946669,62.664044,5.59235,26.4007226296,0,0,-0.671082,286, 5.1, 10.3,0,0,1024,1024,1024,1024,0,0,0,0,279.1,-90,0,99,4.143,4.14,4.134,4.143,0,0,7.804,77.72,116.3131946669,62.664044,6,P-GPS,
27600,2023-06-09 17:17:53,52.2064001882307,0.0866109913942096,62.664044,62.5328104,53.780384266904,116.3131946669,58.727036,0,26.288058584,34.682743892,27,5,16.857,116.3131946669,62.664044,5.59235,26.4007226296,0,0,0,285.7, 4.9, 9.8,0,0,1024,1024,1252,1024,0,0,35,0,279.1,-90,0,99,4.143,4.14,4.134,4.143,0,0,7.804,77.72,116.3131946669,62.664044,6,P-GPS,
27800,2023-06-09 17:17:53,52.206400274598,0.0866111222913179,62.664044,62.5328104,53.780384266904,116.3131946669,58.727036,0,26.2751976912,34.725722896,28,5,16.857,116.3131946669,62.664044,5.59235,26.4007226296,0,0,0,285.7, 4.8, 9,0,0,1024,1024,1596,1024,0,0,87,0,279.1,-89.9,0,99,4.143,4.14,4.134,4.143,0,0,7.804,77.72,116.3131946669,62.664044,6,P-GPS,
28000,2023-06-09 17:17:53,52.2064004311754,0.0866113596493573,62.664044,62.5328104,53.780384266904,116.3131946669,58.727036,0,26.2520677692,34.803806888,28,5,16.857,116.3131946669,62.664044,5.59235,26.4007226296,0,0,-0.894776,285.7, 2.8, 6.2,0,0,1024,1024,1024,1024,0,0,0,0,279.1,-89.9,0,99,4.143,4.14,4.134,4.143,0,0,7.804,77.72,116.3131946669,62.664044,6,P-GPS,
28200,2023-06-09 17:17:53,52.2064005768857,0.0866114861988391,63.320212,63.1889784,53.780384266904,116.9693626669,59.383204,0,26.2497055644,34.86384626,28,5,16.824,116.9693626669,63.320212,5.59235,26.4007226296,0,0,-2.013246,285.6, 4.1, 7.5,0,0,1024,1024,1024,1024,0,0,0,0,279.1,-90,0,99,4.197,4.202,4.196,4.202,0,0,8.43,77.72,116.9693626669,63.320212,6,P-GPS,
28400,2023-06-09 17:17:54,52.2064006218898,0.0866114361731754,63.648296,63.5170624,53.780384266904,117.2974466669,60.039372,0,26.2669299744,34.883859384,28,5,16.824,117.2974466669,63.648296,5.59235,26.4007226296,0,0,-0.447388,286, 5.2, 9.1,0,0,1024,1024,1098,1024,0,0,11,0,279.1,-89.9,0,99,4.197,4.202,4.196,4.202,0,0,8.43,77.72,117.2974466669,63.648296,6,P-GPS,
28600,2023-06-09 17:17:54,52.2064006552579,0.0866113960729612,63.648296,63.5170624,53.780384266904,117.2974466669,60.039372,0,26.2803158016,34.898951248,28,5,16.824,117.2974466669,63.648296,5.59235,26.4007226296,0,0,0,285.7, 4.5, 8.4,0,0,1024,1024,1535,1024,0,0,77,0,279.1,-90,0,99,4.197,4.202,4.196,4.202,0,0,8.43,77.72,117.2974466669,63.648296,6,P-GPS,
28800,2023-06-09 17:17:54,52.2064007133287,0.0866113829252354,63.97638,63.8451464,53.780384266904,117.6255306669,60.039372,0,26.2921924424,34.920276708,28,5,16.824,117.6255306669,63.97638,5.59235,26.4007226296,0,0,-0.671082,285.8, 4, 6.7,0,0,1024,1024,1024,1024,0,0,0,0,279.1,-89.9,0,99,4.197,4.202,4.196,4.202,0,0,8.43,77.72,117.6255306669,63.97638,6,P-GPS,
29000,2023-06-09 17:17:54,52.2064007697461,0.0866113865529173,64.304464,64.1732304,53.780384266904,117.9536146669,60.367456,0,26.3004929676,34.940946,28,5,16.824,117.9536146669,64.304464,5.59235,26.4007226296,0,0,-1.342164,285.7, 5, 8.5,0,0,1024,1024,1024,1024,0,0,0,0,279.1,-90,0,99,4.197,4.202,4.196,4.202,0,0,8.43,77.72,117.9536146669,64.304464,6,P-GPS,
29200,2023-06-09 17:17:54,52.2064007433665,0.086611314879988,64.632548,64.5013144,53.780384266904,118.2816986669,60.69554,0,26.31069638,34.959646788,28,5,16.836,118.2816986669,64.632548,5.59235,26.4007226296,0,0,-0.223694,286, 5.2, 9.3,0,0,1024,1024,1024,1024,0,0,0,0,279.1,-89.9,0,99,4.187,4.146,4.131,4.134,0,0,7.991,77.72,118.2816986669,64.632548,6,P-GPS,
29400,2023-06-09 17:17:55,52.2064007445059,0.0866113205556676,64.632548,64.5013144,53.780384266904,118.2816986669,60.69554,0,26.309712128,34.960959124,28,5,16.836,118.2816986669,64.632548,5.59235,26.4007226296,0,0,0,285.7, 4.1, 8,0,0,1516,1024,1024,1024,75,0,0,0,279.1,-90,0,99,4.187,4.146,4.131,4.134,0,0,7.991,77.72,118.2816986669,64.632548,6,P-GPS,
29600,2023-06-09 17:17:55,52.206400765619,0.0866112917858434,64.632548,64.5013144,53.780384266904,118.2816986669,60.69554,0,26.3188656716,34.971129728,28,5,16.836,118.2816986669,64.632548,5.59235,26.4007226296,0,0,0,285.7, 3.6, 5.5,0,0,1638,1024,1024,1024,93,0,0,0,279.1,-89.9,0,99,4.187,4.146,4.131,4.134,0,0,7.991,77.72,118.2816986669,64.632548,6,P-GPS,
29800,2023-06-09 17:17:55,52.2064006937448,0.0866109410609968,64.632548,64.5013144,53.780384266904,118.2816986669,60.69554,0.447388,26.3779864084,35.053806896,28,5,16.836,118.2816986669,64.632548,5.59235,26.4007226296,0,-0.447388,0,285.3, -10.6, 2.3,0,0,1651,1024,1024,1024,95,0,0,0,279.1,-89.9,0,99,4.187,4.146,4.131,4.134,0,0,7.991,77.72,118.2816986669,64.632548,6,P-GPS,
30000,2023-06-09 17:17:55,52.2064005569055,0.0866092815468009,64.632548,64.5013144,53.780384266904,118.2816986669,60.69554,1.565858,26.6910769696,35.42815074,27,5,16.836,118.2816986669,64.632548,5.59235,26.6910769696,0,-1.565858,0,284.9, -10.2, 4.6,0,0,1501,1024,1024,1024,72,0,0,0,279.1,-89.9,0,99,4.187,4.146,4.131,4.134,0,0,7.991,77.72,118.2816986669,64.632548,6,P-GPS,
30200,2023-06-09 17:17:55,52.20640049145,0.0866062209505546,64.632548,64.5013144,53.780384266904,118.2816986669,60.039372,2.460634,27.301017934,36.112862048,27,5,16.8,118.2816986669,64.632548,5.59235,27.301017934,0,-2.460634,0,285, -5.8, 6.6,0,0,1024,1024,1024,1024,0,0,0,0,279.1,-90,0,99,4.202,4.207,4.188,4.218,0,0,8.078,77.9,118.2816986669,64.632548,6,P-GPS,
30400,2023-06-09 17:17:56,52.2064005531768,0.0866022226859054,64.632548,64.5013144,53.780384266904,118.2816986669,60.039372,3.131716,28.1247712412,37.006890948,27,5,16.8,118.2816986669,64.632548,5.59235,28.1247712412,0,-3.131716,0,285.1, 1.3, 7.1,0,0,1024,1024,1024,1024,0,0,0,0,279.1,-89.9,0,99,4.202,4.207,4.188,4.218,0,0,8.078,77.9,118.2816986669,64.632548,6,P-GPS,
30600,2023-06-09 17:17:56,52.206400659173,0.0865983325946768,64.632548,64.5013144,53.780384266904,118.2816986669,60.367456,2.460634,28.9369103748,37.877625884,27,5,16.8,118.2816986669,64.632548,5.59235,28.9369103748,0,-2.460634,0.223694,288, 25.7, 11.1,0,0,1024,1024,1024,1024,0,0,0,0,279.1,-90,0,99,4.202,4.207,4.188,4.218,0,0,8.078,77.9,118.2816986669,64.632548,6,P-GPS,
30800,2023-06-09 17:17:56,52.2064005754872,0.0865962680312725,64.632548,64.5013144,53.780384266904,118.2816986669,59.711288,0.671082,29.3493447712,38.340224324,27,5,16.8,118.2816986669,64.632548,5.59235,29.3493447712,0,-0.671082,0,287.2, 15.8, 12.3,0,0,1024,1024,1024,1024,0,0,0,0,279.1,-90,0,99,4.202,4.207,4.188,4.218,0,0,8.078,77.9,118.2816986669,64.632548,6,P-GPS,
31000,2023-06-09 17:17:56,52.2064005637505,0.0865958682313686,64.632548,64.5013144,53.780384266904,118.2816986669,52.821524,0,29.4300206268,38.429791256,27,5,16.8,118.2816986669,64.632548,5.59235,29.4300206268,0,0,0,286.1, 8.3, 10.4,0,0,1024,1024,1024,1024,0,0,0,0,279.1,-90,0,99,4.202,4.207,4.188,4.218,0,0,8.078,77.9,118.2816986669,64.632548,6,P-GPS,
31200,2023-06-09 17:17:56,52.2064006568321,0.0865960006452533,64.632548,64.5013144,53.780384266904,118.2816986669,53.149608,0,29.4159786316,38.474738764,27,5,16.762,118.2816986669,64.632548,5.59235,29.4300206268,0,0,0,285.8, 5.6, 8.6,0,0,1024,1024,1024,1024,0,0,0,0,279.1,-90,0,99,4.164,4.174,4.171,4.178,0,0,8.054,77.9,118.2816986669,64.632548,6,P-GPS,
31400,2023-06-09 17:17:57,52.2064007773814,0.0865961835111767,64.632548,64.5013144,53.780384266904,118.2816986669,60.039372,0,29.39550619,38.534778136,27,5,16.762,118.2816986669,64.632548,5.59235,29.4300206268,0,0,0,285.7, 5.2, 7.6,0,0,1024,1024,1024,1024,0,0,0,0,279.1,-90,0,99,4.164,4.174,4.171,4.178,0,0,8.054,77.9,118.2816986669,64.632548,6,P-GPS,
31600,2023-06-09 17:17:57,52.2064008956026,0.0865963832084258,64.632548,64.5013144,53.780384266904,118.2816986669,60.367456,0,29.371392016,38.597114096,27,5,16.762,118.2816986669,64.632548,5.59235,29.4300206268,0,0,0,285.7, 5.2, 8,0,0,1024,1024,1024,1024,0,0,0,0,279.1,-90,0,99,4.164,4.174,4.171,4.178,0,0,8.054,77.9,118.2816986669,64.632548,6,P-GPS,
31800,2023-06-09 17:17:57,52.2064010279142,0.0865966151563962,64.632548,64.5013144,53.780384266904,118.2816986669,60.367456,0,29.3427830912,38.66798024,27,5,16.762,118.2816986669,64.632548,5.59235,29.4300206268,0,0,0,285.8, 4.9, 8.1,0,0,1024,1024,1024,1024,0,0,0,0,279.1,-90,0,99,4.164,4.174,4.171,4.178,0,0,8.054,77.9,118.2816986669,64.632548,6,P-GPS,
32000,2023-06-09 17:17:57,52.2064011781693,0.0865968452590717,64.632548,64.5013144,53.780384266904,118.2816986669,60.69554,0,29.3172909644,38.743111476,27,5,16.762,118.2816986669,64.632548,5.59235,29.4300206268,0,0,0,285.6, 4.3, 8,0,1,1024,1024,1024,1024,0,0,0,0,279.1,-90,0,99,4.164,4.174,4.171,4.178,0,0,8.054,77.9,118.2816986669,64.632548,6,P-GPS,
32200,2023-06-09 17:17:57,52.2064013580187,0.0865970493878243,64.632548,64.5013144,53.780384266904,118.2816986669,60.69554,0,29.3016413576,38.822835888,27,5,16.788,118.2816986669,64.632548,5.59235,29.4300206268,0,0,0,285.8, 4.6, 7,0,1,1024,1024,1024,1024,0,0,0,0,279.1,-89.9,0,98,4.192,4.198,4.191,4.196,0,0,7.706,78.08,118.2816986669,64.632548,6,P-GPS,
32400,2023-06-09 17:17:58,52.2064015468763,0.0865972707672878,64.632548,64.468506,53.813192666904,118.2816986669,61.023624,0,29.28395763,38.907809644,27,5,16.788,118.2816986669,64.632548,5.59235,29.4300206268,0,0,0,285.7, 4.2, 7.1,0,1,1024,1024,1024,1024,0,0,0,0,279.1,-90,0,98,4.192,4.198,4.191,4.196,0,0,7.706,78.08,118.2816986669,64.632548,6,P-GPS,
32600,2023-06-09 17:17:58,52.2064017230055,0.0865974865829078,64.632548,64.468506,53.813192666904,118.2816986669,61.023624,0,29.2657817764,38.988190224,27,5,16.788,118.2816986669,64.632548,5.59235,29.4300206268,0,0,0,285.6, 4, 7.2,0,1,1024,1024,1024,1024,0,0,0,0,279.1,-89.9,0,98,4.192,4.198,4.191,4.196,0,0,7.706,78.08,118.2816986669,64.632548,6,P-GPS,
