time(millisecond),datetime(utc),latitude,longitude,height_above_takeoff(feet),height_above_ground_at_drone_location(feet),ground_elevation_at_drone_location(feet),altitude_above_seaLevel(feet),height_sonar(feet),speed(mph),distance(feet),mileage(feet),satellites,gpslevel,voltage(v),max_altitude(feet),max_ascent(feet),max_speed(mph),max_distance(feet), xSpeed(mph), ySpeed(mph), zSpeed(mph), compass_heading(degrees), pitch(degrees), roll(degrees),isPhoto,isVideo,rc_elevator,rc_aileron,rc_throttle,rc_rudder,rc_elevator(percent),rc_aileron(percent),rc_throttle(percent),rc_rudder(percent),gimbal_heading(degrees),gimbal_pitch(degrees),gimbal_roll(degrees),battery_percent,voltageCell1,voltageCell2,voltageCell3,voltageCell4,voltageCell5,voltageCell6,current(A),battery_temperature(f),altitude(feet),ascent(feet),flycStateRaw,flycState,message
100,2023-06-13 17:32:34,52.2073859790472,0.0870958970684428,0,0,60.750038361324,60.750038361324,0,0,0,0,15,5,0,60.750038361324,0,0,0,0,0,0,193.2, 7.7, 0.2,0,0,1024,1024,1024,1024,0,0,0,0,193.3,0,0,71,3.992,3.998,3.996,3.993,0,0,0,76.1,60.750038361324,0,41,Motors_Started,
300,2023-06-13 17:32:34,52.2073859555369,0.0870957235086807,0,0,60.750038361324,60.750038361324,0,0,0.039741471088,0.039741471088,14,5,0,60.750038361324,0,0,0.039741471088,0,0,0,193.2, 7.7, 0.2,0,0,1024,1024,1024,1024,0,0,0,0,193.3,0,0,71,3.992,3.998,3.996,3.993,0,0,0,76.1,60.750038361324,0,41,Motors_Started,
500,2023-06-13 17:32:34,52.2073859190722,0.0870955928989309,0,0,60.750038361324,60.750038361324,0,0,0.071440291,0.071831367128,13,5,0,60.750038361324,0,0,0.071440291,0,0,0,193.3, 7.7, 0.2,0,0,1024,1024,1024,1024,0,0,0,0,193.3,0,0,71,3.992,3.998,3.996,3.993,0,0,0,76.1,60.750038361324,0,41,Motors_Started,"Setting new Return-To-Home altitude to 26m (85 ft). Data Recorder File Index is 39. Setting new Maximum Flight Altitude to 120m (394 ft)"
700,2023-06-13 17:32:34,52.2073858757108,0.0870955135855971,0,0,60.750038361324,60.750038361324,0,0,0.09366306074,0.0955954755,13,5,0,60.750038361324,0,0,0.09366306074,0,0,0,193.2, 7.7, 0.2,0,0,1024,1024,1024,1024,0,0,0,0,193.3,0,0,71,3.992,3.998,3.996,3.993,0,0,0,76.1,60.750038361324,0,41,Motors_Started,
900,2023-06-13 17:32:34,52.2073858228282,0.0870954655547853,0,0,60.750038361324,60.750038361324,0,0,0.112056762116,0.11767716912,13,5,0,60.750038361324,0,0,0.112056762116,0,0,0,193.2, 7.7, 0.2,0,0,1024,1024,1024,1024,0,0,0,0,193.3,0,0,71,3.992,3.998,3.996,3.993,0,0,0,76.1,60.750038361324,0,41,Motors_Started,
1100,2023-06-13 17:32:35,52.2073857668487,0.0870954623743708,0,0,60.750038361324,60.750038361324,0,0,0.12425689374,0.13811352148,13,5,0,60.750038361324,0,0,0.12425689374,0,0,0,193.4, 7.7, 0.2,0,0,1024,1024,1024,1024,0,0,0,0,193.3,0,0,71,3.992,3.998,3.996,3.993,0,0,0,76.1,60.750038361324,0,41,Motors_Started,
1300,2023-06-13 17:32:35,52.2073857213179,0.0870955209542855,0,0,60.750038361324,60.750038361324,0,0,0.126148954168,0.159267721632,13,5,0,60.750038361324,0,0,0.126148954168,0,0,0,194, 7.7, 0.1,0,0,1024,1024,1024,1024,0,0,0,0,193.3,0,0,71,3.992,3.998,3.996,3.993,0,0,0,76.1,60.750038361324,0,41,Motors_Started,
1500,2023-06-13 17:32:35,52.207385684103,0.0870956117931268,0,0,60.750038361324,60.750038361324,0,0,0.125092523688,0.183698168608,13,5,15.993,60.750038361324,0,0,0.126148954168,0,0,0,194.5, 7.7, 0.1,0,0,1024,1024,1024,1024,0,0,0,0,193.4,0,0,71,3.992,3.998,3.996,3.993,0,0,4.409,76.1,60.750038361324,0,41,Motors_Started,
1700,2023-06-13 17:32:35,52.2073856568784,0.0870957120334132,0,0,60.750038361324,60.750038361324,0,0,0.124610896376,0.208212605088,14,5,15.993,60.750038361324,0,0,0.126148954168,0,0,0,194.7, 7.7, 0.1,0,0,1024,1024,1024,1024,0,0,0,0,193.5,0,0,71,3.992,3.998,3.996,3.993,0,0,4.409,76.1,60.750038361324,0,11,AutoTakeoff,
1900,2023-06-13 17:32:35,52.2073856007183,0.0870958326384003,0,0,60.750038361324,60.750038361324,0,0,0.13878281284,0.242079075988,15,5,15.993,60.750038361324,0,0,0.13878281284,0,0,0,194.8, 7.6, 0.2,0,0,1024,1024,1024,1024,0,0,0,0,193.6,0,0,71,3.992,3.998,3.996,3.993,0,0,4.409,76.1,60.750038361324,0,11,AutoTakeoff,
2100,2023-06-13 17:32:36,52.2073855875318,0.0870959711480725,0,0,60.750038361324,60.750038361324,0,0,0.143801185704,0.273418972004,15,5,15.993,60.750038361324,0,0,0.143801185704,0,0,0,194.9, 5.1, 0.2,0,0,1024,1024,1024,1024,0,0,0,0,193.6,0,0,71,3.992,3.998,3.996,3.993,0,0,4.409,76.1,60.750038361324,0,11,AutoTakeoff,
2300,2023-06-13 17:32:36,52.2073857429505,0.0870961861554506,0,0,60.750038361324,60.750038361324,0,0.223694,0.107692588748,0.34775919748,15,5,15.993,60.750038361324,0,0.223694,0.143801185704,0.223694,0,-0.671082,195.4, -1.1, 0.5,0,0,1024,1024,1024,1024,0,0,0,0,193.8,0,0,71,3.992,3.998,3.996,3.993,0,0,4.409,76.1,60.750038361324,0,11,AutoTakeoff,
2500,2023-06-13 17:32:36,52.2073858648288,0.0870963275309908,0.328084,0.328084,60.750038361324,61.078122361324,0.328084,0,0.104877956112,0.40231628584,15,5,16.041,61.078122361324,0.328084,0.223694,0.143801185704,0,0,-0.894776,195.2, -1.2, 0,0,0,1024,1024,1024,1024,0,0,0,0,193.9,0,0,71,3.994,3.993,3.988,3.982,0,0,3.546,76.1,61.078122361324,0.328084,11,AutoTakeoff,
2700,2023-06-13 17:32:36,52.2073858532517,0.0870963870401282,0.656168,0.656168,60.750038361324,61.406206361324,0.656168,0,0.1187746101,0.4162729792,15,5,16.041,61.406206361324,0.656168,0.223694,0.143801185704,0,0,-0.894776,195.2, -0.9, 0.2,0,0,1024,1024,1684,1083,0,0,100,9,194,0,0,71,3.994,3.993,3.988,3.982,0,0,3.546,76.1,61.406206361324,0.656168,11,AutoTakeoff,
2900,2023-06-13 17:32:36,52.2073857460138,0.0870963588205026,0.984252,0.984252,60.750038361324,61.734290361324,0.984252,0,0.133742786432,0.4559055264,15,5,16.041,61.734290361324,0.984252,0.223694,0.143801185704,0,0,-1.11847,195.3, -0.2, 0,0,0,1024,1024,1684,1073,0,0,100,7,194.1,0,0,71,3.994,3.993,3.988,3.982,0,0,3.546,76.1,61.734290361324,0.984252,11,AutoTakeoff,
3100,2023-06-13 17:32:37,52.2073855888968,0.0870962755901913,1.64042,1.64042,60.750038361324,62.390458361324,1.64042,0,0.165604336008,0.5161745572,18,5,16.041,62.390458361324,1.64042,0.223694,0.165604336008,0,0,-2.460634,195.8, 0.6, 0,0,0,1024,1024,1684,1035,0,0,100,2,194.2,0,0,71,3.994,3.993,3.988,3.982,0,0,3.546,76.1,62.390458361324,1.64042,11,AutoTakeoff,
3300,2023-06-13 17:32:37,52.2073854661703,0.0870961607234933,2.624672,2.624672,60.750038361324,63.374710361324,2.624672,0,0.196188326488,0.56779201292,18,5,16.041,63.374710361324,2.624672,0.223694,0.196188326488,0,0,-4.026492,196.2, 0.3, 0.1,0,0,1024,1024,1684,1024,0,0,100,0,194.3,0,0,71,3.994,3.993,3.988,3.982,0,0,3.546,76.1,63.374710361324,2.624672,11,AutoTakeoff,"Home Point updated (Code: 3000001)"
3500,2023-06-13 17:32:37,52.2073853407593,0.0870960038879932,3.937008,3.937008,60.750038361324,64.687046361324,4.265092,0,0.234100401192,0.62543965256,16,5,15.796,64.687046361324,3.937008,0.223694,0.234100401192,0,0,-5.59235,196.1, 0.8, 0.1,0,0,1024,1024,1684,1024,0,0,100,0,194.5,0,0,71,3.92,3.92,3.914,3.909,0,0,8.051,75.92,64.687046361324,3.937008,11,AutoTakeoff,
3700,2023-06-13 17:32:37,52.207385276089,0.0870957193269599,5.905512,5.905512,60.750038361324,66.655550361324,6.233596,0,0.259534457124,0.69329726628,15,4,15.796,66.655550361324,5.905512,0.223694,0.259534457124,0,0,-7.158208,196, 1.2, 0.4,0,0,1024,1024,1684,1024,0,0,100,0,194.5,0,0,71,3.92,3.92,3.914,3.909,0,0,8.051,75.92,66.655550361324,5.905512,6,P-GPS,
3900,2023-06-13 17:32:37,52.2073853175705,0.0870952674289425,9.186352,9.186352,60.750038361324,69.936390361324,8.530184,0,0.279396662484,0.79545934304,15,4,15.796,69.936390361324,9.186352,0.223694,0.279396662484,0,0,-9.171454,195.2, 0.3, 0.5,0,0,1024,1024,1684,1024,0,0,100,0,194.5,0,0,71,3.92,3.92,3.914,3.909,0,0,8.051,75.92,69.936390361324,9.186352,6,P-GPS,
4100,2023-06-13 17:32:38,52.207385416325,0.0870946753375555,13.451444,13.451444,60.750038361324,74.201482361324,11.811024,0,0.34170932852,0.93265751016,15,4,15.796,74.201482361324,13.451444,0.223694,0.34170932852,0,0,-11.1847,194.3, 0.6, 0.5,0,0,1024,1024,1024,1024,0,0,0,0,194.5,0,0,71,3.92,3.92,3.914,3.909,0,0,8.051,75.92,74.201482361324,13.451444,6,P-GPS,
4300,2023-06-13 17:32:38,52.2073856751097,0.0870938628041261,18.372704,18.372704,60.750038361324,79.122742361324,15.419948,0,0.46814634044,1.13739504952,17,4,15.796,79.122742361324,18.372704,0.223694,0.46814634044,0,0,-12.750558,192.9, 1.2, 0.2,0,0,1024,1024,1024,1024,0,0,0,0,194.5,0,0,71,3.92,3.92,3.914,3.909,0,0,8.051,75.92,79.122742361324,18.372704,6,P-GPS,
4500,2023-06-13 17:32:38,52.207386142557,0.087092981784752,22.637796,22.637796,60.750038361324,83.387834361324,19.028872,0,0.65452758,1.3979495198,18,4,15.468,83.387834361324,22.637796,0.223694,0.65452758,0,0,-12.30317,193.1, -0.5, 0.4,0,0,1024,1024,1024,1024,0,0,0,0,194.5,0,0,71,3.848,3.848,3.847,3.849,0,0,13.698,75.74,83.387834361324,22.637796,6,P-GPS,
4700,2023-06-13 17:32:38,52.2073867192317,0.0870920292252742,25.262468,25.2296596,60.782846761324,86.012506361324,22.637796,0,0.90596459592,1.69732288896,18,4,15.468,86.012506361324,25.262468,0.223694,0.90596459592,0,0,-10.737312,194.2, -0.3, 0.1,0,0,1024,1024,1120,1024,0,0,15,0,194.5,0,0,71,3.848,3.848,3.847,3.849,0,0,13.698,75.74,86.012506361324,25.262468,6,P-GPS,
4900,2023-06-13 17:32:38,52.2073873279781,0.0870910115433149,27.559056,27.5262476,60.782846761324,88.309094361324,25.590552,0,1.19806762364,2.0152887784,18,4,15.468,88.309094361324,27.559056,0.223694,1.19806762364,0,0,-8.500372,193.9, 0.4, 0.7,0,0,1058,1024,1684,1024,5,0,100,0,194.5,0,0,71,3.848,3.848,3.847,3.849,0,0,13.698,75.74,88.309094361324,27.559056,6,P-GPS,
5100,2023-06-13 17:32:39,52.207387961701,0.0870899070220601,29.52756,29.4947516,60.782846761324,90.277598361324,28.215224,0,1.52213587548,2.35358275248,19,4,15.468,90.277598361324,29.52756,0.223694,1.52213587548,0,0,-8.500372,194, 1.2, 0.4,0,0,1024,1024,1684,1024,0,0,100,0,194.5,0,0,71,3.848,3.848,3.847,3.849,0,0,13.698,75.74,90.277598361324,29.52756,6,P-GPS,
5300,2023-06-13 17:32:39,52.2073884205884,0.0870887202364139,32.152232,32.0866152,60.815655161324,92.902270361324,30.839896,0,1.83528877264,2.66733276252,19,4,15.468,92.902270361324,32.152232,0.223694,1.83528877264,0,0,-10.513618,194.3, 0.7, -0.4,0,0,1024,1024,1370,1024,0,0,52,0,194.5,0,0,71,3.848,3.848,3.847,3.849,0,0,13.698,75.74,92.902270361324,32.152232,6,P-GPS,
5500,2023-06-13 17:32:39,52.207388573486,0.0870874810149943,35.761156,35.6955392,60.815655161324,96.511194361324,32.8084,0,2.10635177344,2.94996072432,19,4,15.807,96.511194361324,35.761156,0.223694,2.10635177344,0,0,-12.30317,192.6, 2.3, -0.8,0,0,1054,1024,1024,1024,5,0,0,0,194.5,0,0,71,3.884,3.894,3.891,3.889,0,0,11.702,76.46,96.511194361324,35.761156,6,P-GPS,
5700,2023-06-13 17:32:39,52.2073884317363,0.0870864569119179,39.37008,39.3044632,60.815655161324,100.12011836132,36.745408,0.223694,2.29250991588,3.18469826464,20,4,15.807,100.12011836132,39.37008,0.223694,2.29250991588,-0.223694,0,-11.855782,191.9, 3.9, 0.8,0,0,1684,1024,1024,1024,100,0,0,0,194.5,0,0,71,3.884,3.894,3.891,3.889,0,0,11.702,76.46,100.12011836132,39.37008,6,P-GPS,
5900,2023-06-13 17:32:39,52.2073878571677,0.0870850826006455,42.979004,42.9133872,60.815655161324,103.72904236132,40.026248,0.4921268,2.51313656336,3.5566602188,21,4,15.807,103.72904236132,42.979004,0.4921268,2.51313656336,-0.447388,-0.223694,-9.842536,191.7, -3.7, -0.9,0,0,1684,1024,1024,1024,100,0,0,0,194.5,0,0,71,3.884,3.894,3.891,3.889,0,0,11.702,76.46,103.72904236132,42.979004,6,P-GPS,
6100,2023-06-13 17:32:40,52.2073865750133,0.087083324892154,45.603676,45.5052508,60.848463561324,106.35371436132,42.65092,1.7000744,2.81930455216,4.1676182436,21,4,15.807,106.35371436132,45.603676,1.7000744,2.81930455216,-1.565858,-0.671082,-8.500372,193.1, -25.8, -2.2,0,0,1684,1024,1024,1024,100,0,0,0,194.5,0,0,71,3.884,3.894,3.891,3.889,0,0,11.702,76.46,106.35371436132,45.603676,6,P-GPS,
6300,2023-06-13 17:32:40,52.2073840249824,0.087081434060599,46.916012,46.8175868,60.848463561324,107.66605036132,44.947508,3.1093466,3.3113190036,5.1895342868,21,4,15.807,107.66605036132,46.916012,3.1093466,3.3113190036,-2.908022,-1.11847,-6.263432,191.6, -29.4, -3.1,0,0,1684,1024,1024,1024,100,0,0,0,194.5,0,0,71,3.884,3.894,3.891,3.889,0,0,11.702,76.46,107.66605036132,46.916012,6,P-GPS,
6500,2023-06-13 17:32:40,52.2073802215049,0.0870787320503487,47.900264,47.8346472,60.815655161324,108.65030236132,27.230972,4.5633576,4.3750657568,6.7030513956,23,4,15.628,108.65030236132,47.900264,4.5633576,4.3750657568,-4.47388,-0.894776,-3.802798,188.5, -31.3, -3.5,0,0,1684,1024,1024,1024,100,0,0,0,194.5,0,0,70,3.981,3.975,3.964,3.987,0,0,11.62,76.1,108.65030236132,47.900264,6,P-GPS,
6700,2023-06-13 17:32:40,52.207375511899,0.0870756375612233,47.900264,47.8346472,60.815655161324,108.65030236132,27.88714,5.59235,5.924704914,8.5554136596,23,4,15.628,108.65030236132,47.900264,5.59235,5.924704914,-5.368656,-1.565858,-1.342164,193.4, -29.6, -2.9,0,0,1684,1024,1024,1024,100,0,0,0,194.5,0,0,70,3.981,3.975,3.964,3.987,0,0,11.62,76.1,108.65030236132,47.900264,6,P-GPS,
6900,2023-06-13 17:32:40,52.2073697781133,0.0870719740138143,47.900264,47.8346472,60.815655161324,108.65030236132,28.215224,7.493749,7.9716866068,10.802001658,22,4,15.628,108.65030236132,47.900264,7.493749,7.9716866068,-7.158208,-2.23694,0,194.9, -31.1, -1.6,0,0,1684,1024,1024,1024,100,0,0,0,194.5,0,0,70,3.981,3.975,3.964,3.987,0,0,11.62,76.1,108.65030236132,47.900264,6,P-GPS,
7100,2023-06-13 17:32:41,52.2073624091509,0.087067246825709,47.900264,47.8674556,60.782846761324,108.65030236132,28.215224,10.1109688,10.7230318392,13.6908468948,23,4,15.628,108.65030236132,47.900264,10.1109688,10.7230318392,-9.618842,-3.131716,0.223694,197.2, -30.1, -3.5,0,0,1684,1024,1024,1024,100,0,0,0,194.5,0,0,70,3.981,3.975,3.964,3.987,0,0,11.62,76.1,108.65030236132,47.900264,6,P-GPS,
7300,2023-06-13 17:32:41,52.2073533398592,0.0870616316606362,47.900264,47.900264,60.750038361324,108.65030236132,28.215224,12.7952968,14.1598757812,17.2299546196,22,4,15.628,108.65030236132,47.900264,12.7952968,14.1598757812,-12.079476,-4.250186,0.223694,197.9, -26.2, -7.4,0,0,1684,1024,1024,1024,100,0,0,0,194.5,0,0,70,3.981,3.975,3.964,3.987,0,0,11.62,76.1,108.65030236132,47.900264,6,P-GPS,
7500,2023-06-13 17:32:41,52.2073419006594,0.0870551526425638,47.900264,47.9330724,60.717229961324,108.65030236132,36.08924,14.7190652,18.4828746072,21.6477697216,22,4,15.995,108.65030236132,47.900264,14.7190652,18.4828746072,-14.092722,-4.250186,0,194.8, -21.9, -7.6,0,0,1684,1024,1024,1024,100,0,0,0,194.5,0,0,70,3.934,3.933,3.936,3.926,0,0,4.185,76.64,108.65030236132,47.900264,6,P-GPS,
7700,2023-06-13 17:32:41,52.2073295905592,0.0870484835545337,47.900264,47.9986892,60.651613161324,108.65030236132,36.417324,16.3744008,23.14386557,26.3801517628,22,4,15.995,108.65030236132,47.900264,16.3744008,23.14386557,-15.882274,-4.026492,0,193, -19.2, -7.2,0,0,1684,1024,1024,1024,100,0,0,0,194.5,0,0,70,3.934,3.933,3.936,3.926,0,0,4.185,76.64,108.65030236132,47.900264,6,P-GPS,
7900,2023-06-13 17:32:41,52.2073153643858,0.0870413709874103,47.900264,48.064306,60.585996361324,108.65030236132,42.322836,17.8507812,28.502461542,31.8086952436,22,4,15.995,108.65030236132,47.900264,17.8507812,28.502461542,-17.224438,-4.697574,0,193.9, -17.6, -6.7,0,0,1684,1024,1024,1024,100,0,0,0,194.5,0,0,70,3.934,3.933,3.936,3.926,0,0,4.185,76.64,108.65030236132,47.900264,6,P-GPS,
8100,2023-06-13 17:32:42,52.2073004890454,0.0870341826006035,47.900264,48.1627312,60.487571161324,108.65030236132,42.65092,19.1482064,34.106628388,37.46883322,22,4,15.995,108.65030236132,47.900264,19.1482064,34.106628388,-18.566602,-4.697574,0,193.2, -16.6, -6.4,0,0,1684,1024,1024,1024,100,0,0,0,194.5,0,0,70,3.934,3.933,3.936,3.926,0,0,4.185,76.64,108.65030236132,47.900264,6,P-GPS,
8300,2023-06-13 17:32:42,52.2072847320874,0.0870268448531444,47.900264,48.2611564,60.389145961324,108.65030236132,43.963256,20.1771988,40.036418604,43.447507952,22,4,15.995,108.65030236132,47.900264,20.1771988,40.036418604,-19.461378,-5.368656,0,194.3, -15.7, -6.5,0,0,1684,1024,1024,1024,100,0,0,0,194.5,0,0,70,3.934,3.933,3.936,3.926,0,0,4.185,76.64,108.65030236132,47.900264,6,P-GPS,
8500,2023-06-13 17:32:42,52.2072681781059,0.0870194048221574,47.900264,48.39239,60.257912361324,108.65030236132,44.29134,21.3180382,46.257219328,49.711943848,22,4,15.711,108.65030236132,47.900264,21.3180382,46.257219328,-20.579848,-5.59235,0,193.8, -14.8, -6,0,0,1684,1024,1024,1024,100,0,0,0,194.5,0,0,70,3.934,3.94,3.934,3.933,0,0,8.745,76.64,108.65030236132,47.900264,6,P-GPS,
8700,2023-06-13 17:32:42,52.2072508817237,0.0870118119774967,47.900264,48.5236236,60.126678761324,108.65030236132,48.228348,22.3470306,52.753610612,56.247049044,23,4,15.711,108.65030236132,47.900264,22.3470306,52.753610612,-21.698318,-5.368656,0,193.1, -14.1, -5.7,0,0,1684,1024,1024,1024,100,0,0,0,194.5,0,0,70,3.934,3.94,3.934,3.933,0,0,8.745,76.64,108.65030236132,47.900264,6,P-GPS,
8900,2023-06-13 17:32:42,52.2072328988911,0.0870041141931377,48.228348,49.0157496,59.962636761324,108.97838636132,48.556432,23.1075902,59.501970408,63.02985766,23,4,15.711,108.97838636132,48.228348,23.1075902,59.501970408,-22.3694,-5.816044,0,193.8, -13.8, -5.7,0,0,1581,1024,1024,1024,84,0,0,0,194.5,0,0,70,3.934,3.94,3.934,3.933,0,0,8.745,76.64,108.97838636132,48.228348,6,P-GPS,
9100,2023-06-13 17:32:43,52.2072142881804,0.0869962782250116,48.228348,49.1141748,59.864211561324,108.97838636132,48.884516,24.0247356,66.483269844,70.042325076,23,4,15.711,108.97838636132,48.228348,24.0247356,66.483269844,-23.264176,-6.039738,0,193.8, -13.2, -4.9,0,0,1026,1024,1024,1024,0,0,0,0,194.5,0,0,70,3.934,3.94,3.934,3.933,0,0,8.745,76.64,108.97838636132,48.228348,6,P-GPS,
9300,2023-06-13 17:32:43,52.2071951307116,0.0869883074562406,48.228348,49.1141748,59.864211561324,108.97838636132,48.884516,24.6958176,73.668965612,77.2555799,23,5,15.711,108.97838636132,48.228348,24.6958176,73.668965612,-23.935258,-6.039738,0,193.2, 2, -5.8,0,0,1024,1024,1675,1024,0,0,99,0,194.5,0,0,70,3.934,3.94,3.934,3.933,0,0,8.745,76.64,108.97838636132,48.228348,6,P-GPS,
9500,2023-06-13 17:32:43,52.2071763847805,0.0869805098767659,48.228348,49.1141748,59.864211561324,108.97838636132,48.884516,23.0628514,80.704726992,84.313650992,23,5,15.752,108.97838636132,48.228348,24.6958176,80.704726992,-22.3694,-5.59235,-0.223694,193.9, 28, -3.4,0,0,1024,1024,1684,1024,0,0,100,0,194.5,0,0,70,3.936,3.942,3.94,3.939,0,0,7.727,76.64,108.97838636132,48.228348,6,P-GPS,
9700,2023-06-13 17:32:43,52.2071598334719,0.0869735423645029,48.884516,49.7703428,59.864211561324,109.63455436132,48.884516,19.6403332,86.9258558,90.550199748,23,5,15.752,109.63455436132,48.884516,24.6958176,86.9258558,-19.01399,-4.921268,-1.789552,192.2, 29.2, -4.1,0,0,1024,1024,1684,1024,0,0,100,0,194.5,0,0,70,3.936,3.942,3.94,3.939,0,0,7.727,76.64,109.63455436132,48.884516,6,P-GPS,
9900,2023-06-13 17:32:43,52.207146229544,0.0869676663565125,50.196852,51.0826788,59.864211561324,110.94689036132,42.979004,15.4572554,92.051184048,95.684386264,23,5,15.752,110.94689036132,50.196852,24.6958176,92.051184048,-14.987498,-3.802798,-4.026492,191.1, 29.7, -7.1,0,0,1024,1024,1684,1024,0,0,100,0,194.5,0,0,70,3.936,3.942,3.94,3.939,0,0,7.727,76.64,110.94689036132,50.196852,6,P-GPS,
10100,2023-06-13 17:32:44,52.2071358550026,0.0869633190025136,51.837272,52.7230988,59.864211561324,112.58731036132,44.619424,11.2741776,95.951118556,99.592522872,23,5,15.752,112.58731036132,51.837272,24.6958176,95.951118556,-10.961006,-2.684328,-6.487126,191.1, 26.8, -8.9,0,0,1024,1024,1684,1024,0,0,100,0,194.5,0,0,70,3.936,3.942,3.94,3.939,0,0,7.727,76.64,112.58731036132,51.837272,6,P-GPS,
10300,2023-06-13 17:32:44,52.2071285668487,0.0869607428108586,54.461944,55.3477708,59.864211561324,115.21198236132,47.244096,7.941137,98.658467724,102.313323484,23,5,15.752,115.21198236132,54.461944,24.6958176,98.658467724,-7.82929,-1.342164,-8.94776,192.7, 22.9, -6.5,0,0,1024,1024,1641,1024,0,0,93,0,194.5,0,0,70,3.936,3.942,3.94,3.939,0,0,7.727,76.64,115.21198236132,54.461944,6,P-GPS,
10500,2023-06-13 17:32:44,52.2071232448375,0.0869595173097821,57.742784,58.6286108,59.864211561324,118.49282236132,57.086616,5.1673314,100.591210568,104.274281552,23,5,15.503,118.49282236132,57.742784,24.6958176,100.591210568,-5.144962,-0.447388,-11.1847,194.6, 19.8, -1.8,0,0,1024,1024,1185,1024,0,0,24,0,194.5,0,0,70,3.822,3.82,3.83,3.826,0,0,9.557,76.64,118.49282236132,57.742784,6,P-GPS,
10700,2023-06-13 17:32:44,52.2071197829104,0.0869589068519383,62.007876,62.8937028,59.864211561324,122.75791436132,60.039372,3.802798,101.836617432,105.5446228,23,5,15.503,122.75791436132,62.007876,24.6958176,101.836617432,-3.802798,-0.223694,-11.632088,195.1, 14.8, -1.3,0,0,1024,1024,1024,1024,0,0,0,0,194.5,0,0,70,3.822,3.82,3.83,3.826,0,0,9.557,76.64,122.75791436132,62.007876,6,P-GPS,
10900,2023-06-13 17:32:44,52.2071170355502,0.0869582543567038,64.960632,65.8464588,59.864211561324,125.71067036132,62.33596,3.131716,102.836617464,106.557418108,23,5,15.503,125.71067036132,64.960632,24.6958176,102.836617464,-3.131716,-0.223694,-9.842536,194.9, 12.3, -1.4,0,0,1024,1024,1024,1024,0,0,0,0,194.5,0,0,70,3.822,3.82,3.83,3.826,0,0,9.557,76.64,125.71067036132,64.960632,6,P-GPS,
11100,2023-06-13 17:32:45,52.2071146717654,0.0869572409997587,66.929136,67.8149628,59.864211561324,127.67917436132,64.632548,2.5053728,103.727365524,107.44915042,23,5,15.503,127.67917436132,66.929136,24.6958176,103.727365524,-2.460634,-0.447388,-7.605596,194.7, 13, -2.8,0,0,1024,1024,1024,1024,0,0,0,0,194.5,0,0,70,3.822,3.82,3.83,3.826,0,0,9.557,76.64,127.67917436132,66.929136,6,P-GPS,
11300,2023-06-13 17:32:45,52.2071126238429,0.086955851263476,68.241472,69.1272988,59.864211561324,128.99151036132,65.6168,2.125093,104.533139828,108.258533648,23,5,15.503,128.99151036132,68.241472,24.6958176,104.533139828,-2.013246,-0.671082,-5.144962,195.4, 14.3, -5,0,0,1024,1024,1024,789,0,0,0,-36,194.5,0,0,70,3.822,3.82,3.83,3.826,0,0,9.557,76.64,128.99151036132,68.241472,6,P-GPS,
11500,2023-06-13 17:32:45,52.2071108376056,0.0869543047572238,68.89764,69.7834668,59.864211561324,129.64767836132,65.6168,1.901399,105.258533552,108.99606648,23,5,15.535,129.64767836132,68.89764,24.6958176,105.258533552,-1.789552,-0.671082,-2.684328,196.3, 16.1, -6.4,0,0,1024,1024,1024,364,0,0,0,-100,194.3,0,0,70,3.958,3.964,3.964,3.966,0,0,15.076,77,129.64767836132,68.89764,6,P-GPS,
11700,2023-06-13 17:32:45,52.2071093258524,0.0869528343712216,69.225724,70.1115508,59.864211561324,129.97576236132,64.960632,1.6329662,105.883533572,109.638454952,23,5,15.535,129.97576236132,69.225724,24.6958176,105.883533572,-1.565858,-0.447388,-0.671082,193.6, 16.6, -7.2,0,0,1024,1024,1024,364,0,0,0,-100,187,0,0,70,3.958,3.964,3.964,3.966,0,0,15.076,77,129.97576236132,69.225724,6,P-GPS,
11900,2023-06-13 17:32:45,52.2071083043328,0.0869516627624435,69.225724,70.1115508,59.864211561324,129.97576236132,63.648296,0.9171454,106.318244872,110.093835544,23,5,15.535,129.97576236132,69.225724,24.6958176,106.318244872,-0.894776,-0.223694,0,181.7, 14.7, -9.7,0,0,1024,1024,1024,364,0,0,0,-100,175.1,0,0,70,3.958,3.964,3.964,3.966,0,0,15.076,77,129.97576236132,69.225724,6,P-GPS,
12100,2023-06-13 17:32:46,52.2071079041376,0.0869508478493825,69.225724,70.1115508,59.864211561324,129.97576236132,62.992128,0.223694,106.512798684,110.327431352,23,5,15.535,129.97576236132,69.225724,24.6958176,106.512798684,-0.223694,0,0,170, 11.5, -9.5,0,0,1024,1024,1024,364,0,0,0,-100,163.1,0,0,70,3.958,3.964,3.964,3.966,0,0,15.076,77,129.97576236132,69.225724,6,P-GPS,
12300,2023-06-13 17:32:46,52.2071080723919,0.0869502773179729,69.553808,70.4396348,59.864211561324,130.30384636132,62.33596,0,106.493113644,110.468835556,23,5,15.535,130.30384636132,69.553808,24.6958176,106.512798684,0,0,0,156.5, 7.9, -8.9,0,0,1024,1024,1024,364,0,0,0,-100,151.1,0,0,70,3.958,3.964,3.964,3.966,0,0,15.076,77,130.30384636132,69.553808,6,P-GPS,
12500,2023-06-13 17:32:46,52.2071085982467,0.0869497550170247,69.553808,70.4396348,59.864211561324,130.30384636132,62.992128,0.223694,106.346132012,110.693573096,23,5,15.827,130.30384636132,69.553808,24.6958176,106.512798684,0.223694,0,0,143.4, 4.5, -7.6,0,0,1024,1024,1024,364,0,0,0,-100,139.1,0,0,70,3.925,3.926,3.925,3.924,0,0,4.583,77.18,130.30384636132,69.553808,6,P-GPS,
12700,2023-06-13 17:32:46,52.2071093506622,0.0869491451043948,69.881892,70.7677188,59.864211561324,130.63193036132,63.648296,0.4921268,106.127299984,111.000003552,23,5,15.827,130.63193036132,69.881892,24.6958176,106.512798684,0.447388,-0.223694,0,131.2, 2.1, -6.9,0,0,1024,1024,1024,1024,0,0,0,0,127.1,0,0,70,3.925,3.926,3.925,3.924,0,0,4.583,77.18,130.63193036132,69.881892,6,P-GPS,
12900,2023-06-13 17:32:46,52.2071101523547,0.0869484235067919,69.881892,70.7677188,59.864211561324,130.63193036132,63.97638,0.4921268,105.899281604,111.333993064,23,5,15.827,130.63193036132,69.881892,24.6958176,106.512798684,0.447388,-0.223694,0,118.6, 1.2, -5.6,0,0,1024,1024,1024,1024,0,0,0,0,115.4,0,0,70,3.925,3.926,3.925,3.924,0,0,4.583,77.18,130.63193036132,69.881892,6,P-GPS,
13100,2023-06-13 17:32:47,52.2071108720446,0.0869474407657049,69.881892,70.7677188,59.864211561324,130.63193036132,64.632548,0.4921268,105.71850732,111.67651276,23,5,15.827,130.63193036132,69.881892,24.6958176,106.512798684,0.223694,-0.447388,0,111.3, -1.8, -4.6,0,0,1024,1024,1024,1024,0,0,0,0,112.5,0,0,70,3.925,3.926,3.925,3.924,0,0,4.583,77.18,130.63193036132,69.881892,6,P-GPS,
13300,2023-06-13 17:32:47,52.2071114154101,0.0869463261387705,69.881892,70.7677188,59.864211561324,130.63193036132,64.960632,0.447388,105.608927264,111.99475424,23,5,15.827,130.63193036132,69.881892,24.6958176,106.512798684,0,-0.447388,0,112.6, -5.9, -4.9,0,0,1024,1024,1024,1024,0,0,0,0,112.5,0,0,70,3.925,3.926,3.925,3.924,0,0,4.583,77.18,130.63193036132,69.881892,6,P-GPS,
13500,2023-06-13 17:32:47,52.2071117200498,0.0869454114935031,69.881892,70.7677188,59.864211561324,130.63193036132,64.960632,0.223694,105.568572932,112.22769388,23,5,15.744,130.63193036132,69.881892,24.6958176,106.512798684,0,-0.223694,0,112.4, -6.5, -6,0,0,1024,1024,1024,1024,0,0,0,0,112.5,0,0,70,3.938,3.944,3.942,3.944,0,0,7.375,77.18,130.63193036132,69.881892,6,P-GPS,
13700,2023-06-13 17:32:47,52.2071118275818,0.0869448587584348,69.881892,70.7677188,59.864211561324,130.63193036132,64.632548,0,105.57086952,112.35728706,23,5,15.744,130.63193036132,69.881892,24.6958176,106.512798684,0,0,0,112.3, -5.1, -6.2,0,0,1024,1024,1024,1024,0,0,0,0,112.5,0,0,70,3.938,3.944,3.942,3.944,0,0,7.375,77.18,130.63193036132,69.881892,6,P-GPS,
13900,2023-06-13 17:32:47,52.2071118523231,0.0869446134261541,69.881892,70.7677188,59.864211561324,130.63193036132,64.304464,0.223694,105.579727788,112.41306134,23,5,15.744,130.63193036132,69.881892,24.6958176,106.512798684,-0.223694,0,0,112.1, -3.2, -6,0,0,1024,1024,1024,1565,0,0,0,82,112.5,0,0,70,3.938,3.944,3.942,3.944,0,0,7.375,77.18,130.63193036132,69.881892,6,P-GPS,
14100,2023-06-13 17:32:48,52.207111844373,0.0869445978945475,69.881892,70.7677188,59.864211561324,130.63193036132,64.632548,0.3131716,105.583664796,112.417326432,23,5,15.744,130.63193036132,69.881892,24.6958176,106.512798684,-0.223694,0.223694,0,112, -2.6, -6.2,0,0,1024,1024,1024,1669,0,0,0,98,112.5,0,0,70,3.938,3.944,3.942,3.944,0,0,7.375,77.18,130.63193036132,69.881892,6,P-GPS,
14300,2023-06-13 17:32:48,52.2071118080835,0.0869447066297734,69.881892,70.7677188,59.864211561324,130.63193036132,64.632548,0.3131716,105.588257972,112.445213572,23,5,15.744,130.63193036132,69.881892,24.6958176,106.512798684,-0.223694,0.223694,0,113.1, -2.1, -6.8,0,0,1024,1024,1024,1668,0,0,0,98,117.6,0,0,70,3.938,3.944,3.942,3.944,0,0,7.375,77.18,130.63193036132,69.881892,6,P-GPS,
14500,2023-06-13 17:32:48,52.2071117371837,0.0869448439118405,69.881892,70.7677188,59.864211561324,130.63193036132,64.960632,0.3131716,105.603021752,112.48523982,23,5,15.739,130.63193036132,69.881892,24.6958176,106.512798684,-0.223694,0.223694,0,123.3, -2.2, -5.9,0,0,1024,1024,1024,1659,0,0,0,96,128.4,0,0,70,3.94,3.941,3.942,3.94,0,0,6.463,77.36,130.63193036132,69.881892,6,P-GPS,
14700,2023-06-13 17:32:48,52.2071115806318,0.0869450223505682,69.881892,70.7677188,59.864211561324,130.63193036132,64.960632,0.4921268,105.644360336,112.554793628,23,5,15.739,130.63193036132,69.881892,24.6958176,106.512798684,-0.447388,0.223694,0,135.2, -2.3, -6.7,0,0,1024,1024,1024,1651,0,0,0,95,139.7,0,0,70,3.94,3.941,3.942,3.94,0,0,6.463,77.36,130.63193036132,69.881892,6,P-GPS,
14900,2023-06-13 17:32:48,52.2071112719999,0.0869452629716415,70.209976,71.0958028,59.864211561324,130.96001436132,64.960632,0.4921268,105.733927268,112.679793632,23,5,15.739,130.96001436132,70.209976,24.6958176,106.512798684,-0.447388,0.223694,0,145.7, -0.2, -7.4,0,0,1024,1024,1024,1645,0,0,0,94,150.8,0,0,70,3.94,3.941,3.942,3.94,0,0,6.463,77.36,130.96001436132,70.209976,6,P-GPS,
15100,2023-06-13 17:32:49,52.2071108532488,0.0869455131129885,70.209976,71.0958028,59.864211561324,130.96001436132,64.960632,0.4921268,105.860895776,112.842523296,23,5,15.739,130.96001436132,70.209976,24.6958176,106.512798684,-0.447388,0.223694,0,156.4, 2.1, -7.7,0,0,1024,1024,1024,1643,0,0,0,94,161.5,0,0,70,3.94,3.941,3.942,3.94,0,0,6.463,77.36,130.96001436132,70.209976,6,P-GPS,
15300,2023-06-13 17:32:49,52.2071104378559,0.0869456797527278,70.53806,71.4238868,59.864211561324,131.28809836132,64.960632,0.447388,105.992785544,112.998363196,23,5,15.739,131.28809836132,70.53806,24.6958176,106.512798684,-0.447388,0,0,167.2, 4, -7.2,0,0,1024,1024,1024,1637,0,0,0,93,171.9,0,0,70,3.94,3.941,3.942,3.94,0,0,6.463,77.36,131.28809836132,70.53806,6,P-GPS,
15500,2023-06-13 17:32:49,52.2071100608429,0.0869458405488924,70.53806,71.4238868,59.864211561324,131.28809836132,64.960632,0.4921268,106.11220812,113.140751652,23,5,15.76,131.28809836132,70.53806,24.6958176,106.512798684,-0.447388,0.223694,0,177.9, 4.4, -6.3,0,0,1024,1024,1024,1637,0,0,0,93,182.3,0,0,70,3.935,3.935,3.933,3.928,0,0,6.459,77.36,131.28809836132,70.53806,6,P-GPS,
15700,2023-06-13 17:32:49,52.2071097290117,0.0869460688816829,70.53806,71.4238868,59.864211561324,131.28809836132,64.632548,0.4921268,106.210961404,113.271985252,23,5,15.76,131.28809836132,70.53806,24.6958176,106.512798684,-0.447388,0.223694,0,188.3, 5.8, -4.2,0,0,1024,1024,1024,1631,0,0,0,92,192.5,0,0,70,3.935,3.935,3.933,3.928,0,0,6.459,77.36,131.28809836132,70.53806,6,P-GPS,
15900,2023-06-13 17:32:49,52.2071094361601,0.0869462613561738,70.53806,71.4238868,59.864211561324,131.28809836132,64.304464,0.3131716,106.298559832,113.387142736,23,5,15.76,131.28809836132,70.53806,24.6958176,106.512798684,-0.223694,0.223694,0,198.6, 6.2, -2.2,0,0,1024,1024,1024,1628,0,0,0,92,202.5,0,0,70,3.935,3.935,3.933,3.928,0,0,6.459,77.36,131.28809836132,70.53806,6,P-GPS,
16100,2023-06-13 17:32:50,52.2071092233578,0.086946295369134,70.209976,71.0958028,59.864211561324,130.96001436132,64.304464,0.223694,106.370082144,113.465226728,23,5,15.76,131.28809836132,70.53806,24.6958176,106.512798684,-0.223694,0,0.223694,208.5, 6.5, -1.1,0,0,1024,1024,1024,1629,0,0,0,92,212.5,0,0,70,3.935,3.935,3.933,3.928,0,0,6.459,77.36,130.96001436132,70.209976,6,P-GPS,
16300,2023-06-13 17:32:50,52.2071090384665,0.086946141772589,70.209976,71.0958028,59.864211561324,130.96001436132,64.304464,0.223694,106.444885296,113.541014132,23,5,15.76,131.28809836132,70.53806,24.6958176,106.512798684,-0.223694,0,0.223694,218.5, 7.6, -1.4,0,0,1024,1024,1024,1627,0,0,0,91,222.3,0,0,70,3.935,3.935,3.933,3.928,0,0,6.459,77.36,130.96001436132,70.209976,6,P-GPS,
16500,2023-06-13 17:32:50,52.2071088493945,0.0869458961886712,69.881892,70.7677188,59.864211561324,130.63193036132,63.97638,0.223694,106.527562464,113.629268728,23,5,15.731,131.28809836132,70.53806,24.6958176,106.527562464,-0.223694,0,0.223694,228.4, 8.5, 0.3,0,0,1024,1024,1024,1603,0,0,0,88,232.2,0,0,70,3.933,3.935,3.941,3.936,0,0,6.788,77.36,130.63193036132,69.881892,6,P-GPS,
16700,2023-06-13 17:32:50,52.2071086761029,0.0869456366948086,69.553808,70.4396348,59.864211561324,130.30384636132,63.97638,0.223694,106.60597454,113.714898652,23,5,15.731,131.28809836132,70.53806,24.6958176,106.60597454,-0.223694,0,0.223694,238.3, 9.5, 1.8,0,0,1024,1024,1024,1264,0,0,0,36,241.9,0,0,70,3.933,3.935,3.941,3.936,0,0,6.788,77.36,130.30384636132,69.553808,6,P-GPS,
16900,2023-06-13 17:32:50,52.2071085448062,0.0869453551407523,69.225724,70.1115508,59.864211561324,129.97576236132,63.648296,0.223694,106.671263256,113.793966896,23,5,15.731,131.28809836132,70.53806,24.6958176,106.671263256,-0.223694,0,0,247.5, 9.8, 3.5,0,0,1024,1024,1024,1024,0,0,0,0,249.9,0,0,70,3.933,3.935,3.941,3.936,0,0,6.788,77.36,129.97576236132,69.225724,6,P-GPS,
17100,2023-06-13 17:32:51,52.2071084514097,0.0869450775569717,69.225724,70.1115508,59.864211561324,129.97576236132,63.320212,0,106.723100528,113.86483304,23,5,15.731,131.28809836132,70.53806,24.6958176,106.723100528,0,0,0,251.6, 10.6, 3.6,0,0,1024,1024,1024,1684,0,0,0,100,251.9,0,0,70,3.933,3.935,3.941,3.936,0,0,6.788,77.36,129.97576236132,69.225724,6,P-GPS,
17300,2023-06-13 17:32:51,52.2071084294441,0.0869449066114405,69.225724,70.1115508,59.864211561324,129.97576236132,62.992128,0,106.742785568,113.903875036,23,5,15.731,131.28809836132,70.53806,24.6958176,106.742785568,0,0,0,251.4, 10.8, 4.1,0,0,1024,1024,1024,1684,0,0,0,100,252.6,0,0,70,3.933,3.935,3.941,3.936,0,0,6.788,77.36,129.97576236132,69.225724,6,P-GPS,
17500,2023-06-13 17:32:51,52.2071084618784,0.0869449044865042,69.553808,70.4396348,59.864211561324,130.30384636132,62.664044,0,106.731630712,113.91568606,23,5,15.705,131.28809836132,70.53806,24.6958176,106.742785568,0,0,0,256.8, 9.9, 5.2,0,0,1024,1024,1024,1684,0,0,0,100,262.1,0,0,70,3.917,3.92,3.921,3.918,0,0,6.9,77.36,130.30384636132,69.553808,6,P-GPS,
17700,2023-06-13 17:32:51,52.2071084640716,0.0869451441010287,69.553808,70.4396348,59.864211561324,130.30384636132,62.33596,0.223694,106.713914176,113.969163752,23,5,15.705,131.28809836132,70.53806,24.6958176,106.742785568,0,0.223694,0,269.4, 7.1, 6.1,0,0,1024,1024,1024,1024,0,0,0,0,274,0,0,70,3.917,3.92,3.921,3.918,0,0,6.9,77.36,130.30384636132,69.553808,6,P-GPS,
17900,2023-06-13 17:32:51,52.2071084382851,0.0869455604068004,69.881892,70.7677188,59.864211561324,130.63193036132,62.664044,0.223694,106.693572968,114.062995776,23,5,15.705,131.28809836132,70.53806,24.6958176,106.742785568,0,0.223694,0,281.3, 4, 6.1,0,0,1034,1024,1024,1024,2,0,0,0,284.3,0,0,70,3.917,3.92,3.921,3.918,0,0,6.9,77.36,130.63193036132,69.881892,6,P-GPS,
18100,2023-06-13 17:32:52,52.2071083584586,0.0869459911537508,69.881892,70.7677188,59.864211561324,130.63193036132,62.992128,0.223694,106.690948296,114.16338948,23,5,15.705,131.28809836132,70.53806,24.6958176,106.742785568,0,0.223694,0,286.5, 0.9, 2.8,0,0,1684,1024,1024,1024,100,0,0,0,285.6,0,0,70,3.917,3.92,3.921,3.918,0,0,6.9,77.36,130.63193036132,69.881892,6,P-GPS,
18300,2023-06-13 17:32:52,52.2071081934254,0.0869459565955767,69.881892,70.7677188,59.864211561324,130.63193036132,63.320212,0.447388,106.7503315,114.22408502,23,5,15.705,131.28809836132,70.53806,24.6958176,106.7503315,0,-0.447388,0,284.8, -22.9, 1.6,0,0,1684,1024,1024,1024,100,0,0,0,285.6,0,0,70,3.917,3.92,3.921,3.918,0,0,6.9,77.36,130.63193036132,69.881892,6,P-GPS,
18500,2023-06-13 17:32:52,52.2071081085101,0.0869438276750475,69.881892,70.7677188,59.864211561324,130.63193036132,63.320212,2.460634,106.930449616,114.701119156,23,5,15.676,131.28809836132,70.53806,24.6958176,106.930449616,0,-2.460634,0,283.3, -26.8, 5.4,0,0,1028,1024,1024,1024,1,0,0,0,285.6,0,0,70,3.902,3.923,3.936,3.921,0,0,7.696,77.54,130.63193036132,69.881892,6,P-GPS,
18700,2023-06-13 17:32:52,52.2071083583044,0.0869389136061364,69.881892,70.7677188,59.864211561324,130.63193036132,56.102364,4.7199434,107.198494244,115.80380948,23,5,15.676,131.28809836132,70.53806,24.6958176,107.198494244,0.447388,-4.697574,0.223694,283, -22.2, 8.2,0,0,1024,1024,1024,1024,0,0,0,0,285.6,0,0,70,3.902,3.923,3.936,3.921,0,0,7.696,77.54,130.63193036132,69.881892,6,P-GPS,
18900,2023-06-13 17:32:52,52.2071089834326,0.0869314981377351,69.881892,70.7677188,59.864211561324,130.63193036132,57.086616,5.6594582,107.538389268,117.477365964,23,5,15.676,131.28809836132,70.53806,24.6958176,107.538389268,0.894776,-5.59235,0.223694,284.7, 12.5, 6.4,0,0,1024,1024,1024,364,0,0,0,-100,285.6,0,0,70,3.902,3.923,3.936,3.921,0,0,7.696,77.54,130.63193036132,69.881892,6,P-GPS,
19100,2023-06-13 17:32:53,52.2071094262739,0.0869247625790422,69.881892,70.7677188,59.864211561324,130.63193036132,57.086616,4.026492,107.911420776,118.991801708,23,5,15.676,131.28809836132,70.53806,24.6958176,107.911420776,0.223694,-4.026492,0,286.9, 28.1, 8.5,0,0,1024,1024,1024,1024,0,0,0,0,283.3,0,0,70,3.902,3.923,3.936,3.921,0,0,7.696,77.54,130.63193036132,69.881892,6,P-GPS,
19300,2023-06-13 17:32:53,52.2071094129437,0.0869206152905895,69.881892,70.7677188,59.864211561324,130.63193036132,58.398952,2.013246,108.24803496,119.918967092,23,5,15.676,131.28809836132,70.53806,24.6958176,108.24803496,0,-2.013246,0,279.4, 25.5, 11.4,0,0,1024,1024,1024,1024,0,0,0,0,276.9,0,0,70,3.902,3.923,3.936,3.921,0,0,7.696,77.54,130.63193036132,69.881892,6,P-GPS,
19500,2023-06-13 17:32:53,52.2071092865131,0.0869187404257637,69.881892,70.7677188,59.864211561324,130.63193036132,58.398952,0.671082,108.443573024,120.340883116,23,5,15.633,131.28809836132,70.53806,24.6958176,108.443573024,0,-0.671082,0,276.1, 14.6, 12.1,0,0,1024,1024,1024,1024,0,0,0,0,276.6,0,0,70,3.906,3.912,3.914,3.91,0,0,7.778,77.54,130.63193036132,69.881892,6,P-GPS,
19700,2023-06-13 17:32:53,52.2071092838402,0.0869180703858251,69.881892,70.7677188,59.864211561324,130.63193036132,59.05512,0.223694,108.499347304,120.49048942,23,5,15.633,131.28809836132,70.53806,24.6958176,108.499347304,0,-0.223694,0,273.8, 9.9, 9.9,0,0,1024,1024,1024,1024,0,0,0,0,276.6,0,0,70,3.906,3.912,3.914,3.91,0,0,7.778,77.54,130.63193036132,69.881892,6,P-GPS,
19900,2023-06-13 17:32:53,52.2071093555111,0.0869178794630969,69.553808,70.4396348,59.864211561324,130.30384636132,65.944884,0,108.490489036,120.540686272,23,5,15.633,131.28809836132,70.53806,24.6958176,108.499347304,0,0,0,275.7, 7.7, 8.9,0,0,1024,1024,1024,1024,0,0,0,0,276.6,0,0,70,3.906,3.912,3.914,3.91,0,0,7.778,77.54,130.30384636132,69.553808,6,P-GPS,
20100,2023-06-13 17:32:54,52.2071094659901,0.086917989973763,69.553808,70.4396348,59.864211561324,130.30384636132,66.272968,0,108.443901108,120.587930368,23,5,15.633,131.28809836132,70.53806,24.6958176,108.499347304,0,0,0,275.7, 6.3, 7.6,0,0,1024,1024,1024,1024,0,0,0,0,276.6,0,0,70,3.906,3.912,3.914,3.91,0,0,7.778,77.54,130.30384636132,69.553808,6,P-GPS,
20300,2023-06-13 17:32:54,52.207109585036,0.086918261252634,69.553808,70.4396348,59.864211561324,130.30384636132,66.601052,0,108.381237064,120.66273352,23,5,15.633,131.28809836132,70.53806,24.6958176,108.499347304,0,0,0,275.7, 5.3, 7.7,0,0,1024,1024,1024,1024,0,0,0,0,276.6,0,0,70,3.906,3.912,3.914,3.91,0,0,7.778,77.54,130.30384636132,69.553808,6,P-GPS,
20500,2023-06-13 17:32:54,52.2071097233747,0.0869186077710248,69.553808,70.4396348,59.864211561324,130.30384636132,66.601052,0,108.306105828,120.754925124,23,5,15.683,131.28809836132,70.53806,24.6958176,108.499347304,0,0,0,275.9, 4.8, 6.7,0,0,1024,1024,1024,1024,0,0,0,0,276.6,0,0,70,3.92,3.925,3.921,3.919,0,0,8.119,77.54,130.30384636132,69.553808,6,P-GPS,
20700,2023-06-13 17:32:54,52.2071098780762,0.0869190064482133,69.553808,70.4396348,59.864211561324,130.30384636132,66.601052,0,108.220803988,120.860568172,23,5,15.683,131.28809836132,70.53806,24.6958176,108.499347304,0,0,0,276.1, 4.4, 5.8,0,0,1024,1024,1024,1024,0,0,0,0,276.6,0,0,70,3.92,3.925,3.921,3.919,0,0,8.119,77.54,130.30384636132,69.553808,6,P-GPS,
20900,2023-06-13 17:32:54,52.2071100067856,0.0869194277028497,69.553808,70.4396348,59.864211561324,130.30384636132,66.601052,0,108.142719996,120.965883136,23,5,15.683,131.28809836132,70.53806,24.6958176,108.499347304,0,0,0,276, 4.1, 5.2,0,0,1024,1024,1024,1024,0,0,0,0,276.6,0,0,70,3.92,3.925,3.921,3.919,0,0,8.119,77.54,130.30384636132,69.553808,6,P-GPS,
21100,2023-06-13 17:32:55,52.2071100783536,0.0869197490575216,69.553808,70.4396348,59.864211561324,130.30384636132,66.601052,0,108.09219506,121.042326708,23,5,15.683,131.28809836132,70.53806,24.6958176,108.499347304,0,0,0,276, 4.3, 5.5,0,0,1024,1024,1024,1024,0,0,0,0,276.6,-1.2,0,70,3.92,3.925,3.921,3.919,0,0,8.119,77.54,130.30384636132,69.553808,6,P-GPS,
21300,2023-06-13 17:32:55,52.2071100960872,0.0869199981503803,69.553808,70.4396348,59.864211561324,130.30384636132,66.272968,0,108.06594834,121.098429072,23,5,15.683,131.28809836132,70.53806,24.6958176,108.499347304,0,0,0,275.7, 4.4, 5.2,0,0,1024,1024,1024,1024,0,0,0,0,276.6,-3.8,0,70,3.92,3.925,3.921,3.919,0,0,8.119,77.54,130.30384636132,69.553808,6,P-GPS,
21500,2023-06-13 17:32:55,52.2071100292138,0.0869202215063464,69.553808,70.4396348,59.864211561324,130.30384636132,66.272968,0,108.070541516,121.153875268,23,5,15.689,131.28809836132,70.53806,24.6958176,108.499347304,0,0,0,275.2, 4.5, 6.1,0,0,1024,1024,1024,1024,0,0,0,0,276.6,-6.7,0,70,3.915,3.917,3.913,3.921,0,0,7.157,77.54,130.30384636132,69.553808,6,P-GPS,
21700,2023-06-13 17:32:55,52.2071099220416,0.0869203598369018,69.553808,70.4396348,59.864211561324,130.30384636132,66.272968,0,108.095803984,121.203744036,23,5,15.689,131.28809836132,70.53806,24.6958176,108.499347304,0,0,0,274.7, 4.9, 6.7,0,0,1024,1024,1024,1024,0,0,0,0,276.6,-9.6,0,70,3.915,3.917,3.913,3.921,0,0,7.157,77.54,130.30384636132,69.553808,6,P-GPS,
21900,2023-06-13 17:32:55,52.2071098067822,0.0869204520759119,69.553808,70.4396348,59.864211561324,130.30384636132,66.272968,0,108.127300048,121.250660048,23,5,15.689,131.28809836132,70.53806,24.6958176,108.499347304,0,0,0,273.5, 4.9, 7,0,0,1024,1024,1024,1024,0,0,0,0,276.6,-12.5,0,70,3.915,3.917,3.913,3.921,0,0,7.157,77.54,130.30384636132,69.553808,6,P-GPS,
22100,2023-06-13 17:32:56,52.2071097187828,0.0869205186898681,69.553808,70.4396348,59.864211561324,130.30384636132,66.272968,0,108.151906348,121.28609312,23,5,15.689,131.28809836132,70.53806,24.6958176,108.499347304,0,0,0,273.5, 5.7, 6.9,0,0,1024,1024,1024,1024,0,0,0,0,276.6,-15.4,0,70,3.915,3.917,3.913,3.921,0,0,7.157,77.54,130.30384636132,69.553808,6,P-GPS,
22300,2023-06-13 17:32:56,52.2071096720246,0.0869206005138945,69.553808,70.4396348,59.864211561324,130.30384636132,66.272968,0,108.1610927,121.311027504,23,5,15.689,131.28809836132,70.53806,24.6958176,108.499347304,0,0,0,274.9, 5.3, 6.7,0,0,1024,1024,1024,1024,0,0,0,0,276.6,-18.3,0,70,3.915,3.917,3.913,3.921,0,0,7.157,77.54,130.30384636132,69.553808,6,P-GPS,
22500,2023-06-13 17:32:56,52.20710966171,0.0869207220826171,69.553808,70.4396348,59.864211561324,130.30384636132,66.272968,0,108.154859104,121.33858656,23,5,15.666,131.28809836132,70.53806,24.6958176,108.499347304,0,0,0,275.4, 5.3, 5.6,0,0,1024,1024,1024,1024,0,0,0,0,276.6,-21.3,0,70,3.912,3.917,3.917,3.916,0,0,7.442,77.72,130.30384636132,69.553808,6,P-GPS,
22700,2023-06-13 17:32:56,52.2071096433768,0.0869208891557316,69.553808,70.4396348,59.864211561324,130.30384636132,66.272968,0,108.147641256,121.37631622,23,5,15.666,131.28809836132,70.53806,24.6958176,108.499347304,0,0,0,275.5, 4.7, 6.2,0,0,1024,1024,1024,1024,0,0,0,0,276.6,-24.2,0,70,3.912,3.917,3.917,3.916,0,0,7.442,77.72,130.30384636132,69.553808,6,P-GPS,
22900,2023-06-13 17:32:56,52.2071096002338,0.0869210197973729,69.553808,70.4396348,59.864211561324,130.30384636132,65.944884,0,108.151578264,121.409452704,23,5,15.666,131.28809836132,70.53806,24.6958176,108.499347304,0,0,0,275.4, 5, 6.6,0,0,1024,1024,1024,1024,0,0,0,0,276.6,-27.1,0,70,3.912,3.917,3.917,3.916,0,0,7.442,77.72,130.30384636132,69.553808,6,P-GPS,
23100,2023-06-13 17:32:57,52.2071095640814,0.0869211450707542,69.553808,70.4396348,59.864211561324,130.30384636132,65.944884,0,108.153874852,121.440620684,23,5,15.666,131.28809836132,70.53806,24.6958176,108.499347304,0,0,0,275.5, 4.9, 6.5,0,0,1024,1024,1024,1024,0,0,0,0,276.6,-30,0,70,3.912,3.917,3.917,3.916,0,0,7.442,77.72,130.30384636132,69.553808,6,P-GPS,
23300,2023-06-13 17:32:57,52.2071095520877,0.0869212524918747,69.553808,70.4396348,59.864211561324,130.30384636132,65.944884,0,108.149281676,121.4648989,23,5,15.666,131.28809836132,70.53806,24.6958176,108.499347304,0,0,0,275.5, 5.1, 5.9,0,0,1024,1024,1024,1024,0,0,0,0,276.6,-32.9,0,70,3.912,3.917,3.917,3.916,0,0,7.442,77.72,130.30384636132,69.553808,6,P-GPS,
23500,2023-06-13 17:32:57,52.2071095358105,0.0869213533844082,69.553808,70.4396348,59.864211561324,130.30384636132,65.944884,0,108.146657004,121.488192864,23,5,15.658,131.28809836132,70.53806,24.6958176,108.499347304,0,0,0,275.5, 5.1, 5.9,0,0,1024,1024,1024,1024,0,0,0,0,276.6,-35.8,0,70,3.91,3.917,3.916,3.911,0,0,7.455,77.72,130.30384636132,69.553808,6,P-GPS,
23700,2023-06-13 17:32:57,52.2071094960086,0.0869214489785808,69.553808,70.4396348,59.864211561324,130.30384636132,66.272968,0,108.152562516,121.5141115,23,5,15.658,131.28809836132,70.53806,24.6958176,108.499347304,0,0,0,275.5, 5.3, 6.1,0,0,1024,1024,1024,1024,0,0,0,0,276.6,-38.8,0,70,3.91,3.917,3.916,3.911,0,0,7.455,77.72,130.30384636132,69.553808,6,P-GPS,
23900,2023-06-13 17:32:57,52.2071094760477,0.0869214889329747,69.553808,70.4396348,59.864211561324,130.30384636132,66.272968,0,108.15617144,121.52559444,23,5,15.658,131.28809836132,70.53806,24.6958176,108.499347304,0,0,0,275.5, 5.6, 5.8,0,0,1024,1024,1024,1024,0,0,0,0,276.6,-41.7,0,70,3.91,3.917,3.916,3.911,0,0,7.455,77.72,130.30384636132,69.553808,6,P-GPS,
24100,2023-06-13 17:32:58,52.2071094710617,0.0869214901492211,69.553808,70.4396348,59.864211561324,130.30384636132,66.272968,0,108.15781186,121.527562944,23,5,15.658,131.28809836132,70.53806,24.6958176,108.499347304,0,0,0,275.6, 6.2, 5.3,0,0,1024,1024,1024,1024,0,0,0,0,276.6,-44.6,0,70,3.91,3.917,3.916,3.911,0,0,7.455,77.72,130.30384636132,69.553808,6,P-GPS,
24300,2023-06-13 17:32:58,52.2071094540821,0.0869215722248847,69.553808,70.4396348,59.864211561324,130.30384636132,66.272968,0,108.156827608,121.5469199,22,5,15.658,131.28809836132,70.53806,24.6958176,108.499347304,0,0,-0.223694,275.5, 5.4, 5.5,0,0,1024,1024,1024,1024,0,0,0,0,276.6,-47.5,0,70,3.91,3.917,3.916,3.911,0,0,7.455,77.72,130.30384636132,69.553808,6,P-GPS,
24500,2023-06-13 17:32:58,52.2071094177583,0.0869217422058067,69.553808,70.4396348,59.864211561324,130.30384636132,66.601052,0,108.155515272,121.586946148,22,5,15.635,131.28809836132,70.53806,24.6958176,108.499347304,0,0,0,275.4, 5, 5.7,0,0,1024,1024,1024,1024,0,0,0,0,276.6,-50.4,0,70,3.908,3.916,3.916,3.913,0,0,7.733,77.72,130.30384636132,69.553808,6,P-GPS,
24700,2023-06-13 17:32:58,52.2071094006588,0.0869219777801564,69.553808,70.4396348,59.864211561324,130.30384636132,66.601052,0,108.142391912,121.640095756,23,5,15.635,131.28809836132,70.53806,24.6958176,108.499347304,0,0,0,275.3, 4.1, 5.5,0,0,1024,1024,1024,1024,0,0,0,0,276.6,-53.3,0,70,3.908,3.916,3.916,3.913,0,0,7.733,77.72,130.30384636132,69.553808,6,P-GPS,
24900,2023-06-13 17:32:58,52.2071093960326,0.0869221897425497,69.553808,70.4396348,59.864211561324,130.30384636132,66.601052,0,108.126971964,121.687667936,23,5,15.635,131.28809836132,70.53806,24.6958176,108.499347304,0,0,0,275.4, 4.3, 4.5,0,0,1024,1024,1024,1024,0,0,0,0,276.6,-56.2,0,70,3.908,3.916,3.916,3.913,0,0,7.733,77.72,130.30384636132,69.553808,6,P-GPS,
25100,2023-06-13 17:32:59,52.2071093305814,0.0869222914039746,69.553808,70.4396348,59.864211561324,130.30384636132,66.601052,0,108.141079576,121.720476336,22,5,15.635,131.28809836132,70.53806,24.6958176,108.499347304,0,0,-0.223694,275.3, 4.3, 5.3,0,0,1024,1024,1024,1024,0,0,0,0,276.6,-59.2,0,70,3.908,3.916,3.916,3.913,0,0,7.733,77.72,130.30384636132,69.553808,6,P-GPS,
25300,2023-06-13 17:32:59,52.2071092217301,0.0869222273623096,69.553808,70.4396348,59.864211561324,130.30384636132,66.601052,0,108.183402412,121.762799172,22,5,15.635,131.28809836132,70.53806,24.6958176,108.499347304,0,0,0,276, 7.8, 6.5,0,0,1024,1024,1024,1024,0,0,0,0,276.6,-62.1,0,70,3.908,3.916,3.916,3.913,0,0,7.733,77.72,130.30384636132,69.553808,6,P-GPS,
25500,2023-06-13 17:32:59,52.2071090982465,0.0869221846538865,69.553808,70.4396348,59.864211561324,130.30384636132,66.929136,0,108.228678004,121.808730932,23,5,15.635,131.28809836132,70.53806,24.6958176,108.499347304,0,0,-0.223694,275.2, 5.8, 6.4,0,0,1024,1024,1024,1024,0,0,0,0,276.6,-65,0,70,3.914,3.914,3.909,3.9,0,0,7.586,77.72,130.30384636132,69.553808,6,P-GPS,
25700,2023-06-13 17:32:59,52.2071089486338,0.0869220753874266,69.881892,70.7677188,59.864211561324,130.63193036132,67.25722,0,108.288389292,121.86844222,23,5,15.635,131.28809836132,70.53806,24.6958176,108.499347304,0,0,-0.223694,276, 6.4, 7,0,0,1024,1024,1024,1024,0,0,0,0,276.6,-67.9,0,70,3.914,3.914,3.909,3.9,0,0,7.586,77.72,130.63193036132,69.881892,6,P-GPS,
25900,2023-06-13 17:32:59,52.2071088236081,0.0869220159730899,69.881892,70.7677188,59.864211561324,130.63193036132,67.585304,0,108.335961472,121.9160144,23,5,15.635,131.28809836132,70.53806,24.6958176,108.499347304,0,0,0,276, 7.6, 8.2,0,0,1024,1024,1024,1024,0,0,0,0,276.6,-70.8,0,70,3.914,3.914,3.909,3.9,0,0,7.586,77.72,130.63193036132,69.881892,6,P-GPS,
26100,2023-06-13 17:33:00,52.2071087652674,0.0869220335038142,69.881892,70.7677188,59.864211561324,130.63193036132,67.585304,0,108.354334176,121.937667944,23,5,15.635,131.28809836132,70.53806,24.6958176,108.499347304,0,0,0,275.8, 6.5, 7.6,0,0,1024,1024,1024,1024,0,0,0,0,276.6,-73.7,0,70,3.914,3.914,3.909,3.9,0,0,7.586,77.72,130.63193036132,69.881892,6,P-GPS,
26300,2023-06-13 17:33:00,52.2071087395837,0.0869221418336246,69.881892,70.7677188,59.864211561324,130.63193036132,67.585304,0,108.354334176,121.96358658,23,5,15.635,131.28809836132,70.53806,24.6958176,108.499347304,0,0,0,275.7, 6.1, 7.8,0,0,1024,1024,1024,1024,0,0,0,0,276.6,-76.7,0,70,3.914,3.914,3.909,3.9,0,0,7.586,77.72,130.63193036132,69.881892,6,P-GPS,
26500,2023-06-13 17:33:00,52.2071087300059,0.0869222621441613,70.209976,71.0958028,59.864211561324,130.96001436132,67.913388,0,108.34810058,121.990817552,23,5,15.644,131.28809836132,70.53806,24.6958176,108.499347304,0,0,0,275.7, 6.1, 8.3,0,0,1024,1024,1024,1024,0,0,0,0,276.6,-79.6,0,70,3.915,3.911,3.915,3.91,0,0,7.763,77.9,130.96001436132,70.209976,6,P-GPS,
26700,2023-06-13 17:33:00,52.207108753565,0.0869223608837988,70.209976,71.0958028,59.864211561324,130.96001436132,67.913388,0,108.332024464,122.0144396,23,5,15.644,131.28809836132,70.53806,24.6958176,108.499347304,0,0,0,275.6, 6.4, 8.1,0,0,1024,1024,1024,1024,0,0,0,0,276.6,-82.5,0,70,3.915,3.911,3.915,3.91,0,0,7.763,77.9,130.96001436132,70.209976,6,P-GPS,
26900,2023-06-13 17:33:00,52.2071088264009,0.0869224250932218,70.209976,71.0958028,59.864211561324,130.96001436132,67.913388,0,108.30216882,122.044623328,23,5,15.644,131.28809836132,70.53806,24.6958176,108.499347304,0,0,0,275.6, 6.4, 7.6,0,0,1024,1024,1024,1024,0,0,0,0,276.6,-85.4,0,70,3.915,3.911,3.915,3.91,0,0,7.763,77.9,130.96001436132,70.209976,6,P-GPS,
27100,2023-06-13 17:33:01,52.2071089437677,0.0869224362910768,70.209976,71.0958028,59.864211561324,130.96001436132,67.913388,0,108.26115832,122.087602332,23,5,15.644,131.28809836132,70.53806,24.6958176,108.499347304,0,0,0,275.8, 6.8, 7.3,0,0,1024,1024,1024,1024,0,0,0,0,276.6,-88.3,0,70,3.915,3.911,3.915,3.91,0,0,7.763,77.9,130.96001436132,70.209976,6,P-GPS,
27300,2023-06-13 17:33:01,52.207109083083,0.0869224658864064,70.209976,71.0958028,59.864211561324,130.96001436132,67.913388,0,108.211289552,122.138783436,23,5,15.644,131.28809836132,70.53806,24.6958176,108.499347304,0,0,0,275.8, 6.5, 6.9,0,0,1024,1024,1024,1024,0,0,0,0,276.6,-89.9,0,70,3.915,3.911,3.915,3.91,0,0,7.763,77.9,130.96001436132,70.209976,6,P-GPS,
27500,2023-06-13 17:33:01,52.2071092638279,0.0869225787037467,70.209976,71.0958028,59.864211561324,130.96001436132,67.913388,0.223694,108.140751492,122.209321496,23,5,15.626,131.28809836132,70.53806,24.6958176,108.499347304,0.223694,0,0,275.6, 6.2, 6.4,0,0,1024,1024,1024,1024,0,0,0,0,276.6,-90,0,70,3.904,3.908,3.909,3.908,0,0,7.544,77.9,130.96001436132,70.209976,6,P-GPS,
27700,2023-06-13 17:33:01,52.2071094981332,0.0869227215078522,70.209976,71.0958028,59.864211561324,130.96001436132,67.913388,0.223694,108.04954414,122.300856932,23,5,15.626,131.28809836132,70.53806,24.6958176,108.499347304,0.223694,0,0,275.5, 5.7, 5,0,0,1024,1024,1024,1024,0,0,0,0,276.6,-90,0,70,3.904,3.908,3.909,3.908,0,0,7.544,77.9,130.96001436132,70.209976,6,P-GPS,
27900,2023-06-13 17:33:01,52.2071097290974,0.0869229206507286,70.209976,71.0958028,59.864211561324,130.96001436132,67.913388,0,107.955055948,122.396001292,23,5,15.626,131.28809836132,70.53806,24.6958176,108.499347304,0,0,0,275.3, 4.7, 4.6,0,0,1024,1024,1334,1024,0,0,47,0,276.6,-90,0,70,3.904,3.908,3.909,3.908,0,0,7.544,77.9,130.96001436132,70.209976,6,P-GPS,
28100,2023-06-13 17:33:02,52.207109918889,0.0869230548851898,70.209976,71.0958028,59.864211561324,130.96001436132,67.913388,0,107.879596628,122.471460612,23,5,15.626,131.28809836132,70.53806,24.6958176,108.499347304,0,0,0.223694,275.4, 5.6, 4.1,0,0,1024,1024,1684,1024,0,0,100,0,276.6,-90,0,70,3.904,3.908,3.909,3.908,0,0,7.544,77.9,130.96001436132,70.209976,6,P-GPS,
28300,2023-06-13 17:33:02,52.2071100739845,0.0869231690026556,70.209976,71.0958028,59.864211561324,130.96001436132,67.585304,0,107.817588752,122.533468488,23,5,15.626,131.28809836132,70.53806,24.6958176,108.499347304,0,0,-0.447388,275.5, 4.4, 3.4,0,0,1024,1024,1684,1024,0,0,100,0,276.6,-89.9,0,70,3.904,3.908,3.909,3.908,0,0,7.544,77.9,130.96001436132,70.209976,6,P-GPS,
28500,2023-06-13 17:33:02,52.2071102133169,0.0869233297988202,70.866144,71.7519708,59.864211561324,131.61618236132,68.241472,0,107.757221296,122.595804448,23,5,15.636,131.61618236132,70.866144,24.6958176,108.499347304,0,0,-2.460634,275.4, 5, 4.6,0,0,1024,1024,1684,1024,0,0,100,0,276.6,-90,0,69,3.875,3.857,3.851,3.851,0,0,7.466,77.9,131.61618236132,70.866144,6,P-GPS,
28700,2023-06-13 17:33:02,52.2071103757286,0.0869234430774954,72.17848,73.0643068,59.864211561324,132.92851836132,69.225724,0,107.692916832,122.660436996,23,5,15.636,132.92851836132,72.17848,24.6958176,108.499347304,0,0,-4.921268,275.6, 5.5, 4.7,0,0,1024,1024,1684,1024,0,0,100,0,276.6,-90,0,69,3.875,3.857,3.851,3.851,0,0,7.466,77.9,132.92851836132,72.17848,6,P-GPS,
28900,2023-06-13 17:33:02,52.207110631811,0.0869235934307166,74.146984,75.0328108,59.864211561324,134.89702236132,70.866144,0,107.59350738,122.759518364,23,5,15.636,134.89702236132,74.146984,24.6958176,108.499347304,0,0,-7.158208,275.8, 5.4, 3.7,0,0,1024,1024,1684,1024,0,0,100,0,276.6,-90,0,69,3.875,3.857,3.851,3.851,0,0,7.466,77.9,134.89702236132,74.146984,6,P-GPS,
29100,2023-06-13 17:33:03,52.2071108697658,0.0869238365262222,77.427824,78.3136508,59.864211561324,138.17786236132,73.490816,0,107.493113676,122.861880572,23,5,15.636,138.17786236132,77.427824,24.6958176,108.499347304,0,0,-9.618842,275.5, 4.5, 1.3,0,0,1024,1024,1678,1024,0,0,99,0,276.6,-90,0,69,3.875,3.857,3.851,3.851,0,0,7.466,77.9,138.17786236132,77.427824,6,P-GPS,
29300,2023-06-13 17:33:03,52.2071108384965,0.0869240584422644,81.036748,81.9225748,59.864211561324,141.78678636132,76.443572,0,107.485895828,122.913061676,23,5,15.636,141.78678636132,81.036748,24.6958176,108.499347304,0,0,-12.079476,275.7, 4.1, 2,0,0,1024,1024,1672,1024,0,0,98,0,276.6,-89.9,0,69,3.875,3.857,3.851,3.851,0,0,7.466,77.9,141.78678636132,81.036748,6,P-GPS,
29500,2023-06-13 17:33:03,52.2071104903197,0.0869240608887371,84.973756,85.8595828,59.864211561324,145.72379436132,80.052496,0.223694,107.604334152,123.040030184,23,5,15.228,145.72379436132,84.973756,24.6958176,108.499347304,-0.223694,0,-12.750558,275.5, 6.4, 3.9,0,0,1024,1024,1592,1024,0,0,86,0,276.6,-90,0,69,3.764,3.779,3.784,3.793,0,0,13.439,77.72,145.72379436132,84.973756,6,P-GPS,
29700,2023-06-13 17:33:03,52.2071099552641,0.086923996050221,88.58268,89.4685068,59.864211561324,149.33271836132,83.333336,0.223694,107.7919982,123.235568248,23,5,15.228,149.33271836132,88.58268,24.6958176,108.499347304,-0.223694,0,-12.526864,275.4, 7.8, 4,0,0,1024,1024,1561,1024,0,0,81,0,276.6,-90,0,69,3.764,3.779,3.784,3.793,0,0,13.439,77.72,149.33271836132,88.58268,6,P-GPS,
29900,2023-06-13 17:33:03,52.207109311083,0.0869239577454487,91.535436,92.4212628,59.864211561324,152.28547436132,83.66142,0.223694,108.014439152,123.470804476,23,5,15.228,152.28547436132,91.535436,24.6958176,108.499347304,-0.223694,0,-10.961006,275.7, 8.2, 3.5,0,0,1024,1024,1569,1024,0,0,83,0,276.6,-89.9,0,69,3.764,3.779,3.784,3.793,0,0,13.439,77.72,152.28547436132,91.535436,6,P-GPS,
30100,2023-06-13 17:33:04,52.2071084686977,0.0869239795819649,93.832024,94.7178508,59.864211561324,154.58206236132,83.66142,0.223694,108.300200316,123.778219184,23,5,15.228,154.58206236132,93.832024,24.6958176,108.499347304,-0.223694,0,-9.618842,275.5, 7.9, 4.2,0,0,1024,1024,1571,1024,0,0,83,0,276.6,-90,0,69,3.764,3.779,3.784,3.793,0,0,13.439,77.72,154.58206236132,93.832024,6,P-GPS,
30300,2023-06-13 17:33:04,52.2071074994705,0.0869239963857373,96.128612,97.0144388,59.864211561324,156.87865036132,83.66142,0.447388,108.629596652,124.131893736,23,5,15.228,156.87865036132,96.128612,24.6958176,108.629596652,-0.447388,0,-8.94776,275.6, 7.5, 7.2,0,0,1024,1024,1576,1024,0,0,84,0,276.6,-89.9,0,69,3.764,3.779,3.784,3.793,0,0,13.439,77.72,156.87865036132,96.128612,6,P-GPS,
30500,2023-06-13 17:33:04,52.2071066940257,0.08692403196444,98.753284,99.6391108,59.864211561324,159.50332236132,83.66142,0,108.901578288,124.425857,23,5,15.495,159.50332236132,98.753284,24.6958176,108.901578288,0,0,-8.94776,275.5, 7.9, 7.2,0,0,1024,1024,1563,1024,0,0,82,0,276.6,-90,0,69,3.856,3.861,3.863,3.858,0,0,13.92,77.9,159.50332236132,98.753284,6,P-GPS,
30700,2023-06-13 17:33:04,52.2071062122221,0.0869241968706787,101.049872,101.9356988,59.864211561324,161.79991036132,83.66142,0,109.053153096,124.605647032,23,5,15.495,161.79991036132,101.049872,24.6958176,109.053153096,0,0,-9.171454,275.7, 7.4, 5.1,0,0,1024,1024,1024,1024,0,0,0,0,276.6,-90,0,69,3.856,3.861,3.863,3.858,0,0,13.92,77.9,161.79991036132,101.049872,6,P-GPS,
30900,2023-06-13 17:33:04,52.2071059242707,0.0869245216923519,103.674544,104.5603708,59.864211561324,164.42458236132,83.66142,0,109.125987744,124.733271708,23,5,15.495,164.42458236132,103.674544,24.6958176,109.125987744,0,0,-8.724066,275.3, 6.4, 5.2,0,0,1024,1024,1024,1024,0,0,0,0,276.6,-89.9,0,69,3.856,3.861,3.863,3.858,0,0,13.92,77.9,164.42458236132,103.674544,6,P-GPS,
31100,2023-06-13 17:33:05,52.2071056661323,0.0869247698206014,105.643048,106.5288748,59.864211561324,166.39308636132,83.66142,0,109.1945573,124.84252368,23,5,15.495,166.39308636132,105.643048,24.6958176,109.1945573,0,0,-6.71082,275.4, 5.6, 7,0,0,1024,1024,1024,1024,0,0,0,0,276.6,-90,0,69,3.856,3.861,3.863,3.858,0,0,13.92,77.9,166.39308636132,105.643048,6,P-GPS,
31300,2023-06-13 17:33:05,52.2071054629763,0.0869248355398476,106.6273,107.5131268,59.864211561324,167.37733836132,83.66142,0,109.258861764,124.917983,23,5,15.495,167.37733836132,106.6273,24.6958176,109.258861764,0,0,-4.47388,275.6, 6.6, 8.6,0,0,1024,1024,1024,1024,0,0,0,0,276.6,-90,0,69,3.856,3.861,3.863,3.858,0,0,13.92,77.9,167.37733836132,106.6273,6,P-GPS,
31500,2023-06-13 17:33:05,52.2071053311485,0.086924717284348,106.955384,107.8412108,59.864211561324,167.70542236132,83.66142,0,109.313323708,124.973101112,23,5,15.371,167.70542236132,106.955384,24.6958176,109.313323708,0,0,-2.013246,275.8, 7.8, 10.3,0,0,1024,1024,1024,465,0,0,0,-85,276.6,-90,0,69,3.919,3.927,3.928,3.926,0,0,10.681,78.26,167.70542236132,106.955384,6,P-GPS,
31700,2023-06-13 17:33:05,52.2071053525487,0.0869245212449969,107.283468,108.1692948,59.864211561324,168.03350636132,83.66142,0.223694,109.321197724,125.017392452,23,5,15.371,168.03350636132,107.283468,24.6958176,109.321197724,0.223694,0,-0.447388,275.8, 7.4, 9.3,0,0,1024,1024,1024,1024,0,0,0,0,276.1,-89.9,0,69,3.919,3.927,3.928,3.926,0,0,10.681,78.26,168.03350636132,107.283468,6,P-GPS,
31900,2023-06-13 17:33:05,52.2071056489642,0.0869243649223823,107.283468,108.1692948,59.864211561324,168.03350636132,83.66142,0.447388,109.23228696,125.1312376,23,5,15.371,168.03350636132,107.283468,24.6958176,109.321197724,0.447388,0,0,272.3, 7.5, 7.6,0,0,1024,1024,1024,1024,0,0,0,0,272.4,-90,0,69,3.919,3.927,3.928,3.926,0,0,10.681,78.26,168.03350636132,107.283468,6,P-GPS,
