time(millisecond),datetime(utc),latitude,longitude,height_above_takeoff(feet),height_above_ground_at_drone_location(feet),ground_elevation_at_drone_location(feet),altitude_above_seaLevel(feet),height_sonar(feet),speed(mph),distance(feet),mileage(feet),satellites,gpslevel,voltage(v),max_altitude(feet),max_ascent(feet),max_speed(mph),max_distance(feet), xSpeed(mph), ySpeed(mph), zSpeed(mph), compass_heading(degrees), pitch(degrees), roll(degrees),isPhoto,isVideo,rc_elevator,rc_aileron,rc_throttle,rc_rudder,rc_elevator(percent),rc_aileron(percent),rc_throttle(percent),rc_rudder(percent),gimbal_heading(degrees),gimbal_pitch(degrees),gimbal_roll(degrees),battery_percent,voltageCell1,voltageCell2,voltageCell3,voltageCell4,voltageCell5,voltageCell6,current(A),battery_temperature(f),altitude(feet),ascent(feet),flycStateRaw,flycState,message
0,2023-06-08 18:05:46,52.206449967877,0.0872669823568881,0,0,56.277712430808,56.277712430808,0.328084,0,0,0,25,5,0,56.277712430808,0,0,0,0,0,0,83.1, 7.4, 0.5,0,0,1024,1024,1024,1024,0,0,0,0,95.8,0,-0.1,44,3.819,3.821,3.822,3.819,0,0,0,94.82,56.277712430808,0,41,Motors_Started,"Aircraft not in flight. Vision systems and obstacle avoidance disabled (Code: 180059)"
200,2023-06-08 18:05:46,52.2064498488997,0.087267084439065,0,0,56.277712430808,56.277712430808,0.328084,0,0.04904363674,0.04904363674,25,5,0,56.277712430808,0,0,0.04904363674,0,0,0,83.1, 7.5, 0.6,0,0,1024,1024,1024,1024,0,0,0,0,95.8,0,0,44,3.819,3.821,3.822,3.819,0,0,0,94.82,56.277712430808,0,41,Motors_Started,
400,2023-06-08 18:05:46,52.206449740177,0.0872671767739999,0,0,56.277712430808,56.277712430808,0.328084,0,0.09376148594,0.093761814024,26,5,0,56.277712430808,0,0,0.09376148594,0,0,0,83.2, 7.7, 0.5,0,0,1024,1024,1024,1024,0,0,0,0,95.8,0,0,44,3.819,3.821,3.822,3.819,0,0,0,94.82,56.277712430808,0,41,Motors_Started,
600,2023-06-08 18:05:46,52.2064496311501,0.0872672752214936,0,0,56.277712430808,56.277712430808,0,0,0.139215555636,0.13922408582,26,5,0,56.277712430808,0,0,0.139215555636,0,0,0,83.1, 7.8, 0.6,0,0,1024,1024,1024,1024,0,0,0,0,95.8,0,0,44,3.819,3.821,3.822,3.819,0,0,0,94.82,56.277712430808,0,41,Motors_Started,
800,2023-06-08 18:05:47,52.2064495362844,0.0872673617828739,0,0,56.277712430808,56.277712430808,0,0,0.178864507036,0.178879270816,26,5,0,56.277712430808,0,0,0.178864507036,0,0,0,83.1, 7.7, 0.7,0,0,1024,1024,1024,1024,0,0,0,0,95.8,0,0,44,3.819,3.821,3.822,3.819,0,0,0,94.82,56.277712430808,0,41,Motors_Started,"Setting new Return-To-Home altitude to 26m (85 ft). Data Recorder File Index is 35. Setting new Maximum Flight Altitude to 120m (394 ft)"
1000,2023-06-08 18:05:47,52.2064494620778,0.0872674225904262,0,0.032808400000005,56.244904030808,56.277712430808,0,0,0.209149941076,0.209175531628,26,5,0,56.277712430808,0,0,0.209149941076,0,0,0,83.1, 7.7, 0.7,0,0,1024,1024,1024,1024,0,0,0,0,95.8,0,0,44,3.819,3.821,3.822,3.819,0,0,0,94.82,56.277712430808,0,41,Motors_Started,
1200,2023-06-08 18:05:47,52.206449402602,0.0872674618485006,0,0.032808400000005,56.244904030808,56.277712430808,0,0,0.232440296152,0.232583340776,25,5,0,56.277712430808,0,0,0.232440296152,0,0,0,83, 7.8, 0.7,0,0,1024,1024,1024,1024,0,0,0,0,95.8,0,0,44,3.819,3.821,3.822,3.819,0,0,0,94.82,56.277712430808,0,41,Motors_Started,
1400,2023-06-08 18:05:47,52.2064493620505,0.0872674837998906,0,0.032808400000005,56.244904030808,56.277712430808,0,0,0.247843839952,0.248171267784,25,5,0,56.277712430808,0,0,0.247843839952,0,0,0,83, 7.8, 0.7,0,0,1024,1024,1024,1024,0,0,0,0,95.8,0,0,44,3.819,3.821,3.822,3.819,0,0,0,94.82,56.277712430808,0,41,Motors_Started,
1600,2023-06-08 18:05:47,52.2064493349019,0.0872674908420895,0,0.032808400000005,56.244904030808,56.277712430808,0,0,0.25740814472,0.258200795664,25,5,0,56.277712430808,0,0,0.25740814472,0,0,0,83.1, 7.8, 0.7,0,0,1024,1024,1024,1024,0,0,0,0,95.8,0,0,44,3.819,3.821,3.822,3.819,0,0,0,94.82,56.277712430808,0,11,AutoTakeoff,
1800,2023-06-08 18:05:48,52.2064493196485,0.0872674705053375,0,0.032808400000005,56.244904030808,56.277712430808,0,0,0.260475073952,0.265387475684,25,5,15.233,56.277712430808,0,0,0.260475073952,0,0,0,83, 7.7, 0.8,0,0,1024,1024,1024,1024,0,0,0,0,95.8,0,0,44,3.819,3.821,3.822,3.819,0,0,4.823,94.82,56.277712430808,0,11,AutoTakeoff,
2000,2023-06-08 18:05:48,52.2064493153137,0.0872674499658821,0,0.032808400000005,56.244904030808,56.277712430808,0,0,0.260031832468,0.27024443122,25,5,15.233,56.277712430808,0,0,0.260475073952,0,0,0,83, 7.5, 0.8,0,0,1024,1024,1024,1024,0,0,0,0,95.7,0,0,44,3.819,3.821,3.822,3.819,0,0,4.823,94.82,56.277712430808,0,11,AutoTakeoff,
2200,2023-06-08 18:05:48,52.2064493154722,0.0872673567048019,0,0.032808400000005,56.244904030808,56.277712430808,0,0,0.25231628104,0.291096466008,25,5,15.233,56.277712430808,0,0,0.260475073952,0,0,-0.223694,81.5, 1.7, 0.1,0,0,1024,1024,1024,1024,0,0,0,0,95.7,0,0,44,3.819,3.821,3.822,3.819,0,0,4.823,94.82,56.277712430808,0,11,AutoTakeoff,
2400,2023-06-08 18:05:48,52.2064492815729,0.0872671130691856,0,0.032808400000005,56.244904030808,56.277712430808,0.328084,0,0.252097449012,0.34695539168,25,5,15.233,56.277712430808,0,0,0.260475073952,0,0,-0.671082,81.6, -1.1, -0.3,0,0,1024,1024,1024,1024,0,0,0,0,95.4,0,0,44,3.819,3.821,3.822,3.819,0,0,4.823,94.82,56.277712430808,0,11,AutoTakeoff,
2600,2023-06-08 18:05:48,52.206449259239,0.0872669758773662,0.328084,0.36089240000001,56.244904030808,56.605796430808,0.328084,0,0.258550205124,0.37869423784,25,5,15.233,56.605796430808,0.328084,0,0.260475073952,0,0,-0.894776,81.3, -0.9, 0.7,0,0,1024,1024,1684,1024,0,0,100,0,95.3,0,0,44,3.819,3.821,3.822,3.819,0,0,4.823,94.82,56.605796430808,0.328084,11,AutoTakeoff,
2800,2023-06-08 18:05:49,52.2064491692906,0.0872669354694738,0.656168,0.68897640000001,56.244904030808,56.933880430808,0.656168,0,0.291552174684,0.41273295284,26,5,15.184,56.933880430808,0.656168,0,0.291552174684,0,0,-0.671082,81.6, -0.2, -1.6,0,0,1024,1024,1684,1024,0,0,100,0,95.2,0,0,44,3.788,3.788,3.79,3.786,0,0,4.708,94.82,56.933880430808,0.656168,11,AutoTakeoff,
3000,2023-06-08 18:05:49,52.2064490900467,0.0872668760598765,0.984252,1.0170604,56.244904030808,57.261964430808,0.984252,0,0.32115650634,0.44455053916,26,5,15.184,57.261964430808,0.984252,0,0.32115650634,0,0,-0.671082,81.5, -0.4, -3,0,0,1024,1024,1684,1024,0,0,100,0,95.1,0,0,44,3.788,3.788,3.79,3.786,0,0,4.708,94.82,57.261964430808,0.984252,11,AutoTakeoff,
3200,2023-06-08 18:05:49,52.2064491549882,0.0872667919309381,1.312336,1.3451444,56.244904030808,57.590048430808,1.312336,0,0.299622384916,0.4748031648,26,5,15.184,57.590048430808,1.312336,0,0.32115650634,0,0,-1.789552,81.7, 0, -2.1,0,0,1024,1024,1684,1024,0,0,100,0,95,0,0,44,3.788,3.788,3.79,3.786,0,0,4.708,94.82,57.590048430808,1.312336,11,AutoTakeoff,
3400,2023-06-08 18:05:49,52.206449354049,0.0872666058910723,1.968504,2.0013124,56.244904030808,58.246216430808,2.296588,0,0.23925033574,0.5584973932,26,5,15.184,58.246216430808,1.968504,0,0.32115650634,0,0,-3.579104,81.3, -0.8, 0.6,0,0,1024,1024,1684,1024,0,0,100,0,95,0,0,44,3.788,3.788,3.79,3.786,0,0,4.708,94.82,58.246216430808,1.968504,11,AutoTakeoff,
3600,2023-06-08 18:05:49,52.2064494753094,0.0872663869118891,3.608924,3.6417324,56.244904030808,59.886636430808,3.608924,0,0.223654206632,0.62448820896,27,5,15.184,59.886636430808,3.608924,0,0.32115650634,0,0,-5.816044,82.2, -1.5, 0.6,0,0,1024,1024,1684,1024,0,0,100,0,94.9,0,0,44,3.788,3.788,3.79,3.786,0,0,4.708,94.82,59.886636430808,3.608924,11,AutoTakeoff,
3800,2023-06-08 18:05:50,52.2064494157908,0.0872662868008289,5.905512,5.9383204,56.244904030808,62.183224430808,5.905512,0,0.254477698432,0.65567259316,27,5,15.053,62.183224430808,5.905512,0,0.32115650634,0,0,-7.82929,82.3, -1, -2.5,0,0,1024,1024,1684,1024,0,0,100,0,94.9,0,0,44,3.745,3.752,3.752,3.744,0,0,9.282,94.64,62.183224430808,5.905512,6,P-GPS,"Home Point updated (Code: 3000001)"
4000,2023-06-08 18:05:50,52.2064494509665,0.0872661562947298,8.858268,8.8910764,56.244904030808,65.135980430808,8.858268,0,0.263970808972,0.6875492346,28,5,15.053,65.135980430808,8.858268,0,0.32115650634,0,0,-10.289924,82.6, -2.5, -2.6,0,0,1024,1024,1634,1024,0,0,92,0,94.9,0,0,44,3.745,3.752,3.752,3.744,0,0,9.282,94.64,65.135980430808,8.858268,6,P-GPS,
4200,2023-06-08 18:05:50,52.2064496288927,0.0872661078381108,12.795276,12.795276,56.277712430808,69.072988430808,12.139108,0,0.231362212128,0.753362885,28,5,15.053,69.072988430808,12.795276,0,0.32115650634,0,0,-12.30317,82.6, -0.9, -0.3,0,0,1024,1024,1458,1024,0,0,66,0,94.9,0,0,44,3.745,3.752,3.752,3.744,0,0,9.282,94.64,69.072988430808,12.795276,6,P-GPS,
4400,2023-06-08 18:05:50,52.206449759988,0.0872660102503596,17.060368,17.060368,56.277712430808,73.338080430808,15.748032,0,0.230204075608,0.80593506516,28,5,15.053,73.338080430808,17.060368,0,0.32115650634,0,0,-12.526864,82.7, -1.6, -2.9,0,0,1024,1024,1024,1024,0,0,0,0,94.9,0,0,44,3.745,3.752,3.752,3.744,0,0,9.282,94.64,73.338080430808,17.060368,6,P-GPS,
4600,2023-06-08 18:05:50,52.2064498481286,0.0872658715522435,20.669292,20.669292,56.277712430808,76.947004430808,19.356956,0,0.252174220668,0.85061026344,28,5,15.053,76.947004430808,20.669292,0,0.32115650634,0,0,-10.961006,82.7, -2.6, -2.3,0,0,1406,1024,1024,1024,58,0,0,0,94.9,0,0,44,3.745,3.752,3.752,3.744,0,0,9.282,94.64,76.947004430808,20.669292,6,P-GPS,
4800,2023-06-08 18:05:51,52.2064498771191,0.0872657259622087,23.622048,23.622048,56.277712430808,79.899760430808,22.309712,0,0.2828576206,0.88483926716,28,5,15.053,79.899760430808,23.622048,0,0.32115650634,0,0,-9.171454,82.7, -2.7, -0.2,0,0,1684,1024,1024,1024,100,0,0,0,94.9,0,0,44,3.778,3.783,3.785,3.784,0,0,9.282,94.64,79.899760430808,23.622048,6,P-GPS,
5000,2023-06-08 18:05:51,52.2064497877705,0.0872656371675951,25.918636,25.918636,56.277712430808,82.196348430808,24.934384,0,0.307860574156,0.92300527888,28,5,15.053,82.196348430808,25.918636,0,0.32115650634,0,0,-6.71082,82.6, -16.8, -0.7,0,0,1684,1024,1024,1024,100,0,0,0,94.9,0,0,44,3.778,3.783,3.785,3.784,0,0,9.282,94.64,82.196348430808,25.918636,6,P-GPS,
5200,2023-06-08 18:05:51,52.2064496323752,0.0872660632328582,27.559056,27.559056,56.277712430808,83.836768430808,26.574804,0.671082,0.239197186132,1.03386486248,28,5,15.053,83.836768430808,27.559056,0.671082,0.32115650634,0,0.671082,-4.250186,83.1, -29.1, -1.5,0,0,1684,1024,1024,1024,100,0,0,0,94.9,0,0,44,3.778,3.783,3.785,3.784,0,0,9.282,94.64,83.836768430808,27.559056,6,P-GPS,
5400,2023-06-08 18:05:51,52.2064495007146,0.087267668515194,28.215224,28.215224,56.277712430808,84.492936430808,27.559056,1.565858,0.229319561144,1.39598429664,28,5,15.053,84.492936430808,28.215224,1.565858,0.32115650634,0,1.565858,-1.789552,83, -29.2, -1.6,0,0,1684,1024,1024,1024,100,0,0,0,94.9,0,0,44,3.778,3.783,3.785,3.784,0,0,9.282,94.64,84.492936430808,28.215224,6,P-GPS,
5600,2023-06-08 18:05:51,52.2064494155423,0.0872707510097033,28.215224,28.2480324,56.244904030808,84.492936430808,27.88714,2.908022,0.86638126132,2.08588589352,28,5,15.053,84.492936430808,28.215224,2.908022,0.86638126132,0,2.908022,-0.223694,83.5, -28.5, -1.5,0,0,1684,1024,1024,1024,100,0,0,0,94.9,0,0,44,3.778,3.783,3.785,3.784,0,0,9.282,94.64,84.492936430808,28.215224,6,P-GPS,
5800,2023-06-08 18:05:52,52.2064494216377,0.0872761052057281,28.215224,28.2480324,56.244904030808,84.492936430808,28.215224,4.921268,2.049458727,3.2830053544,28,5,14.872,84.492936430808,28.215224,4.921268,2.049458727,0,4.921268,0,84.9, -28.7, -2.3,0,0,1684,1024,1024,1024,100,0,0,0,94.9,0,0,44,3.77,3.774,3.776,3.77,0,0,15.615,94.46,84.492936430808,28.215224,6,P-GPS,
6000,2023-06-08 18:05:52,52.2064494926874,0.0872840717325052,28.215224,28.2480324,56.244904030808,84.492936430808,28.215224,6.934514,3.8248688888,5.0644030492,28,5,14.872,84.492936430808,28.215224,6.934514,3.8248688888,0.223694,6.934514,0,85.6, -29.1, -4,0,0,1210,1024,1024,1024,28,0,0,0,94.9,0,0,44,3.77,3.774,3.776,3.77,0,0,15.615,94.46,84.492936430808,28.215224,6,P-GPS,
6200,2023-06-08 18:05:52,52.2064497453128,0.0872946536096176,28.215224,28.215224,56.277712430808,84.492936430808,28.215224,8.7464354,6.1874345812,7.4321524688,28,5,14.872,84.492936430808,28.215224,8.7464354,6.1874345812,0.447388,8.724066,0,85.7, -24.4, -4.8,0,0,1024,1024,1024,1024,0,0,0,0,94.9,0,0,44,3.77,3.774,3.776,3.77,0,0,15.615,94.46,84.492936430808,28.215224,6,P-GPS,
6400,2023-06-08 18:05:52,52.2064501509305,0.0873071927077593,28.215224,28.215224,56.277712430808,84.492936430808,28.215224,9.4175174,8.9907483192,10.2396328736,28,5,14.872,84.492936430808,28.215224,9.4175174,8.9907483192,0.671082,9.395148,-0.223694,84.4, 8.5, -4.2,0,0,1024,1024,1024,1024,0,0,0,0,94.9,0,0,44,3.77,3.774,3.776,3.77,0,0,15.615,94.46,84.492936430808,28.215224,6,P-GPS,
6600,2023-06-08 18:05:52,52.2064505708507,0.087318684073496,27.88714,27.8543316,56.310520830808,84.164852430808,28.543308,7.4042714,11.5618770104,12.8135174704,28,5,14.872,84.492936430808,28.215224,9.4175174,11.5618770104,0.671082,7.381902,-0.447388,85.8, 28, -1.4,0,0,1448,1024,1024,1024,64,0,0,0,94.9,0,0,44,3.77,3.774,3.776,3.77,0,0,15.615,94.46,84.164852430808,27.88714,6,P-GPS,
6800,2023-06-08 18:05:53,52.206450796289,0.0873271365574279,27.88714,27.8543316,56.310520830808,84.164852430808,28.215224,5.144962,13.4530516116,14.7051513892,28,5,15.17,84.492936430808,28.215224,9.4175174,13.4530516116,0.223694,5.144962,0,85.6, 28.8, -0.8,0,0,1684,1024,1024,1024,100,0,0,0,94.9,0,0,44,3.784,3.791,3.79,3.782,0,0,5.64,95,84.164852430808,27.88714,6,P-GPS,
7000,2023-06-08 18:05:53,52.2064507327611,0.0873324897469251,27.559056,27.5262476,56.310520830808,83.836768430808,27.559056,3.131716,14.6492130672,15.9022970968,28,5,15.17,84.492936430808,28.215224,9.4175174,14.6492130672,0,3.131716,0,85.4, 7.1, -2.5,0,0,1684,1024,1024,1024,100,0,0,0,94.9,0,0,44,3.784,3.791,3.79,3.782,0,0,5.64,95,83.836768430808,27.559056,6,P-GPS,
7200,2023-06-08 18:05:53,52.2064505189609,0.0873363460620102,27.559056,27.5262476,56.310520830808,83.836768430808,27.88714,2.684328,15.5100726748,16.768045156,28,5,15.17,84.492936430808,28.215224,9.4175174,15.5100726748,0,2.684328,0.223694,85.4, -0.6, -3,0,0,1152,1024,1024,1024,19,0,0,0,94.9,0,0,44,3.784,3.791,3.79,3.782,0,0,5.64,95,83.836768430808,27.559056,6,P-GPS,
7400,2023-06-08 18:05:53,52.2064502721738,0.0873399051578597,27.230972,27.230972,56.277712430808,83.508684430808,27.559056,2.684328,16.3049217816,17.5688653916,28,5,15.17,84.492936430808,28.215224,9.4175174,16.3049217816,0,2.684328,0,86.1, -8, -2.5,0,0,1024,1024,1024,1024,0,0,0,0,94.9,-0.2,0,44,3.784,3.791,3.79,3.782,0,0,5.64,95,83.508684430808,27.230972,6,P-GPS,
7600,2023-06-08 18:05:53,52.2064500259607,0.0873436972648667,27.230972,27.230972,56.277712430808,83.508684430808,27.559056,2.684328,17.1524283704,18.4214900908,28,5,15.17,84.492936430808,28.215224,9.4175174,17.1524283704,0,2.684328,0,86, 15.3, -3.6,0,0,1024,1024,1024,1024,0,0,0,0,94.9,-2.3,0,44,3.784,3.791,3.79,3.782,0,0,5.64,95,83.508684430808,27.230972,6,P-GPS,
7800,2023-06-08 18:05:54,52.206449738682,0.0873462175262955,27.230972,27.230972,56.277712430808,83.508684430808,27.559056,0.894776,17.7161094908,18.9946528388,28,5,15.047,84.492936430808,28.215224,9.4175174,17.7161094908,0,0.894776,0,85.9, 15, -5,0,0,1024,1024,1024,1024,0,0,0,0,94.9,-5.1,0,44,3.769,3.774,3.775,3.767,0,0,8.717,95,83.508684430808,27.230972,6,P-GPS,
8000,2023-06-08 18:05:54,52.2064494555969,0.0873469729812362,27.230972,27.2637804,56.244904030808,83.508684430808,27.559056,0,17.8857945356,19.1926187244,28,5,15.047,84.492936430808,28.215224,9.4175174,17.8857945356,0,0,0,88.4, 5.1, -5.1,0,0,1024,1024,1024,1024,0,0,0,0,94.9,-8,0,44,3.769,3.774,3.775,3.767,0,0,8.717,95,83.508684430808,27.230972,6,P-GPS,
8200,2023-06-08 18:05:54,52.2064492228253,0.0873468549239273,27.230972,27.2637804,56.244904030808,83.508684430808,27.559056,0.223694,17.8604664508,19.2815622968,28,5,15.047,84.492936430808,28.215224,9.4175174,17.8857945356,0,-0.223694,0,87.9, 0.2, -4.4,0,0,1024,1024,1024,1024,0,0,0,0,94.9,-10.9,0,44,3.769,3.774,3.775,3.767,0,0,8.717,95,83.508684430808,27.230972,6,P-GPS,
8400,2023-06-08 18:05:54,52.2064490514399,0.0873463595026163,27.230972,27.2637804,56.244904030808,83.508684430808,27.559056,0.223694,17.7507879696,19.4087604636,28,5,15.047,84.492936430808,28.215224,9.4175174,17.8857945356,0,-0.223694,0,87.4, -2.9, -4.7,0,0,1024,1024,1024,1024,0,0,0,0,94.9,-13.8,0,44,3.769,3.774,3.775,3.767,0,0,8.717,95,83.508684430808,27.230972,6,P-GPS,
8600,2023-06-08 18:05:54,52.2064489702084,0.0873458628371254,27.230972,27.2637804,56.244904030808,83.508684430808,27.559056,0.223694,17.6403548952,19.5236882888,28,5,15.047,84.492936430808,28.215224,9.4175174,17.8857945356,0,-0.223694,0,87.4, -5.2, -4.4,0,0,1024,1024,1024,1024,0,0,0,0,94.9,-16.7,0,44,3.769,3.774,3.775,3.767,0,0,8.717,95,83.508684430808,27.230972,6,P-GPS,
8800,2023-06-08 18:05:55,52.2064489218739,0.0873455897186358,27.559056,27.5918644,56.244904030808,83.836768430808,27.559056,0,17.5796593552,19.587270968,28,5,15.093,84.492936430808,28.215224,9.4175174,17.8857945356,0,0,0,87.7, -4.8, -4.2,0,0,1024,1024,1024,1024,0,0,0,0,94.9,-19.6,0,44,3.766,3.772,3.774,3.769,0,0,6.811,95,83.836768430808,27.559056,6,P-GPS,
9000,2023-06-08 18:05:55,52.2064489045087,0.0873455453475407,27.559056,27.5918644,56.244904030808,83.836768430808,27.88714,0,17.569882452,19.5990163752,28,5,15.093,84.492936430808,28.215224,9.4175174,17.8857945356,0,0,0,89, -3.6, -5.2,0,0,1024,1024,1024,1024,0,0,0,0,94.9,-22.5,0,44,3.766,3.772,3.774,3.769,0,0,6.811,95,83.836768430808,27.559056,6,P-GPS,
9200,2023-06-08 18:05:55,52.2064489377398,0.0873456164754966,27.559056,27.5918644,56.244904030808,83.836768430808,27.559056,0,17.5855320588,19.6190294992,28,5,15.093,84.492936430808,28.215224,9.4175174,17.8857945356,0,0,0,89, -3.6, -4.1,0,0,1024,1024,1024,1024,0,0,0,0,94.9,-25.5,0,44,3.766,3.772,3.774,3.769,0,0,6.811,95,83.836768430808,27.559056,6,P-GPS,
9400,2023-06-08 18:05:55,52.2064489334435,0.0873457815180767,27.559056,27.5918644,56.244904030808,83.836768430808,27.88714,0,17.6224415088,19.6559717576,28,5,15.093,84.492936430808,28.215224,9.4175174,17.8857945356,0,0,0,87.2, -2.5, -4.7,0,0,1024,1024,1024,1024,0,0,0,0,94.9,-28.4,0,44,3.766,3.772,3.774,3.769,0,0,6.811,95,83.836768430808,27.559056,6,P-GPS,
9600,2023-06-08 18:05:55,52.206448911101,0.0873459722550717,27.559056,27.5918644,56.244904030808,83.836768430808,27.88714,0,17.6652564708,19.6993772708,28,5,15.093,84.492936430808,28.215224,9.4175174,17.8857945356,0,0,0,86.4, -2.2, -5.3,0,0,1024,1024,1024,1024,0,0,0,0,94.9,-31.3,0,44,3.766,3.772,3.774,3.769,0,0,6.811,95,83.836768430808,27.559056,6,P-GPS,
9800,2023-06-08 18:05:56,52.206448890489,0.0873461075911058,27.559056,27.5918644,56.244904030808,83.836768430808,27.88714,0,17.695702666,19.7305452508,28,5,15.08,84.492936430808,28.215224,9.4175174,17.8857945356,0,0,0,86.2, -1.9, -5.2,0,0,1024,1024,1024,1024,0,0,0,0,94.9,-34.2,0,43,3.769,3.773,3.775,3.77,0,0,8.05,95.18,83.836768430808,27.559056,6,P-GPS,
10000,2023-06-08 18:05:56,52.2064488662103,0.0873461419248833,27.559056,27.5918644,56.244904030808,83.836768430808,28.215224,0,17.703576682,19.742290658,28,5,15.08,84.492936430808,28.215224,9.4175174,17.8857945356,0,0,0,86.2, -2.5, -5.9,0,0,1024,1024,1024,1024,0,0,0,0,94.9,-37.1,0,43,3.769,3.773,3.775,3.77,0,0,8.05,95.18,83.836768430808,27.559056,6,P-GPS,
10200,2023-06-08 18:05:56,52.2064488568853,0.0873461019433671,27.88714,27.9199484,56.244904030808,84.164852430808,28.215224,0,17.6946856056,19.7518379024,28,5,15.08,84.492936430808,28.215224,9.4175174,17.8857945356,0,0,0,86.4, -3.2, -5.9,0,0,1024,1024,1024,1024,0,0,0,0,94.9,-40.1,0,43,3.769,3.773,3.775,3.77,0,0,8.05,95.18,84.164852430808,27.88714,6,P-GPS,
10400,2023-06-08 18:05:56,52.2064488652209,0.0873460006335604,27.88714,27.9199484,56.244904030808,84.164852430808,28.215224,0,17.6719821928,19.7747053572,28,5,15.08,84.492936430808,28.215224,9.4175174,17.8857945356,0,0,0,86.5, -3.9, -5.2,0,0,1024,1024,1024,1024,0,0,0,0,94.9,-43,0,43,3.769,3.773,3.775,3.77,0,0,8.05,95.18,84.164852430808,27.88714,6,P-GPS,
10600,2023-06-08 18:05:56,52.2064488841023,0.0873459462531067,27.88714,27.9199484,56.244904030808,84.164852430808,28.215224,0,17.6596790428,19.7886817356,28,5,15.08,84.492936430808,28.215224,9.4175174,17.8857945356,0,0,0,86.5, -3.9, -5.6,0,0,1024,1024,1024,1024,0,0,0,0,94.9,-45.9,0,43,3.769,3.773,3.775,3.77,0,0,8.05,95.18,84.164852430808,27.88714,6,P-GPS,
10800,2023-06-08 18:05:57,52.2064489095461,0.0873459397805746,27.88714,27.9199484,56.244904030808,84.164852430808,28.215224,0,17.6580058144,19.798064938,28,5,15.084,84.492936430808,28.215224,9.4175174,17.8857945356,0,0,0,86.4, -4.1, -5.2,0,0,1024,1024,1024,1024,0,0,0,0,94.9,-48.8,0,43,3.769,3.773,3.775,3.769,0,0,7.704,95.36,84.164852430808,27.88714,6,P-GPS,
11000,2023-06-08 18:05:57,52.2064489257461,0.0873459846689131,27.88714,27.9199484,56.244904030808,84.164852430808,27.88714,0,17.6679139512,19.80971192,28,5,15.084,84.492936430808,28.215224,9.4175174,17.8857945356,0,0,0,86.4, -3.8, -5.7,0,0,1024,1024,1024,1024,0,0,0,0,94.9,-51.7,0,43,3.769,3.773,3.775,3.769,0,0,7.704,95.36,84.164852430808,27.88714,6,P-GPS,
11200,2023-06-08 18:05:57,52.2064489484913,0.0873460854335173,27.88714,27.9199484,56.244904030808,84.164852430808,27.88714,0,17.69028928,19.8337276688,28,5,15.084,84.492936430808,28.215224,9.4175174,17.8857945356,0,0,0,86.5, -3.4, -5.6,0,0,1024,1024,1024,1024,0,0,0,0,94.9,-54.6,0,43,3.769,3.773,3.775,3.769,0,0,7.704,95.36,84.164852430808,27.88714,6,P-GPS,
11400,2023-06-08 18:05:57,52.2064489467479,0.0873462211190402,27.88714,27.9199484,56.244904030808,84.164852430808,27.88714,0,17.72063705,19.8640754388,28,5,15.084,84.492936430808,28.215224,9.4175174,17.8857945356,0,0,0,86.4, -3.1, -6.1,0,0,1024,1024,1024,1024,0,0,0,0,94.9,-57.6,0,43,3.769,3.773,3.775,3.769,0,0,7.704,95.36,84.164852430808,27.88714,6,P-GPS,
11600,2023-06-08 18:05:57,52.2064489566941,0.0873463491018304,27.88714,27.9199484,56.244904030808,84.164852430808,27.88714,0,17.7491475496,19.8929140224,28,5,15.084,84.492936430808,28.215224,9.4175174,17.8857945356,0,0,0,86.4, -3.5, -6.1,0,0,1024,1024,1024,1024,0,0,0,0,94.9,-60.5,0,43,3.769,3.773,3.775,3.769,0,0,7.704,95.36,84.164852430808,27.88714,6,P-GPS,
11800,2023-06-08 18:05:58,52.2064489625667,0.0873464947547731,27.88714,27.9199484,56.244904030808,84.164852430808,27.88714,0,17.781660674,19.9255583804,28,5,15.088,84.492936430808,28.215224,9.4175174,17.8857945356,0,0,0,86.4, -3.1, -6.2,0,0,1024,1024,1024,1024,0,0,0,0,94.9,-63.4,0,43,3.766,3.771,3.774,3.767,0,0,7.511,95.36,84.164852430808,27.88714,6,P-GPS,
12000,2023-06-08 18:05:58,52.2064489978752,0.0873466592801098,27.88714,27.9199484,56.244904030808,84.164852430808,27.88714,0,17.8181764232,19.9645347596,28,5,15.088,84.492936430808,28.215224,9.4175174,17.8857945356,0,0,0,86.2, -2.5, -6.6,0,0,1024,1024,1024,1024,0,0,0,0,94.9,-66.3,0,43,3.766,3.771,3.774,3.767,0,0,7.511,95.36,84.164852430808,27.88714,6,P-GPS,
12200,2023-06-08 18:05:58,52.2064490771706,0.0873467318898982,27.88714,27.9199484,56.244904030808,84.164852430808,28.215224,0,17.8338588384,19.997704052,28,5,15.088,84.492936430808,28.215224,9.4175174,17.8857945356,0,0,0,86.5, -3.4, -5.9,0,0,1024,1024,1024,1024,0,0,0,0,94.9,-69.2,0,43,3.766,3.771,3.774,3.767,0,0,7.511,95.36,84.164852430808,27.88714,6,P-GPS,
12400,2023-06-08 18:05:58,52.2064491472694,0.0873467952312441,27.88714,27.9199484,56.244904030808,84.164852430808,28.215224,0,17.8475727496,20.0269363364,28,5,15.088,84.492936430808,28.215224,9.4175174,17.8857945356,0,0,0,86.5, -3.5, -6.2,0,0,1024,1024,1024,1024,0,0,0,0,94.9,-72.2,0,43,3.766,3.771,3.774,3.767,0,0,7.511,95.36,84.164852430808,27.88714,6,P-GPS,
12600,2023-06-08 18:05:58,52.206449162707,0.0873468689174579,27.88714,27.9199484,56.244904030808,84.164852430808,27.88714,0,17.8639441412,20.0443575968,28,5,15.088,84.492936430808,28.215224,9.4175174,17.8857945356,0,0,0,86.4, -3.7, -6.7,0,0,1024,1024,1024,1024,0,0,0,0,94.9,-75.1,0,43,3.766,3.771,3.774,3.767,0,0,7.511,95.36,84.164852430808,27.88714,6,P-GPS,
12800,2023-06-08 18:05:59,52.2064491378501,0.0873469411218393,28.215224,28.2480324,56.244904030808,84.492936430808,27.88714,0,17.880249916,20.0628615344,28,5,15.078,84.492936430808,28.215224,9.4175174,17.8857945356,0,0,0,86.4, -3.5, -7.1,0,0,1024,1024,1024,1024,0,0,0,0,94.9,-78,0,43,3.763,3.769,3.772,3.765,0,0,7.51,95.36,84.492936430808,28.215224,6,P-GPS,
13000,2023-06-08 18:05:59,52.2064491377044,0.0873470208751782,28.215224,28.2480324,56.244904030808,84.492936430808,27.88714,0,17.8980976856,20.080709304,28,5,15.078,84.492936430808,28.215224,9.4175174,17.8980976856,0,0,0,86.2, -3.6, -7.1,0,0,1024,1024,1024,1024,0,0,0,0,94.9,-80.9,0,43,3.763,3.769,3.772,3.765,0,0,7.51,95.36,84.492936430808,28.215224,6,P-GPS,
13200,2023-06-08 18:05:59,52.2064491814685,0.0873470853768269,28.215224,28.2480324,56.244904030808,84.492936430808,27.88714,0,17.912238106,20.102198806,28,5,15.078,84.492936430808,28.215224,9.4175174,17.912238106,0,0,0,86.2, -3.2, -6.6,0,0,1024,1024,1024,1024,0,0,0,0,94.9,-83.8,0,43,3.763,3.769,3.772,3.765,0,0,7.51,95.36,84.492936430808,28.215224,6,P-GPS,
13400,2023-06-08 18:05:59,52.2064492686711,0.0873471042072822,28.215224,28.2480324,56.244904030808,84.492936430808,27.88714,0,17.9159782636,20.1343182296,28,5,15.078,84.492936430808,28.215224,9.4175174,17.9159782636,0,0,0,86.4, -4.1, -5.6,0,0,1024,1024,1024,1024,0,0,0,0,94.9,-86.8,0,43,3.763,3.769,3.772,3.765,0,0,7.51,95.36,84.492936430808,28.215224,6,P-GPS,
13600,2023-06-08 18:05:59,52.2064493317879,0.087347143951146,28.215224,28.2480324,56.244904030808,84.492936430808,27.88714,0,17.924541256,20.1589901464,28,5,15.078,84.492936430808,28.215224,9.4175174,17.924541256,0,0,0,86.4, -3.6, -6.1,0,0,1024,1024,1024,1024,0,0,0,0,94.9,-89.7,0,43,3.763,3.769,3.772,3.765,0,0,7.51,95.36,84.492936430808,28.215224,6,P-GPS,
13800,2023-06-08 18:06:00,52.2064493534836,0.0873471919569244,28.215224,28.2480324,56.244904030808,84.492936430808,27.88714,0,17.9351711776,20.1723103568,28,5,15.07,84.492936430808,28.215224,9.4175174,17.9351711776,0,0,0,86.4, -3.8, -6.1,0,0,1024,1024,1024,1024,0,0,0,0,94.9,-90,0,43,3.762,3.77,3.77,3.766,0,0,7.573,95.36,84.492936430808,28.215224,6,P-GPS,
14000,2023-06-08 18:06:00,52.2064493510591,0.0873472616449866,28.215224,28.2480324,56.244904030808,84.492936430808,27.88714,0,17.9507551676,20.1879271552,28,5,15.07,84.492936430808,28.215224,9.4175174,17.9507551676,0,0,0,86.4, -3.5, -6.9,0,0,1024,1024,1024,1024,0,0,0,0,94.9,-90,0,43,3.762,3.77,3.77,3.766,0,0,7.573,95.36,84.492936430808,28.215224,6,P-GPS,
14200,2023-06-08 18:06:00,52.2064493284211,0.0873473579780731,28.215224,28.2480324,56.244904030808,84.492936430808,27.559056,0,17.9724087116,20.2109914604,28,5,15.07,84.492936430808,28.215224,9.4175174,17.9724087116,0,0,0,86.3, -3.1, -6.8,0,0,1024,1024,1024,1024,0,0,0,0,94.9,-90,0,43,3.762,3.77,3.77,3.766,0,0,7.573,95.36,84.492936430808,28.215224,6,P-GPS,
14400,2023-06-08 18:06:00,52.2064493067211,0.0873474467062838,28.215224,28.2480324,56.244904030808,84.492936430808,27.559056,0,17.9923562188,20.2323497288,28,5,15.07,84.492936430808,28.215224,9.4175174,17.9923562188,0,0,0,86.4, -3.3, -6.6,0,0,1024,1024,1024,1024,0,0,0,0,94.9,-89.9,0,43,3.762,3.77,3.77,3.766,0,0,7.573,95.36,84.492936430808,28.215224,6,P-GPS,
14600,2023-06-08 18:06:00,52.2064492672319,0.0873475140737405,28.215224,28.2480324,56.244904030808,84.492936430808,27.559056,0,18.0076121248,20.2532158712,28,5,15.07,84.492936430808,28.215224,9.4175174,18.0076121248,0,0,0,86.6, -3.2, -7.4,0,0,1024,1024,1024,1024,0,0,0,0,94.9,-89.9,0,43,3.762,3.77,3.77,3.766,0,0,7.573,95.36,84.492936430808,28.215224,6,P-GPS,
14800,2023-06-08 18:06:01,52.2064491932737,0.0873475791485508,28.215224,28.2480324,56.244904030808,84.492936430808,27.559056,0,18.0225727552,20.2838589168,28,5,15.066,84.492936430808,28.215224,9.4175174,18.0225727552,0,0,0,86.2, -2.7, -8.2,0,0,1024,1024,1024,1024,0,0,0,0,94.9,-90,0,43,3.761,3.767,3.767,3.762,0,0,7.666,95.36,84.492936430808,28.215224,6,P-GPS,
15000,2023-06-08 18:06:01,52.2064491832247,0.0873476140694694,28.215224,28.2480324,56.244904030808,84.492936430808,27.559056,0,18.0304139628,20.292487526,28,5,15.066,84.492936430808,28.215224,9.4175174,18.0304139628,0,0,0,86.3, -2.7, -7.9,0,0,1024,1024,1024,1024,0,0,0,0,94.9,-90,0,43,3.761,3.767,3.767,3.762,0,0,7.666,95.36,84.492936430808,28.215224,6,P-GPS,
15200,2023-06-08 18:06:01,52.2064492312851,0.0873476372056265,28.215224,28.2480324,56.244904030808,84.492936430808,27.559056,0,18.0353352228,20.3107618048,28,5,15.066,84.492936430808,28.215224,9.4175174,18.0353352228,0,0,0,86.1, -2.5, -7.3,0,0,1024,1024,1024,1024,0,0,0,0,94.9,-89.9,0,43,3.761,3.767,3.767,3.762,0,0,7.666,95.36,84.492936430808,28.215224,6,P-GPS,
15400,2023-06-08 18:06:01,52.2064493057959,0.0873476524013985,28.543308,28.5761164,56.244904030808,84.821020430808,27.559056,0,18.0383207872,20.3381568188,28,5,15.066,84.821020430808,28.543308,9.4175174,18.0383207872,0,0,0,86.2, -2.3, -7.1,0,0,1024,1024,1249,1024,0,0,34,0,94.9,-90,0,43,3.761,3.767,3.767,3.762,0,0,7.666,95.36,84.821020430808,28.543308,6,P-GPS,
15600,2023-06-08 18:06:01,52.2064493636011,0.087347594805648,28.543308,28.5761164,56.244904030808,84.821020430808,27.88714,0,18.0251974272,20.362861544,28,5,15.066,84.821020430808,28.543308,9.4175174,18.0383207872,0,0,0,86.6, -2.6, -7.1,0,0,1024,1024,1684,1024,0,0,100,0,94.9,-89.9,0,43,3.761,3.767,3.767,3.762,0,0,7.666,95.36,84.821020430808,28.543308,6,P-GPS,
15800,2023-06-08 18:06:02,52.2064493978516,0.0873474647818434,28.871392,28.9042004,56.244904030808,85.149104430808,27.88714,0,17.9959651428,20.39452165,28,5,15.063,85.149104430808,28.871392,9.4175174,18.0383207872,0,0,-1.11847,86.5, -2.3, -6,0,0,1024,1024,1684,1024,0,0,100,0,94.9,-90,0,43,3.765,3.77,3.771,3.767,0,0,7.535,95.54,85.149104430808,28.871392,6,P-GPS,
16000,2023-06-08 18:06:02,52.2064494616666,0.0873472343708824,29.52756,29.5603684,56.244904030808,85.805272430808,28.543308,0,17.9441934876,20.4510505232,28,5,15.063,85.805272430808,29.52756,9.4175174,18.0383207872,0,0,-3.35541,86.4, -3.5, -4.9,0,0,1024,1024,1684,1024,0,0,100,0,94.9,-89.9,0,43,3.765,3.77,3.771,3.767,0,0,7.535,95.54,85.805272430808,29.52756,6,P-GPS,
16200,2023-06-08 18:06:02,52.2064495060646,0.0873470224408879,30.839896,30.839896,56.277712430808,87.117608430808,30.183728,0,17.896654116,20.5011161416,28,5,15.063,87.117608430808,30.839896,9.4175174,18.0383207872,0,0,-5.59235,86.5, -4, -6.6,0,0,1024,1024,1684,1024,0,0,100,0,94.9,-90,0,43,3.765,3.77,3.771,3.767,0,0,7.535,95.54,87.117608430808,30.839896,6,P-GPS,
16400,2023-06-08 18:06:02,52.2064496754539,0.087346873181221,33.136484,33.136484,56.277712430808,89.414196430808,32.480316,0,17.8628286556,20.571358926,28,5,15.063,89.414196430808,33.136484,9.4175174,18.0383207872,0,0,-8.052984,86.4, -3, -5.8,0,0,1024,1024,1684,1024,0,0,100,0,94.9,-89.9,0,43,3.765,3.77,3.771,3.767,0,0,7.535,95.54,89.414196430808,33.136484,6,P-GPS,
16600,2023-06-08 18:06:02,52.2064499195853,0.0873467519365744,36.745408,36.745408,56.277712430808,93.023120430808,35.104988,0.223694,17.8354008332,20.6644691652,28,5,15.063,93.023120430808,36.745408,9.4175174,18.0383207872,0.223694,0,-10.06623,86.3, -3.7, -4.8,0,0,1024,1024,1684,1024,0,0,100,0,94.9,-89.9,0,43,3.765,3.77,3.771,3.767,0,0,7.535,95.54,93.023120430808,36.745408,6,P-GPS,
16800,2023-06-08 18:06:03,52.2064502196757,0.0873467406550767,40.682416,40.682416,56.277712430808,96.960128430808,38.385828,0,17.8331042452,20.7739836044,28,5,15.062,96.960128430808,40.682416,9.4175174,18.0383207872,0,0,-12.079476,86.1, -3.1, -3,0,0,1024,1024,1684,1024,0,0,100,0,94.9,-89.9,0,43,3.707,3.716,3.715,3.704,0,0,7.642,95.54,96.960128430808,40.682416,6,P-GPS,
17000,2023-06-08 18:06:03,52.2064504521604,0.0873467154080074,44.619424,44.619424,56.277712430808,100.89713643081,42.322836,0,17.82808456,20.8589901688,28,5,15.062,100.89713643081,44.619424,9.4175174,18.0383207872,0,0,-12.974252,86.1, -3.3, -2.9,0,0,1024,1024,1684,1024,0,0,100,0,94.9,-90,0,43,3.707,3.716,3.715,3.704,0,0,7.642,95.54,100.89713643081,44.619424,6,P-GPS,
17200,2023-06-08 18:06:03,52.2064506379039,0.0873466946623536,48.556432,48.5236236,56.310520830808,104.83414443081,43.635172,0,17.8242459772,20.9269363652,28,5,15.062,104.83414443081,48.556432,9.4175174,18.0383207872,0,0,-13.42164,86, -3.9, -2.1,0,0,1024,1024,1684,1024,0,0,100,0,94.9,-90,0,43,3.707,3.716,3.715,3.704,0,0,7.642,95.54,104.83414443081,48.556432,6,P-GPS,
17400,2023-06-08 18:06:03,52.2064507174135,0.0873466709110963,52.49344,52.4606316,56.310520830808,108.77115243081,47.57218,0,17.8193575256,20.9564311168,28,5,15.062,108.77115243081,52.49344,9.4175174,18.0383207872,0,0,-13.42164,85.8, -3.9, -2.4,0,0,1024,1024,1384,1024,0,0,55,0,94.9,-90,0,43,3.707,3.716,3.715,3.704,0,0,7.642,95.54,108.77115243081,52.49344,6,P-GPS,
17600,2023-06-08 18:06:03,52.2064506685049,0.0873466332082471,56.430448,56.3976396,56.310520830808,112.70816043081,51.837272,0,17.8106632996,20.9761489652,28,5,15.062,112.70816043081,56.430448,9.4175174,18.0383207872,0,0,-13.197946,85.9, -4, -3,0,0,1024,1024,1024,1024,0,0,0,0,94.9,-89.9,0,43,3.707,3.716,3.715,3.704,0,0,7.642,95.54,112.70816043081,56.430448,6,P-GPS,
17800,2023-06-08 18:06:04,52.2064504911527,0.0873465367633241,60.367456,60.367456,56.277712430808,116.64516843081,55.446196,0.223694,17.7882879708,21.0443576288,28,5,14.885,116.64516843081,60.367456,9.4175174,18.0383207872,-0.223694,0,-11.408394,86.2, -5.9, -5.2,0,0,1024,1024,1024,1024,0,0,0,0,94.9,-90,0,43,3.709,3.722,3.725,3.718,0,0,11.98,95.36,116.64516843081,60.367456,6,P-GPS,
18000,2023-06-08 18:06:04,52.2064502358972,0.0873464322801593,62.992128,62.992128,56.277712430808,119.26984043081,58.727036,0.223694,17.7641737968,21.1403878156,28,5,14.885,119.26984043081,62.992128,9.4175174,18.0383207872,-0.223694,0,-9.395148,86.2, -6.1, -6.1,0,0,1024,1024,1024,1024,0,0,0,0,94.9,-89.9,0,43,3.709,3.722,3.725,3.718,0,0,11.98,95.36,119.26984043081,62.992128,6,P-GPS,
18200,2023-06-08 18:06:04,52.2064499566672,0.0873463765996073,64.960632,64.960632,56.277712430808,121.23834443081,61.023624,0.223694,17.751476946,21.2430124908,28,5,14.885,121.23834443081,64.960632,9.4175174,18.0383207872,-0.223694,0,-6.934514,86.3, -5, -7.8,0,0,1024,1024,1024,1024,0,0,0,0,94.9,-90,0,43,3.709,3.722,3.725,3.718,0,0,11.98,95.36,121.23834443081,64.960632,6,P-GPS,
18400,2023-06-08 18:06:04,52.2064496700696,0.0873462990130988,66.272968,66.272968,56.277712430808,122.55068043081,62.664044,0.223694,17.7344493864,21.3490164312,28,5,14.885,122.55068043081,66.272968,9.4175174,18.0383207872,-0.223694,0,-4.697574,86.4, -5.4, -8.5,0,0,1024,1024,1563,1024,0,0,82,0,94.9,-90,0,43,3.709,3.722,3.725,3.718,0,0,11.98,95.36,122.55068043081,66.272968,6,P-GPS,
18600,2023-06-08 18:06:04,52.2064493984342,0.0873461945858522,66.929136,66.9619444,56.244904030808,123.20684843081,63.648296,0.223694,17.7119756324,21.4508208964,28,5,14.885,123.20684843081,66.929136,9.4175174,18.0383207872,-0.223694,0,-2.460634,86.5, -5, -8.9,0,0,1024,1024,1684,1024,0,0,100,0,94.9,-90,0,43,3.709,3.722,3.725,3.718,0,0,11.98,95.36,123.20684843081,66.929136,6,P-GPS,
18800,2023-06-08 18:06:05,52.2064493359771,0.0873461399258074,67.25722,67.2900284,56.244904030808,123.53493243081,64.304464,0,17.7000661832,21.4766739156,28,5,14.87,123.53493243081,67.25722,9.4175174,18.0383207872,0,0,-3.579104,86.6, -2.4, -5.4,0,0,1024,1024,1684,1024,0,0,100,0,94.9,-90,0,43,3.772,3.777,3.779,3.775,0,0,15.736,95.36,123.53493243081,67.25722,6,P-GPS,
19000,2023-06-08 18:06:05,52.2064494476511,0.0873460746413039,68.569556,68.6023644,56.244904030808,124.84726843081,65.944884,0,17.6849743192,21.5199481952,28,5,14.87,124.84726843081,68.569556,9.4175174,18.0383207872,0,0,-5.816044,86.6, -3.5, -4,0,0,1024,1024,1684,1024,0,0,100,0,94.9,-89.9,0,43,3.772,3.777,3.779,3.775,0,0,15.736,95.36,124.84726843081,68.569556,6,P-GPS,
19200,2023-06-08 18:06:05,52.2064496162223,0.0873460866217792,70.209976,70.209976,56.277712430808,126.48768843081,68.241472,0.223694,17.6871068652,21.581529562,28,5,14.87,126.48768843081,70.209976,9.4175174,18.0383207872,0.223694,0,-8.052984,86.5, -1.3, -3.9,0,0,1024,1024,1684,1024,0,0,100,0,94.9,-90,0,43,3.772,3.777,3.779,3.775,0,0,15.736,95.36,126.48768843081,70.209976,6,P-GPS,
19400,2023-06-08 18:06:05,52.2064498549865,0.0873459587508254,72.834648,72.834648,56.277712430808,129.11236043081,71.194228,0.223694,17.6581042396,21.6731962316,28,5,14.87,129.11236043081,72.834648,9.4175174,18.0383207872,0.223694,0,-10.289924,86.3, -1.8, -2.3,0,0,1024,1024,1684,1024,0,0,100,0,94.9,-89.9,0,43,3.772,3.777,3.779,3.775,0,0,15.736,95.36,129.11236043081,72.834648,6,P-GPS,
19600,2023-06-08 18:06:05,52.2064500565959,0.0873456842763194,76.115488,76.115488,56.277712430808,132.39320043081,74.803152,0,17.5966869148,21.7689967596,28,5,14.87,132.39320043081,76.115488,9.4175174,18.0383207872,0,0,-12.30317,86.3, -4.1, -2.1,0,0,1024,1024,1309,1024,0,0,43,0,94.9,-89.9,0,43,3.772,3.777,3.779,3.775,0,0,15.736,95.36,132.39320043081,76.115488,6,P-GPS,
19800,2023-06-08 18:06:06,52.2064502058916,0.0873455257342305,80.052496,80.052496,56.277712430808,136.33020843081,79.068244,0,17.5614506932,21.8339902,28,5,15.082,136.33020843081,80.052496,9.4175174,18.0383207872,0,0,-12.974252,86, -5.2, -1.9,0,0,1024,1024,1024,1024,0,0,0,0,94.9,-90,0,43,3.669,3.684,3.687,3.682,0,0,7.464,95.9,136.33020843081,80.052496,6,P-GPS,
20000,2023-06-08 18:06:06,52.2064503351192,0.0873454438839589,83.66142,83.66142,56.277712430808,139.93913243081,83.005252,0,17.5434388816,21.8845479444,28,5,15.082,139.93913243081,83.66142,9.4175174,18.0383207872,0,0,-11.408394,85.8, -7.1, -1.6,0,0,1024,1024,1028,1024,0,0,1,0,94.9,-89.9,0,43,3.669,3.684,3.687,3.682,0,0,7.464,95.9,139.93913243081,83.66142,6,P-GPS,
20200,2023-06-08 18:06:06,52.2064504217778,0.0873454948114635,86.94226,86.94226,56.277712430808,143.21997243081,83.66142,0,17.5550858636,21.9181765544,28,5,15.082,143.21997243081,86.94226,9.4175174,18.0383207872,0,0,-9.395148,85.8, -8.2, -0.8,0,0,1024,1024,1684,1024,0,0,100,0,94.9,-89.9,0,43,3.669,3.684,3.687,3.682,0,0,7.464,95.9,143.21997243081,86.94226,6,P-GPS,
20400,2023-06-08 18:06:06,52.2064504292267,0.0873457276129277,88.910764,88.910764,56.277712430808,145.18847643081,83.66142,0,17.6071527944,21.9702762936,28,5,15.082,145.18847643081,88.910764,9.4175174,18.0383207872,0,0,-8.052984,86.3, -5.9, -0.9,0,0,1024,1024,1663,1024,0,0,97,0,94.9,-90,0,43,3.669,3.684,3.687,3.682,0,0,7.464,95.9,145.18847643081,88.910764,6,P-GPS,
20600,2023-06-08 18:06:06,52.2064503161992,0.0873461773350862,91.207352,91.207352,56.277712430808,147.48506443081,83.66142,0.223694,17.7073824564,22.0789705228,28,5,15.082,147.48506443081,91.207352,9.4175174,18.0383207872,-0.223694,0,-9.618842,86.4, -2.1, -1.5,0,0,1024,1024,1219,1024,0,0,30,0,94.9,-89.9,0,43,3.669,3.684,3.687,3.682,0,0,7.464,95.9,147.48506443081,91.207352,6,P-GPS,
20800,2023-06-08 18:06:07,52.2064500851495,0.0873464467489947,94.488192,94.488192,56.277712430808,150.76590443081,83.66142,0.223694,17.7671921696,22.18257945,28,5,14.772,150.76590443081,94.488192,9.4175174,18.0383207872,-0.223694,0,-10.513618,86.2, -4.5, -3.9,0,0,1024,1024,1024,1024,0,0,0,0,94.9,-89.9,0,43,3.691,3.705,3.711,3.701,0,0,14.226,95.54,150.76590443081,94.488192,6,P-GPS,
21000,2023-06-08 18:06:07,52.2064498665518,0.0873465755565784,97.112864,97.112864,56.277712430808,153.39057643081,83.66142,0.223694,17.7959979448,22.267389164,28,5,14.772,153.39057643081,97.112864,9.4175174,18.0383207872,-0.223694,0,-8.94776,85.9, -5.9, -5.7,0,0,1024,1024,1024,1024,0,0,0,0,94.9,-90,0,43,3.691,3.705,3.711,3.701,0,0,14.226,95.54,153.39057643081,97.112864,6,P-GPS,
21200,2023-06-08 18:06:07,52.2064497235015,0.0873466144896281,99.081368,99.081368,56.277712430808,155.35908043081,83.66142,0,17.8048890212,22.3202763048,28,5,14.772,155.35908043081,99.081368,9.4175174,18.0383207872,0,0,-6.934514,86.2, -6.7, -5,0,0,1024,1024,1024,1024,0,0,0,0,94.9,-90,0,43,3.691,3.705,3.711,3.701,0,0,14.226,95.54,155.35908043081,99.081368,6,P-GPS,
21400,2023-06-08 18:06:07,52.2064495912883,0.0873466146853419,100.721788,100.721788,56.277712430808,156.99950043081,83.66142,0,17.8052171052,22.3685374612,28,5,14.772,156.99950043081,100.721788,9.4175174,18.0383207872,0,0,-4.697574,86.3, -6.5, -5,0,0,1684,1024,1024,1024,100,0,0,0,94.9,-89.9,0,43,3.691,3.705,3.711,3.701,0,0,14.226,95.54,156.99950043081,100.721788,6,P-GPS,
21600,2023-06-08 18:06:07,52.2064494768172,0.087346586530526,101.377956,101.4107644,56.244904030808,157.65566843081,83.66142,0,17.7993115932,22.410761872,28,5,14.772,157.65566843081,101.377956,9.4175174,18.0383207872,0,0,-2.460634,86.5, -5.2, -3.3,0,0,1684,1024,1024,1024,100,0,0,0,94.9,-90,0,43,3.691,3.705,3.711,3.701,0,0,14.226,95.54,157.65566843081,101.377956,6,P-GPS,
21800,2023-06-08 18:06:08,52.2064493168086,0.0873466036834352,101.70604,101.7388484,56.244904030808,157.98375243081,83.66142,0.3131716,17.8038391524,22.4692592492,28,5,15.031,157.98375243081,101.70604,9.4175174,18.0383207872,-0.223694,0.223694,-0.447388,86.3, -23, -1.5,0,0,1684,1024,1024,1024,100,0,0,0,94.9,-90,0,43,3.764,3.77,3.772,3.768,0,0,11.499,96.08,157.98375243081,101.70604,6,P-GPS,
22000,2023-06-08 18:06:08,52.2064490757014,0.0873478170525512,101.70604,101.7388484,56.244904030808,157.98375243081,83.66142,1.8119214,18.0764769564,22.7544626704,28,5,15.031,157.98375243081,101.70604,9.4175174,18.0764769564,-0.223694,1.789552,0.223694,86.9, -27.6, -2.6,0,0,1684,1024,1024,1024,100,0,0,0,94.9,-90,0,43,3.764,3.77,3.772,3.768,0,0,11.499,96.08,157.98375243081,101.70604,6,P-GPS,
22200,2023-06-08 18:06:08,52.2064489070702,0.0873512570146663,101.377956,101.4107644,56.244904030808,157.65566843081,83.66142,3.579104,18.846621338,23.5260506216,28,5,15.031,157.98375243081,101.70604,9.4175174,18.846621338,0,3.579104,0,86.8, -28.2, -2.4,0,0,1684,1024,1024,1024,100,0,0,0,94.9,-89.9,0,43,3.764,3.77,3.772,3.768,0,0,11.499,96.08,157.65566843081,101.377956,6,P-GPS,
22400,2023-06-08 18:06:08,52.2064488229003,0.0873572072568108,101.377956,101.4107644,56.244904030808,157.65566843081,83.66142,5.59235,20.1773628504,24.856792134,28,5,15.031,157.98375243081,101.70604,9.4175174,20.1773628504,0,5.59235,0,86.7, -28.6, -2.5,0,0,1684,1024,1024,1024,100,0,0,0,94.9,-90,0,43,3.764,3.77,3.772,3.768,0,0,11.499,96.08,157.65566843081,101.377956,6,P-GPS,
22600,2023-06-08 18:06:08,52.2064487824131,0.0873656311385813,101.377956,101.4107644,56.244904030808,157.65566843081,83.66142,7.381902,22.0607618608,26.740322378,28,5,15.031,157.98375243081,101.70604,9.4175174,22.0607618608,0,7.381902,0,87, -29.1, -3.8,0,0,1676,1024,1024,1024,99,0,0,0,94.9,-90,0,43,3.764,3.77,3.772,3.768,0,0,11.499,96.08,157.65566843081,101.377956,6,P-GPS,
22800,2023-06-08 18:06:09,52.2064488140164,0.0873764280910871,101.377956,101.4107644,56.244904030808,157.65566843081,83.66142,9.171454,24.4741805732,29.1543972584,28,5,15.036,157.98375243081,101.70604,9.4175174,24.4741805732,0,9.171454,0,86.7, -28.9, -3.4,0,0,1024,1024,1024,1024,0,0,0,0,94.9,-90,0,43,3.711,3.723,3.724,3.719,0,0,10.369,96.26,157.65566843081,101.377956,6,P-GPS,
23000,2023-06-08 18:06:09,52.2064489334563,0.087389486235981,101.377956,101.4107644,56.244904030808,157.65566843081,83.66142,10.737312,27.3927830288,32.0743448584,28,5,15.036,157.98375243081,101.70604,10.737312,27.3927830288,0.223694,10.737312,-0.223694,86.7, -21.8, -4,0,0,1024,1024,1024,1024,0,0,0,0,94.9,-90,0,43,3.711,3.723,3.724,3.719,0,0,10.369,96.26,157.65566843081,101.377956,6,P-GPS,
23200,2023-06-08 18:06:09,52.2064491579737,0.0874037772654443,101.377956,101.4107644,56.244904030808,157.65566843081,83.66142,10.513618,30.5869104276,35.27067042,28,5,15.036,157.98375243081,101.70604,10.737312,30.5869104276,0.223694,10.513618,-1.11847,86, 15.9, -4.9,0,0,1429,1024,1024,1024,61,0,0,0,94.9,-90,0,43,3.711,3.723,3.724,3.719,0,0,10.369,96.26,157.65566843081,101.377956,6,P-GPS,
23400,2023-06-08 18:06:09,52.2064494130922,0.0874161069499106,101.377956,101.4107644,56.244904030808,157.65566843081,83.66142,8.276678,33.342848836,38.028872608,28,5,15.036,157.98375243081,101.70604,10.737312,33.342848836,0.223694,8.276678,-0.671082,85.7, 25.8, -3.1,0,0,1542,1024,1024,1024,78,0,0,0,94.9,-89.9,0,43,3.711,3.723,3.724,3.719,0,0,10.369,96.26,157.65566843081,101.377956,6,P-GPS,
23600,2023-06-08 18:06:09,52.2064495308444,0.0874255164040122,101.377956,101.377956,56.277712430808,157.65566843081,83.66142,6.039738,35.446523444,40.133203384,28,5,15.036,157.98375243081,101.70604,10.737312,35.446523444,0,6.039738,0,85.8, 22.8, -2.9,0,0,1024,1024,1024,1024,0,0,0,0,94.9,-90,0,43,3.711,3.723,3.724,3.719,0,0,10.369,96.26,157.65566843081,101.377956,6,P-GPS,
23800,2023-06-08 18:06:10,52.2064494991511,0.0874321442769364,101.377956,101.4107644,56.244904030808,157.65566843081,83.66142,4.026492,36.928478872,41.615158812,28,5,14.907,157.98375243081,101.70604,10.737312,36.928478872,0,4.026492,0,85.5, 23.6, -3.1,0,0,1024,1024,1024,1024,0,0,0,0,94.9,-90,0,43,3.756,3.761,3.762,3.759,0,0,8.961,96.08,157.65566843081,101.377956,6,P-GPS,
24000,2023-06-08 18:06:10,52.206449369962,0.0874360316825432,101.049872,101.0826804,56.244904030808,157.32758443081,83.66142,1.789552,37.797901472,42.485565664,28,5,14.907,157.98375243081,101.70604,10.737312,37.797901472,0,1.789552,0,85.5, 20.7, -4.2,0,0,1024,1024,1024,1024,0,0,0,0,94.9,-89.9,0,43,3.756,3.761,3.762,3.759,0,0,8.961,96.08,157.32758443081,101.049872,6,P-GPS,
24200,2023-06-08 18:06:10,52.206449209825,0.0874371757410449,101.049872,101.0826804,56.244904030808,157.32758443081,83.66142,0.223694,38.053806992,42.748032864,28,5,14.907,157.98375243081,101.70604,10.737312,38.053806992,0,0.223694,0.223694,85.3, 5.8, -5.7,0,0,1060,1024,1024,1024,5,0,0,0,94.9,-90,0,43,3.756,3.761,3.762,3.759,0,0,8.961,96.08,157.32758443081,101.049872,6,P-GPS,
24400,2023-06-08 18:06:10,52.2064491387325,0.0874371896227391,100.721788,100.7545964,56.244904030808,156.99950043081,83.66142,0,38.057087832,42.774279584,28,5,14.907,157.98375243081,101.70604,10.737312,38.057087832,0,0,0.223694,86.2, -1.9, -3,0,0,1234,1024,1024,1024,32,0,0,0,94.9,-90,0,43,3.756,3.761,3.762,3.759,0,0,8.961,96.08,156.99950043081,100.721788,6,P-GPS,
24600,2023-06-08 18:06:10,52.2064490849022,0.087436804164577,100.721788,100.7545964,56.244904030808,156.99950043081,83.66142,0.223694,37.971129824,42.86253418,28,5,14.907,157.98375243081,101.70604,10.737312,38.057087832,0,-0.223694,0,86, -2.7, 0.4,0,0,1168,1024,1024,1024,22,0,0,0,94.9,-89.9,0,43,3.756,3.761,3.762,3.759,0,0,8.961,96.08,156.99950043081,100.721788,6,P-GPS,
24800,2023-06-08 18:06:11,52.20644890211,0.0874363075410247,100.721788,100.7545964,56.244904030808,156.99950043081,83.66142,0,37.8608936,42.99212736,28,5,15.017,157.98375243081,101.70604,10.737312,38.057087832,0,0,0,86.3, -10.5, -1.3,0,0,1073,1024,1024,1024,7,0,0,0,94.9,-89.9,0,43,3.733,3.751,3.749,3.743,0,0,10.503,96.44,156.99950043081,100.721788,6,P-GPS,
25000,2023-06-08 18:06:11,52.2064486418343,0.0874361714500949,100.721788,100.7545964,56.244904030808,156.99950043081,83.66142,0.223694,37.83136604,43.091864896,28,5,15.017,157.98375243081,101.70604,10.737312,38.057087832,-0.223694,0,0,86.3, 0, -4,0,0,1369,1024,1024,1024,52,0,0,0,94.9,-90,0,43,3.733,3.751,3.749,3.743,0,0,10.503,96.44,156.99950043081,100.721788,6,P-GPS,
25200,2023-06-08 18:06:11,52.2064483808047,0.0874357971615942,100.721788,100.7545964,56.244904030808,156.99950043081,83.66142,0.3131716,37.749016956,43.21850532,28,5,15.017,157.98375243081,101.70604,10.737312,38.057087832,-0.223694,-0.223694,0,86.1, -3.4, -2.5,0,0,1475,1024,1024,1024,68,0,0,0,94.9,-90,0,43,3.733,3.751,3.749,3.743,0,0,10.503,96.44,156.99950043081,100.721788,6,P-GPS,
25400,2023-06-08 18:06:11,52.2064480889813,0.0874353480685155,100.721788,100.7545964,56.244904030808,156.99950043081,83.66142,0.223694,37.650591756,43.364830784,28,5,15.017,157.98375243081,101.70604,10.737312,38.057087832,-0.223694,0,0,86.7, -14.6, -2.8,0,0,1562,1024,1024,1024,82,0,0,0,94.9,-90,0,43,3.733,3.751,3.749,3.743,0,0,10.503,96.44,156.99950043081,100.721788,6,P-GPS,
25600,2023-06-08 18:06:11,52.2064477756507,0.0874357607728227,101.049872,101.0826804,56.244904030808,157.32758443081,83.66142,0.9171454,37.745079948,43.511812416,28,5,15.017,157.98375243081,101.70604,10.737312,38.057087832,-0.223694,0.894776,0,87.4, -22.1, -3.4,0,0,1024,1024,1024,1024,0,0,0,0,94.9,-89.9,0,43,3.733,3.751,3.749,3.743,0,0,10.503,96.44,157.32758443081,101.049872,6,P-GPS,
25800,2023-06-08 18:06:12,52.2064474850995,0.0874378027239111,101.049872,101.1154888,56.212095630808,157.32758443081,83.66142,2.0356154,38.20374138,43.980644452,28,5,14.991,157.98375243081,101.70604,10.737312,38.20374138,-0.223694,2.013246,0,86.9, -6.8, -5.5,0,0,1024,1024,1024,1024,0,0,0,0,94.9,-90,0,43,3.741,3.745,3.743,3.739,0,0,7.376,96.44,157.32758443081,101.049872,6,P-GPS,
26000,2023-06-08 18:06:12,52.2064473566643,0.0874402048441537,101.049872,101.1154888,56.212095630808,157.32758443081,83.66142,1.342164,38.74179914,44.519686464,28,5,14.991,157.98375243081,101.70604,10.737312,38.74179914,0,1.342164,-0.223694,85.1, 13.9, -7.7,0,0,1024,1024,1024,1024,0,0,0,0,94.9,-89.9,0,43,3.741,3.745,3.743,3.739,0,0,7.376,96.44,157.32758443081,101.049872,6,P-GPS,
26200,2023-06-08 18:06:12,52.2064474153606,0.0874409708676349,101.049872,101.1154888,56.212095630808,157.32758443081,83.66142,0.223694,38.912730904,44.692258648,28,5,14.991,157.98375243081,101.70604,10.737312,38.912730904,0,0.223694,0,85.5, 2.7, -5.5,0,0,1113,1024,1024,1024,13,0,0,0,94.9,-89.9,0,43,3.741,3.745,3.743,3.739,0,0,7.376,96.44,157.32758443081,101.049872,6,P-GPS,
26400,2023-06-08 18:06:12,52.2064475482291,0.0874410660264392,101.049872,101.0826804,56.244904030808,157.32758443081,83.66142,0,38.932744028,44.745080172,28,5,14.991,157.98375243081,101.70604,10.737312,38.932744028,0,0,0,86.1, -1.2, -3.6,0,0,1610,1024,1024,1024,89,0,0,0,94.9,-90,0,43,3.741,3.745,3.743,3.739,0,0,7.376,96.44,157.32758443081,101.049872,6,P-GPS,
26600,2023-06-08 18:06:12,52.2064476548915,0.0874409596979736,101.049872,101.0826804,56.244904030808,157.32758443081,83.66142,0,38.908137728,44.790683848,28,5,14.991,157.98375243081,101.70604,10.737312,38.932744028,0,0,0.223694,85.9, -8.9, -0.6,0,0,1403,1024,1024,1024,57,0,0,0,94.9,-89.9,0,43,3.741,3.745,3.743,3.739,0,0,7.376,96.44,157.32758443081,101.049872,6,P-GPS,
26800,2023-06-08 18:06:13,52.2064476414243,0.0874413999979146,101.049872,101.0826804,56.244904030808,157.32758443081,83.66142,0.894776,39.006562928,44.889437132,28,5,14.994,157.98375243081,101.70604,10.737312,39.006562928,0,0.894776,0.223694,86.8, -25, -1.2,0,0,1024,1024,1024,1024,0,0,0,0,94.9,-90,0,43,3.742,3.752,3.751,3.745,0,0,8.05,96.62,157.32758443081,101.049872,6,P-GPS,
27000,2023-06-08 18:06:13,52.2064475773909,0.0874435707985254,101.049872,101.0826804,56.244904030808,157.32758443081,83.66142,2.013246,39.492455332,45.375329536,28,5,14.994,157.98375243081,101.70604,10.737312,39.492455332,0,2.013246,0,86.8, 5.4, -4.3,0,0,1024,1024,1024,1024,0,0,0,0,94.9,-90,0,43,3.742,3.752,3.751,3.745,0,0,8.05,96.62,157.32758443081,101.049872,6,P-GPS,
27200,2023-06-08 18:06:13,52.2064475673462,0.0874453941234143,101.049872,101.0826804,56.244904030808,157.32758443081,83.66142,0.894776,39.89993566,45.783137948,28,5,14.994,157.98375243081,101.70604,10.737312,39.89993566,0,0.894776,0,85.1, 11, -7.1,0,0,1024,1024,1024,1024,0,0,0,0,94.9,-89.9,0,43,3.742,3.752,3.751,3.745,0,0,8.05,96.62,157.32758443081,101.049872,6,P-GPS,
27400,2023-06-08 18:06:13,52.2064476587723,0.0874457901780762,101.049872,101.0826804,56.244904030808,157.32758443081,83.66142,0,39.987862172,45.87762614,28,5,14.994,157.98375243081,101.70604,10.737312,39.987862172,0,0,0,85.9, 1.7, -5.2,0,0,1024,1024,1024,1024,0,0,0,0,94.9,-89.9,0,43,3.742,3.752,3.751,3.745,0,0,8.05,96.62,157.32758443081,101.049872,6,P-GPS,
27600,2023-06-08 18:06:13,52.2064477844018,0.0874455599768084,101.049872,101.0826804,56.244904030808,157.32758443081,83.66142,0.223694,39.935368732,45.94652378,28,5,14.994,157.98375243081,101.70604,10.737312,39.987862172,0,-0.223694,0,86.3, -1.9, -4.5,0,0,1024,1024,1024,1024,0,0,0,0,94.9,-89.9,0,43,3.742,3.752,3.751,3.745,0,0,8.05,96.62,157.32758443081,101.049872,6,P-GPS,
27800,2023-06-08 18:06:14,52.206447947533,0.0874451400730325,101.049872,101.0826804,56.244904030808,157.32758443081,83.66142,0.223694,39.840552456,46.057744256,28,5,15.007,157.98375243081,101.70604,10.737312,39.987862172,0,-0.223694,0,86.2, -3.2, -4.1,0,0,1024,1024,1024,1024,0,0,0,0,94.9,-89.9,0,42,3.747,3.754,3.754,3.749,0,0,7.909,96.62,157.32758443081,101.049872,6,P-GPS,
28000,2023-06-08 18:06:14,52.2064481751088,0.0874446610637145,101.049872,101.0826804,56.244904030808,157.32758443081,83.66142,0.223694,39.731956652,46.193242948,28,5,15.007,157.98375243081,101.70604,10.737312,39.987862172,0,-0.223694,0,86.2, -3.9, -2.7,0,0,1024,1024,1024,1024,0,0,0,0,94.9,-89.9,0,42,3.747,3.754,3.754,3.749,0,0,7.909,96.62,157.32758443081,101.049872,6,P-GPS,
28200,2023-06-08 18:06:14,52.2064483655085,0.0874442219240763,101.049872,101.0826804,56.244904030808,157.32758443081,83.66142,0.223694,39.6325472,46.313649776,28,5,15.007,157.98375243081,101.70604,10.737312,39.987862172,0,-0.223694,0.223694,86.3, -5.2, -1.7,0,0,1024,1024,1024,1024,0,0,0,0,94.9,-90,0,42,3.747,3.754,3.754,3.749,0,0,7.909,96.62,157.32758443081,101.049872,6,P-GPS,
28400,2023-06-08 18:06:14,52.206448484867,0.0874438503336289,101.049872,101.0826804,56.244904030808,157.32758443081,83.66142,0,39.54888578,46.407153716,28,5,15.007,157.98375243081,101.70604,10.737312,39.987862172,0,0,0.223694,86.4, -4.7, -2.3,0,0,1024,1024,1024,1024,0,0,0,0,94.9,-90,0,42,3.747,3.754,3.754,3.749,0,0,7.909,96.62,157.32758443081,101.049872,6,P-GPS,
28600,2023-06-08 18:06:14,52.2064485567049,0.0874435610268192,101.049872,101.0826804,56.244904030808,157.32758443081,83.66142,0,39.483925148,46.477035608,28,5,15.007,157.98375243081,101.70604,10.737312,39.987862172,0,0,0.223694,86.4, -5.3, -1.9,0,0,1024,1024,1024,1024,0,0,0,0,94.9,-90,0,42,3.747,3.754,3.754,3.749,0,0,7.909,96.62,157.32758443081,101.049872,6,P-GPS,
28800,2023-06-08 18:06:15,52.2064485928315,0.087443378328066,101.049872,101.0826804,56.244904030808,157.32758443081,83.66142,0,39.442914648,46.520014612,28,5,15.007,157.98375243081,101.70604,10.737312,39.987862172,0,0,0,86.3, -4.8, -2.8,0,0,1024,1024,1024,1024,0,0,0,0,94.9,-90,0,42,3.741,3.75,3.75,3.744,0,0,8.069,96.8,157.32758443081,101.049872,6,P-GPS,
29000,2023-06-08 18:06:15,52.2064486445243,0.0874433118553006,101.049872,101.0826804,56.244904030808,157.32758443081,83.66142,0,39.427822784,46.543964744,28,5,15.007,157.98375243081,101.70604,10.737312,39.987862172,0,0,0,86.3, -4.9, -2.3,0,0,1024,1024,1024,1024,0,0,0,0,94.9,-89.9,0,42,3.741,3.75,3.75,3.744,0,0,8.069,96.8,157.32758443081,101.049872,6,P-GPS,
29200,2023-06-08 18:06:15,52.2064486962342,0.0874433592879175,101.049872,101.0826804,56.244904030808,157.32758443081,83.66142,0,39.438321472,46.565618288,28,5,15.007,157.98375243081,101.70604,10.737312,39.987862172,0,0,0,86.2, -4.3, -2.3,0,0,1024,1024,1024,1024,0,0,0,0,94.9,-90,0,42,3.741,3.75,3.75,3.744,0,0,8.069,96.8,157.32758443081,101.049872,6,P-GPS,
29400,2023-06-08 18:06:15,52.2064487461365,0.087443476827983,101.049872,101.0826804,56.244904030808,157.32758443081,83.66142,0,39.464240108,46.59777052,28,5,15.007,157.98375243081,101.70604,10.737312,39.987862172,0,0,0,86.2, -4.1, -1.6,0,0,1024,1024,1024,1024,0,0,0,0,94.9,-90,0,42,3.741,3.75,3.75,3.744,0,0,8.069,96.8,157.32758443081,101.049872,6,P-GPS,
29600,2023-06-08 18:06:15,52.2064487432708,0.0874436561576643,101.049872,101.0826804,56.244904030808,157.32758443081,83.66142,0,39.504266356,46.637796768,28,5,15.007,157.98375243081,101.70604,10.737312,39.987862172,0,0,0,85.9, -3.2, -3.1,0,0,1024,1024,1024,1024,0,0,0,0,94.9,-90,0,42,3.741,3.75,3.75,3.744,0,0,8.069,96.8,157.32758443081,101.049872,6,P-GPS,
29800,2023-06-08 18:06:16,52.2064487371369,0.0874437874396285,101.049872,101.0826804,56.244904030808,157.32758443081,83.66142,0,39.533793916,46.667324328,28,5,14.991,157.98375243081,101.70604,10.737312,39.987862172,0,0,0,86, -3.4, -3,0,0,1024,1024,1024,1024,0,0,0,0,94.9,-90,0,42,3.743,3.751,3.753,3.75,0,0,7.454,96.8,157.32758443081,101.049872,6,P-GPS,
30000,2023-06-08 18:06:16,52.2064487717173,0.0874438741408044,101.049872,101.0826804,56.244904030808,157.32758443081,83.66142,0,39.553150872,46.690290208,28,5,14.991,157.98375243081,101.70604,10.737312,39.987862172,0,0,0,86.1, -4.5, -1.9,0,0,1024,1024,1024,1024,0,0,0,0,94.9,-89.9,0,42,3.743,3.751,3.753,3.75,0,0,7.454,96.8,157.32758443081,101.049872,6,P-GPS,
30200,2023-06-08 18:06:16,52.2064487531699,0.0874439789175398,101.049872,101.0826804,56.244904030808,157.32758443081,83.66142,0,39.576444836,46.714568424,28,5,14.991,157.98375243081,101.70604,10.737312,39.987862172,0,0,0,86.4, -4.2, -2.4,0,0,1024,1024,1024,1024,0,0,0,0,94.9,-90,0,42,3.743,3.751,3.753,3.75,0,0,7.454,96.8,157.32758443081,101.049872,6,P-GPS,
30400,2023-06-08 18:06:16,52.2064486716257,0.0874441358380007,100.721788,100.7545964,56.244904030808,156.99950043081,83.66142,0,39.611877908,46.760828268,28,5,14.991,157.98375243081,101.70604,10.737312,39.987862172,0,0,0,86.3, -3.6, -3.3,0,0,1024,1024,1024,1024,0,0,0,0,94.9,-90,0,42,3.743,3.751,3.753,3.75,0,0,7.454,96.8,156.99950043081,100.721788,6,P-GPS,
30600,2023-06-08 18:06:16,52.2064485717955,0.0874442789187061,100.721788,100.7545964,56.244904030808,156.99950043081,83.66142,0,39.644358224,46.809056616,28,5,14.991,157.98375243081,101.70604,10.737312,39.987862172,0,0,0,86.3, -3.5, -4,0,0,1024,1024,1024,1024,0,0,0,0,94.9,-90,0,42,3.743,3.751,3.753,3.75,0,0,7.454,96.8,156.99950043081,100.721788,6,P-GPS,
30800,2023-06-08 18:06:17,52.2064484754091,0.0874444001493731,100.721788,100.7545964,56.244904030808,156.99950043081,83.66142,0,39.67191728,46.85367604,28,5,14.99,157.98375243081,101.70604,10.737312,39.987862172,0,0,0,86.1, -3.3, -3.8,0,0,1024,1024,1024,1024,0,0,0,0,94.9,-90,0,42,3.746,3.753,3.753,3.749,0,0,7.846,96.8,156.99950043081,100.721788,6,P-GPS,
31000,2023-06-08 18:06:17,52.2064483995448,0.0874444811049534,100.721788,100.7545964,56.244904030808,156.99950043081,83.66142,0,39.690289984,46.88648444,28,5,14.99,157.98375243081,101.70604,10.737312,39.987862172,0,0,0,86.2, -3.5, -4,0,0,1024,1024,1024,1024,0,0,0,0,94.9,-90,0,42,3.746,3.753,3.753,3.749,0,0,7.846,96.8,156.99950043081,100.721788,6,P-GPS,
31200,2023-06-08 18:06:17,52.2064483325515,0.0874445296139957,100.721788,100.7545964,56.244904030808,156.99950043081,83.66142,0,39.701772924,46.913387328,28,5,14.99,157.98375243081,101.70604,10.737312,39.987862172,0,0,0,86, -4, -4.1,0,0,1024,1024,1024,1024,0,0,0,0,94.9,-89.9,0,42,3.746,3.753,3.753,3.749,0,0,7.846,96.8,156.99950043081,100.721788,6,P-GPS,
31400,2023-06-08 18:06:17,52.2064482850523,0.0874445294462411,100.721788,100.7545964,56.244904030808,156.99950043081,83.66142,0,39.701772924,46.93077578,28,5,14.99,157.98375243081,101.70604,10.737312,39.987862172,0,0,0,86.3, -4.8, -3.7,0,0,1024,1024,1024,1024,0,0,0,0,94.9,-90,0,42,3.746,3.753,3.753,3.749,0,0,7.846,96.8,156.99950043081,100.721788,6,P-GPS,
31600,2023-06-08 18:06:17,52.2064482250111,0.0874445700987756,100.721788,100.7545964,56.244904030808,156.99950043081,83.66142,0,39.71128736,46.954397828,28,5,14.99,157.98375243081,101.70604,10.737312,39.987862172,0,0,0,86.3, -4.3, -3.5,0,0,1024,1024,1024,1024,0,0,0,0,94.9,-90,0,42,3.746,3.753,3.753,3.749,0,0,7.846,96.8,156.99950043081,100.721788,6,P-GPS,
31800,2023-06-08 18:06:18,52.2064481740679,0.0874446531792477,100.721788,100.7545964,56.244904030808,156.99950043081,83.66142,0,39.730316232,46.980644548,28,5,14.998,157.98375243081,101.70604,10.737312,39.987862172,0,0,0,86.3, -4.3, -3.2,0,0,1024,1024,1024,1024,0,0,0,0,94.9,-90,0,42,3.746,3.753,3.755,3.749,0,0,7.332,96.8,156.99950043081,100.721788,6,P-GPS,
32000,2023-06-08 18:06:18,52.2064480950895,0.0874447864882469,100.721788,100.7545964,56.244904030808,156.99950043081,83.66142,0,39.76049996,47.022311216,28,5,14.998,157.98375243081,101.70604,10.737312,39.987862172,0,0,0,86.6, -3.8, -3.5,0,0,1024,1024,1024,1024,0,0,0,0,94.9,-90,0,42,3.746,3.753,3.755,3.749,0,0,7.332,96.8,156.99950043081,100.721788,6,P-GPS,
