time(millisecond),datetime(utc),latitude,longitude,height_above_takeoff(feet),height_above_ground_at_drone_location(feet),ground_elevation_at_drone_location(feet),altitude_above_seaLevel(feet),height_sonar(feet),speed(mph),distance(feet),mileage(feet),satellites,gpslevel,voltage(v),max_altitude(feet),max_ascent(feet),max_speed(mph),max_distance(feet), xSpeed(mph), ySpeed(mph), zSpeed(mph), compass_heading(degrees), pitch(degrees), roll(degrees),isPhoto,isVideo,rc_elevator,rc_aileron,rc_throttle,rc_rudder,rc_elevator(percent),rc_aileron(percent),rc_throttle(percent),rc_rudder(percent),gimbal_heading(degrees),gimbal_pitch(degrees),gimbal_roll(degrees),battery_percent,voltageCell1,voltageCell2,voltageCell3,voltageCell4,voltageCell5,voltageCell6,current(A),battery_temperature(f),altitude(feet),ascent(feet),flycStateRaw,flycState,message
0,2023-06-19 17:52:21,0,0,0,,,53.688311429312,0.328084,0,0,0,7,0,0,53.688311429312,0,0,0,0,0,0,273.1, 4.5, 0.9,0,0,1024,1024,1024,1024,0,0,0,0,273,0,0,96,4.307,4.303,4.302,4.3,0,0,0,75.02,53.688311429312,0,41,Motors_Started,"Aircraft not in flight. Vision systems and obstacle avoidance disabled (Code: 180059)"
200,2023-06-19 17:52:21,0,0,0,,,53.688311429312,0.328084,0,0,0,7,0,0,53.688311429312,0,0,0,0,0,0,273.1, 4.5, 0.9,0,0,1024,1024,1024,1024,0,0,0,0,273,0,0,96,4.307,4.303,4.302,4.3,0,0,0,75.02,53.688311429312,0,41,Motors_Started,
400,2023-06-19 17:52:21,0,0,0,,,53.688311429312,0.328084,0,0,0,7,0,0,53.688311429312,0,0,0,0,0,0,273.1, 4.4, 0.9,0,0,1024,1024,1024,1024,0,0,0,0,273,0,0,96,4.307,4.303,4.302,4.3,0,0,0,75.02,53.688311429312,0,41,Motors_Started,"Setting new Return-To-Home altitude to 26m (85 ft). Data Recorder File Index is 42. Setting new Maximum Flight Altitude to 30m (98 ft)"
600,2023-06-19 17:52:21,0,0,0,,,53.688311429312,0,0,0,0,7,0,0,53.688311429312,0,0,0,0,0,0,273.1, 4.4, 0.9,0,0,1024,1024,1024,1024,0,0,0,0,273,0,0,96,4.307,4.303,4.302,4.3,0,0,0,75.02,53.688311429312,0,41,Motors_Started,"No GPS. Fly with caution GPS signal weak. Hovering unstable. Fly with caution (Code: 30002)"
800,2023-06-19 17:52:22,0,0,0,,,53.688311429312,0,0,0,0,7,0,0,53.688311429312,0,0,0,0,0,0,273.1, 4.4, 0.9,0,0,1024,1024,1024,1024,0,0,0,0,273,0,0,96,4.307,4.303,4.302,4.3,0,0,0,75.02,53.688311429312,0,41,Motors_Started,
1000,2023-06-19 17:52:22,0,0,0,,,53.688311429312,0,0,0,0,7,0,17.213,53.688311429312,0,0,0,0,0,0,273.1, 4.4, 0.9,0,0,1024,1024,1024,1024,0,0,0,0,273,0,0,96,4.307,4.303,4.302,4.3,0,0,1.119,75.02,53.688311429312,0,41,Motors_Started,
1200,2023-06-19 17:52:22,0,0,0,,,53.688311429312,0,0,0,0,7,0,17.213,53.688311429312,0,0,0,0,0,0,273.1, 4.4, 0.9,0,0,1024,1024,1024,1024,0,0,0,0,273,0,0,96,4.307,4.303,4.302,4.3,0,0,1.119,75.02,53.688311429312,0,41,Motors_Started,
1400,2023-06-19 17:52:22,0,0,0,,,53.688311429312,0,0,0,0,7,0,17.213,53.688311429312,0,0,0,0,0,0,273.1, 4.4, 0.9,0,0,1024,1024,1024,1024,0,0,0,0,273,0,0,96,4.307,4.303,4.302,4.3,0,0,1.119,75.02,53.688311429312,0,41,Motors_Started,
1600,2023-06-19 17:52:22,0,0,0,,,53.688311429312,0,0,0,0,7,0,17.213,53.688311429312,0,0,0,0,0,0,273.1, 4.4, 0.9,0,0,1024,1024,1026,1024,0,0,0,0,273,0,0,96,4.307,4.303,4.302,4.3,0,0,1.119,75.02,53.688311429312,0,11,AutoTakeoff,
1800,2023-06-19 17:52:23,0,0,0,,,53.688311429312,0,0,0,0,7,0,17.213,53.688311429312,0,0,0,0,0,0,273.1, 4.2, 1,0,0,1024,1024,1024,1024,0,0,0,0,273,0,0,96,4.307,4.303,4.302,4.3,0,0,1.119,75.02,53.688311429312,0,11,AutoTakeoff,
2000,2023-06-19 17:52:23,0,0,0,,,53.688311429312,0,0,0,0,7,0,17.015,53.688311429312,0,0,0,0,0,0,273.5, 1.6, 1.2,0,0,1024,1024,1024,1024,0,0,0,0,273,0,0,96,4.252,4.251,4.25,4.247,0,0,3.838,75.02,53.688311429312,0,11,AutoTakeoff,
2200,2023-06-19 17:52:23,0,0,0,,,53.688311429312,0,0,0,0,7,0,17.015,53.688311429312,0,0,0,0,0,-0.671082,274.1, -1.9, 0,0,0,1024,1024,1265,1024,0,0,37,0,273,0,0,96,4.252,4.251,4.25,4.247,0,0,3.838,75.02,53.688311429312,0,11,AutoTakeoff,
2400,2023-06-19 17:52:23,0,0,0.328084,,,54.016395429312,0.328084,0,0,0,7,0,17.015,54.016395429312,0.328084,0,0,0,0,-1.11847,274.1, 1, -0.8,0,0,1024,1024,1684,1024,0,0,100,0,273.1,0,0,96,4.252,4.251,4.25,4.247,0,0,3.838,75.02,54.016395429312,0.328084,11,AutoTakeoff,
2600,2023-06-19 17:52:23,0,0,0.656168,,,54.344479429312,0.656168,0,0,0,7,0,17.015,54.344479429312,0.656168,0,0,0,0,-1.342164,274.1, 1.1, -0.7,0,0,1024,1024,1684,1024,0,0,100,0,273.2,0,0,96,4.252,4.251,4.25,4.247,0,0,3.838,75.02,54.344479429312,0.656168,11,AutoTakeoff,
2800,2023-06-19 17:52:24,0,0,1.312336,,,55.000647429312,1.312336,0,0,0,7,0,17.015,55.000647429312,1.312336,0,0,0,0,-2.684328,274.1, 0.2, -1.4,0,0,1024,1024,1684,1024,0,0,100,0,273.2,0,0,96,4.252,4.251,4.25,4.247,0,0,3.838,75.02,55.000647429312,1.312336,11,AutoTakeoff,
3000,2023-06-19 17:52:24,0,0,2.296588,,,55.984899429312,2.296588,0,0,0,7,0,17.067,55.984899429312,2.296588,0,0,0,0,-4.47388,274.3, -1.3, -2.8,0,0,1024,1024,1684,1024,0,0,100,0,273.2,0,0,96,4.248,4.243,4.239,4.231,0,0,3.436,75.02,55.984899429312,2.296588,11,AutoTakeoff,
3200,2023-06-19 17:52:24,0,0,3.937008,,,57.625319429312,3.937008,0,0,0,7,0,17.067,57.625319429312,3.937008,0,0,0,0,-6.263432,274.2, -1.5, -3.6,0,0,1024,1024,1684,1024,0,0,100,0,273.3,0,0,96,4.248,4.243,4.239,4.231,0,0,3.436,75.02,57.625319429312,3.937008,11,AutoTakeoff,
3400,2023-06-19 17:52:24,0,0,6.56168,,,60.249991429312,6.233596,0,0,0,7,0,17.067,60.249991429312,6.56168,0,0,0,0,-8.276678,274, -1.6, -2.1,0,0,1024,1024,1684,1024,0,0,100,0,273.3,0,0,96,4.248,4.243,4.239,4.231,0,0,3.436,75.02,60.249991429312,6.56168,6,P-GPS,
3600,2023-06-19 17:52:24,0,0,10.498688,,,64.186999429312,9.186352,0,0,0,7,0,17.067,64.186999429312,10.498688,0,0,0,0,-10.513618,273.6, -1.2, -1.8,0,0,1024,1024,1040,1024,0,0,2,0,273.3,0,0,96,4.248,4.243,4.239,4.231,0,0,3.436,75.02,64.186999429312,10.498688,6,P-GPS,
3800,2023-06-19 17:52:25,0,0,15.419948,,,69.108259429312,12.795276,0,0,0,7,0,17.067,69.108259429312,15.419948,0,0,0,0,-12.526864,273.5, 0, -3,0,0,1024,1024,1024,1024,0,0,0,0,273.3,0,0,96,4.248,4.243,4.239,4.231,0,0,3.436,75.02,69.108259429312,15.419948,6,P-GPS,
4000,2023-06-19 17:52:25,0,0,20.013124,,,73.701435429312,16.732284,0,0,0,7,0,16.7,73.701435429312,20.013124,0,0,0,0,-12.526864,273.1, 0.3, -4.1,0,0,1084,1024,1024,1024,9,0,0,0,273.3,0,0,96,4.15,4.149,4.145,4.14,0,0,8.416,74.84,73.701435429312,20.013124,6,P-GPS,
4200,2023-06-19 17:52:25,0,0,23.622048,,,77.310359429312,20.013124,0,0,0,7,0,16.7,77.310359429312,23.622048,0,0,0,0,-10.961006,272.7, 1.1, -2.5,0,0,1060,1024,1141,1024,5,0,18,0,273.3,0,0,96,4.15,4.149,4.145,4.14,0,0,8.416,74.84,77.310359429312,23.622048,6,P-GPS,
4400,2023-06-19 17:52:25,0,0,25.918636,,,79.606947429312,22.96588,0.223694,0,0,7,0,16.7,79.606947429312,25.918636,0.223694,0,0,-0.223694,-8.94776,273, 0.7, -1.4,0,0,1024,1024,1684,1024,0,0,100,0,273.3,0,0,96,4.15,4.149,4.145,4.14,0,0,8.416,74.84,79.606947429312,25.918636,6,P-GPS,
4600,2023-06-19 17:52:25,0,0,28.215224,,,81.903535429312,25.590552,0.3131716,0,0,7,0,16.7,81.903535429312,28.215224,0.3131716,0,0.223694,-0.223694,-8.276678,273.5, 1.7, -0.6,0,0,1024,1024,1684,1024,0,0,100,0,273.3,0,0,96,4.15,4.149,4.145,4.14,0,0,8.416,74.84,81.903535429312,28.215224,6,P-GPS,
4800,2023-06-19 17:52:26,0,0,31.16798,,,84.856291429312,28.543308,0.223694,0,0,7,0,16.7,84.856291429312,31.16798,0.3131716,0,0.223694,0,-9.842536,273, 2.9, -4.5,0,0,1024,1024,1684,1024,0,0,100,0,273.3,0,0,96,4.15,4.149,4.145,4.14,0,0,8.416,74.84,84.856291429312,31.16798,6,P-GPS,
5000,2023-06-19 17:52:26,0,0,34.776904,,,88.465215429312,31.824148,0,0,0,7,0,16.366,88.465215429312,34.776904,0.3131716,0,0,0,-11.855782,272.8, 2.2, -3.8,0,0,1024,1024,1684,1024,0,0,100,0,273.3,0,0,96,4.165,4.175,4.18,4.18,0,0,14.893,74.84,88.465215429312,34.776904,6,P-GPS,
5200,2023-06-19 17:52:26,0,0,38.713912,,,92.402223429312,35.433072,0,0,0,7,0,16.366,92.402223429312,38.713912,0.3131716,0,0,0,-12.974252,272.6, 1.4, -1.7,0,0,1024,1024,1684,1024,0,0,100,0,273.3,0,0,96,4.165,4.175,4.18,4.18,0,0,14.893,74.84,92.402223429312,38.713912,6,P-GPS,
5400,2023-06-19 17:52:26,0,0,42.65092,,,96.339231429312,39.37008,0,0,0,7,0,16.366,96.339231429312,42.65092,0.3131716,0,0,0,-13.42164,273.2, -0.5, -1.8,0,0,1024,1024,1684,1024,0,0,100,0,273.3,0,0,96,4.165,4.175,4.18,4.18,0,0,14.893,74.84,96.339231429312,42.65092,6,P-GPS,
5600,2023-06-19 17:52:27,0,0,46.587928,,,100.27623942931,43.635172,0,0,0,7,0,16.366,100.27623942931,46.587928,0.3131716,0,0,0,-13.42164,273.1, -0.4, -1.3,0,0,1024,1024,1684,1024,0,0,100,0,273.3,0,0,96,4.165,4.175,4.18,4.18,0,0,14.893,74.84,100.27623942931,46.587928,6,P-GPS,
5800,2023-06-19 17:52:27,0,0,50.524936,,,104.21324742931,45.275592,0,0,0,7,0,16.366,104.21324742931,50.524936,0.3131716,0,0,0,-13.42164,273.5, -0.2, -1.9,0,0,1024,1024,1684,1024,0,0,100,0,273.3,0,0,96,4.165,4.175,4.18,4.18,0,0,14.893,74.84,104.21324742931,50.524936,6,P-GPS,
6000,2023-06-19 17:52:27,0,0,54.461944,,,108.15025542931,49.2126,0,0,0,7,0,16.484,108.15025542931,54.461944,0.3131716,0,0,0,-13.197946,273.2, 0.8, -3.1,0,0,1024,1024,1684,1024,0,0,100,0,273.3,0,0,95,4.085,4.094,4.093,4.093,0,0,9.807,74.84,108.15025542931,54.461944,6,P-GPS,
6200,2023-06-19 17:52:27,0,0,58.070868,,,111.75917942931,53.149608,0,0,0,7,0,16.484,111.75917942931,58.070868,0.3131716,0,0,0,-13.42164,273, 0.2, -4,0,0,1024,1024,1684,1024,0,0,100,0,273.3,0,0,95,4.085,4.094,4.093,4.093,0,0,9.807,74.84,111.75917942931,58.070868,6,P-GPS,
6400,2023-06-19 17:52:27,0,0,61.679792,,,115.36810342931,57.086616,0,0,0,7,0,16.484,115.36810342931,61.679792,0.3131716,0,0,0,-13.42164,273.1, -0.4, -5,0,0,1024,1024,1684,1024,0,0,100,0,273.3,0,0,95,4.085,4.094,4.093,4.093,0,0,9.807,74.84,115.36810342931,61.679792,6,P-GPS,
6600,2023-06-19 17:52:27,0,0,65.6168,,,119.30511142931,61.023624,0,0,0,7,0,16.484,119.30511142931,65.6168,0.3131716,0,0,0,-13.197946,272.9, -0.8, -4.9,0,0,1024,1024,1684,1024,0,0,100,0,273.3,0,0,95,4.085,4.094,4.093,4.093,0,0,9.807,74.84,119.30511142931,65.6168,6,P-GPS,
6800,2023-06-19 17:52:28,0,0,69.553808,,,123.24211942931,64.960632,0,0,0,7,0,16.484,123.24211942931,69.553808,0.3131716,0,0,0,-13.197946,273.2, -0.3, -3.9,0,0,1024,1024,1684,1024,0,0,100,0,273.3,0,0,95,4.085,4.094,4.093,4.093,0,0,9.807,74.84,123.24211942931,69.553808,6,P-GPS,
7000,2023-06-19 17:52:28,0,0,73.490816,,,127.17912742931,68.569556,0,0,0,7,0,16.58,127.17912742931,73.490816,0.3131716,0,0,0,-13.42164,273.1, 0.6, -4.4,0,0,1024,1024,1684,1024,0,0,100,0,273.3,0,0,95,4.137,4.138,4.137,4.132,0,0,12.441,75.2,127.17912742931,73.490816,6,P-GPS,
7200,2023-06-19 17:52:28,0,0,77.09974,,,130.78805142931,72.506564,0,0,0,7,0,16.58,130.78805142931,77.09974,0.3131716,0,0,0,-13.197946,272.8, 0.8, -6,0,0,1024,1024,1684,1024,0,0,100,0,273.3,0,0,95,4.137,4.138,4.137,4.132,0,0,12.441,75.2,130.78805142931,77.09974,6,P-GPS,
7400,2023-06-19 17:52:28,0,0,80.38058,,,134.06889142931,75.787404,0,0,0,7,0,16.58,134.06889142931,80.38058,0.3131716,0,0,0,-11.855782,272.9, 0.2, -6.8,0,0,1024,1024,1684,1024,0,0,100,0,273.3,0,0,95,4.137,4.138,4.137,4.132,0,0,12.441,75.2,134.06889142931,80.38058,6,P-GPS,
7600,2023-06-19 17:52:28,0,0,82.677168,,,136.36547942931,78.412076,0,0,0,7,0,16.58,136.36547942931,82.677168,0.3131716,0,0,0,-10.06623,272.7, 0.3, -6.8,0,0,1024,1024,1684,1024,0,0,100,0,273.3,0,0,95,4.137,4.138,4.137,4.132,0,0,12.441,75.2,136.36547942931,82.677168,6,P-GPS,
7800,2023-06-19 17:52:29,0,0,84.645672,,,138.33398342931,80.708664,0,0,0,7,0,16.58,138.33398342931,84.645672,0.3131716,0,0,0,-8.724066,272.8, 0.5, -6.9,0,0,1024,1024,1684,1024,0,0,100,0,273.3,0,0,95,4.137,4.138,4.137,4.132,0,0,12.441,75.2,138.33398342931,84.645672,6,P-GPS,
8000,2023-06-19 17:52:29,0,0,86.286092,,,139.97440342931,83.005252,0,0,0,7,0,16.504,139.97440342931,86.286092,0.3131716,0,0,0,-7.381902,272.8, 0, -7.3,0,0,1024,1024,1684,1024,0,0,100,0,273.3,0,0,95,4.122,4.124,4.127,4.125,0,0,11.718,75.2,139.97440342931,86.286092,6,P-GPS,
8200,2023-06-19 17:52:29,0,0,87.926512,,,141.61482342931,83.66142,0,0,0,8,0,16.504,141.61482342931,87.926512,0.3131716,0,0,0,-6.487126,272.8, -0.7, -6.9,0,0,1024,1024,1684,1024,0,0,100,0,273.3,0,0,95,4.122,4.124,4.127,4.125,0,0,11.718,75.2,141.61482342931,87.926512,6,P-GPS,
8400,2023-06-19 17:52:29,0,0,88.910764,,,142.59907542931,83.66142,0,0,0,8,0,16.504,142.59907542931,88.910764,0.3131716,0,0,0,-5.59235,272.9, -1.3, -5.9,0,0,1024,1024,1684,1024,0,0,100,0,273.3,0,0,95,4.122,4.124,4.127,4.125,0,0,11.718,75.2,142.59907542931,88.910764,6,P-GPS,
8600,2023-06-19 17:52:29,0,0,90.2231,,,143.91141142931,83.66142,0,0,0,8,0,16.504,143.91141142931,90.2231,0.3131716,0,0,0,-4.921268,273.2, -1.8, -6,0,0,1024,1024,1684,1024,0,0,100,0,273.3,0,0,95,4.122,4.124,4.127,4.125,0,0,11.718,75.2,143.91141142931,90.2231,6,P-GPS,
8800,2023-06-19 17:52:30,52.206383068331,0.0866989769422252,91.535436,91.535436,53.688311429312,145.22374742931,83.66142,0,0,0,8,0,16.504,145.22374742931,91.535436,0.3131716,0,0,0,-4.250186,273, -1.4, -6.9,0,0,1024,1024,1684,1024,0,0,100,0,273.3,0,0,95,4.122,4.124,4.127,4.125,0,0,11.718,75.2,145.22374742931,91.535436,6,P-GPS,"No GPS. Fly with caution GPS signal weak. Hovering unstable. Fly with caution (Code: 30002)"
9000,2023-06-19 17:52:30,52.2063828927174,0.0866988068995813,92.519688,92.519688,53.688311429312,146.20799942931,83.66142,0,0.074503283224,0.074503283224,8,0,16.789,146.20799942931,92.519688,0.3131716,0.074503283224,0,0,-3.802798,272.7, -0.6, -7.2,0,0,1024,1024,1684,1024,0,0,100,0,273.3,0,0,95,4.196,4.191,4.193,4.191,0,0,7.921,75.56,146.20799942931,92.519688,6,P-GPS,
9200,2023-06-19 17:52:30,52.2063827003626,0.0866985989370845,93.50394,93.50394,53.688311429312,147.19225142931,83.66142,0,0.158641081192,0.158689637624,8,0,16.789,147.19225142931,93.50394,0.3131716,0.158641081192,0,0,-3.131716,272.7, 0, -7.6,0,0,1024,1024,1684,1024,0,0,100,0,273.3,0,0,95,4.196,4.191,4.193,4.191,0,0,7.921,75.56,147.19225142931,93.50394,6,P-GPS,
9400,2023-06-19 17:52:30,52.2063824643141,0.0866984286133222,94.160108,94.160108,53.688311429312,147.84841942931,83.66142,0,0.252182094684,0.25285597922,8,0,16.789,147.84841942931,94.160108,0.3131716,0.252182094684,0,0,-2.684328,272.7, -0.1, -7.4,0,0,1024,1024,1684,1024,0,0,100,0,273.3,0,0,95,4.196,4.191,4.193,4.191,0,0,7.921,75.56,147.84841942931,94.160108,6,P-GPS,"Max altitude reached (Code: 20000001). GPS signal weak. Hovering unstable. Fly with caution (Code: 30002)"
9600,2023-06-19 17:52:30,52.2063822098694,0.086698356586571,94.816276,94.816276,53.688311429312,148.50458742931,83.66142,0,0.34254594272,0.34707678276,8,2,16.789,148.50458742931,94.816276,0.3131716,0.34254594272,0,0,-2.23694,272.8, -0.6, -7.6,0,0,1024,1024,1684,1024,0,0,100,0,273.3,0,0,95,4.196,4.191,4.193,4.191,0,0,7.921,75.56,148.50458742931,94.816276,6,P-GPS,
9800,2023-06-19 17:52:31,52.206381929681,0.0866983781381051,95.800528,95.800528,53.688311429312,149.48883942931,83.66142,0.223694,0.43647639192,0.44941602488,8,3,16.789,149.48883942931,95.800528,0.3131716,0.43647639192,-0.223694,0,-1.789552,272.6, -0.5, -7.6,0,0,1024,1024,996,1024,0,0,-4,0,273.3,0,0,95,4.196,4.191,4.193,4.191,0,0,7.921,75.56,149.48883942931,95.800528,6,P-GPS,
10000,2023-06-19 17:52:31,52.2063816006269,0.0866984777340053,96.456696,96.456696,53.688311429312,150.14500742931,83.66142,0.223694,0.54700132984,0.57151904716,8,3,16.76,150.14500742931,96.456696,0.3131716,0.54700132984,-0.223694,0,-1.565858,272.7, -0.9, -6.4,0,0,1024,1024,1024,1024,0,0,0,0,273.3,0,0,95,4.197,4.195,4.195,4.188,0,0,7.19,75.74,150.14500742931,96.456696,6,P-GPS,
10200,2023-06-19 17:52:31,52.2063813087358,0.0866986266716936,96.78478,96.78478,53.688311429312,150.47309142931,83.66142,0.223694,0.64674542752,0.68310041556,8,3,16.76,150.47309142931,96.78478,0.3131716,0.64674542752,-0.223694,0,-0.447388,272.7, -0.7, -6.7,0,0,1024,1024,1024,1024,0,0,0,0,273.3,0,0,95,4.197,4.195,4.195,4.188,0,0,7.19,75.74,150.47309142931,96.78478,6,P-GPS,
10400,2023-06-19 17:52:31,52.2063810403912,0.0866988275247572,96.78478,96.78478,53.688311429312,150.47309142931,83.66142,0.223694,0.74064634916,0.7908136736,8,3,16.76,150.47309142931,96.78478,0.3131716,0.74064634916,-0.223694,0,0,272.7, -0.9, -5.2,0,0,1024,1024,1024,1024,0,0,0,0,273.3,0,0,95,4.197,4.195,4.195,4.188,0,0,7.19,75.74,150.47309142931,96.78478,6,P-GPS,"Setting new Maximum Flight Altitude to 120m (394 ft)"
10600,2023-06-19 17:52:31,52.2063808673999,0.0866990089901555,96.78478,96.78478,53.688311429312,150.47309142931,83.66142,0,0.80304136428,0.8658464844,8,3,16.76,150.47309142931,96.78478,0.3131716,0.80304136428,0,0,0,273.2, -1.4, -5,0,0,1024,1024,1024,1024,0,0,0,0,273.3,0,0,95,4.197,4.195,4.195,4.188,0,0,7.19,75.74,150.47309142931,96.78478,6,P-GPS,
10800,2023-06-19 17:52:32,52.2063807978523,0.0866990919331783,96.78478,96.78478,53.688311429312,150.47309142931,83.66142,0,0.82878283492,0.89727365076,8,3,16.76,150.47309142931,96.78478,0.3131716,0.82878283492,0,0,0,273.2, -0.7, -5.7,0,0,1024,1024,1024,1024,0,0,0,0,273.3,0,0,95,4.197,4.195,4.195,4.188,0,0,7.19,75.74,150.47309142931,96.78478,6,P-GPS,
11000,2023-06-19 17:52:32,52.2063807711874,0.0866990658951087,96.78478,96.78478,53.688311429312,150.47309142931,83.66142,0.223694,0.83834648352,0.9086122338,8,3,16.791,150.47309142931,96.78478,0.3131716,0.83834648352,0,-0.223694,0,273, -0.5, -6.4,0,0,1024,1024,1024,1024,0,0,0,0,273.3,0,0,95,4.186,4.189,4.233,4.24,0,0,6.886,75.74,150.47309142931,96.78478,6,P-GPS,
11200,2023-06-19 17:52:32,52.2063807887861,0.0866989310412975,96.78478,96.78478,53.688311429312,150.47309142931,83.66142,0.223694,0.83175527596,0.93943900644,8,3,16.791,150.47309142931,96.78478,0.3131716,0.83834648352,0,-0.223694,0,272.7, 0.9, -6.3,0,0,1024,1024,1024,1024,0,0,0,0,273.3,0,0,95,4.186,4.189,4.233,4.24,0,0,6.886,75.74,150.47309142931,96.78478,6,P-GPS,
11400,2023-06-19 17:52:32,52.2063807968211,0.0866988188597806,96.78478,96.78478,53.688311429312,150.47309142931,83.66142,0,0.8295111814,0.96469163192,8,3,16.791,150.47309142931,96.78478,0.3131716,0.83834648352,0,0,0,272.7, 1, -6.1,0,0,1024,1024,1024,1024,0,0,0,0,273.3,0,0,95,4.186,4.189,4.233,4.24,0,0,6.886,75.74,150.47309142931,96.78478,6,P-GPS,
11600,2023-06-19 17:52:32,52.2063807953923,0.086698732139571,97.112864,97.112864,53.688311429312,150.80117542931,83.66142,0,0.8310859846,0.98409123884,8,3,16.791,150.80117542931,97.112864,0.3131716,0.83834648352,0,0,0,272.9, 0.6, -6,0,0,1024,1024,1024,1024,0,0,0,0,273.3,0,0,95,4.186,4.189,4.233,4.24,0,0,6.886,75.74,150.80117542931,97.112864,6,P-GPS,
11800,2023-06-19 17:52:33,52.2063807917776,0.0866986662326049,97.112864,97.112864,53.688311429312,150.80117542931,83.66142,0,0.83350068284,0.9988845464,8,3,16.791,150.80117542931,97.112864,0.3131716,0.83834648352,0,0,0,272.8, 0.7, -5.7,0,0,1024,1024,1024,1024,0,0,0,0,273.3,0,0,95,4.186,4.189,4.233,4.24,0,0,6.886,75.74,150.80117542931,97.112864,6,P-GPS,
12000,2023-06-19 17:52:33,52.2063807684767,0.0866986325601076,97.112864,97.112864,53.688311429312,150.80117542931,83.66142,0,0.84262469888,1.01023953364,8,3,16.74,150.80117542931,97.112864,0.3131716,0.84262469888,0,0,0,272.7, 0.5, -5.5,0,0,1024,1024,1024,1024,0,0,0,0,273.3,0,0,95,4.188,4.186,4.188,4.185,0,0,6.625,75.74,150.80117542931,97.112864,6,P-GPS,
12200,2023-06-19 17:52:33,52.2063807330128,0.086698640557783,97.112864,97.112864,53.688311429312,150.80117542931,83.66142,0,0.85535107724,1.02330383852,8,3,16.74,150.80117542931,97.112864,0.3131716,0.85535107724,0,0,0,272.8, 0.4, -5.2,0,0,1024,1024,1024,1024,0,0,0,0,273.3,0,0,95,4.188,4.186,4.188,4.185,0,0,6.625,75.74,150.80117542931,97.112864,6,P-GPS,
12400,2023-06-19 17:52:33,52.2063806795273,0.0866986338017683,97.112864,97.112864,53.688311429312,150.80117542931,83.66142,0,0.87492456868,1.04287404912,8,3,16.74,150.80117542931,97.112864,0.3131716,0.87492456868,0,0,0,272.8, 0.7, -5.1,0,0,1024,1024,1024,1024,0,0,0,0,273.3,0,0,95,4.188,4.186,4.188,4.185,0,0,6.625,75.74,150.80117542931,97.112864,6,P-GPS,
12600,2023-06-19 17:52:33,52.2063806578175,0.0866986427597677,97.112864,97.112864,53.688311429312,150.80117542931,83.66142,0,0.88264110436,1.05104334072,8,3,16.74,150.80117542931,97.112864,0.3131716,0.88264110436,0,0,0,272.7, 0.5, -5.1,0,0,1024,1024,1024,1024,0,0,0,0,273.3,0,0,95,4.188,4.186,4.188,4.185,0,0,6.625,75.74,150.80117542931,97.112864,6,P-GPS,
12800,2023-06-19 17:52:34,52.206380652109,0.0866986924935815,97.440948,97.440948,53.688311429312,151.12925942931,83.66142,0,0.88384845348,1.06235895788,8,3,16.74,151.12925942931,97.440948,0.3131716,0.88384845348,0,0,0,272.8, 0.2, -5.3,0,0,1024,1024,1024,1024,0,0,0,0,273.3,0,0,95,4.188,4.186,4.188,4.185,0,0,6.625,75.74,151.12925942931,97.440948,6,P-GPS,
13000,2023-06-19 17:52:34,52.2063806676062,0.0866988148151274,97.440948,97.440948,53.688311429312,151.12925942931,83.66142,0,0.87665357136,1.09028546796,8,3,16.743,151.12925942931,97.440948,0.3131716,0.88384845348,0,0,0,272.7, -0.1, -5.5,0,0,1024,1024,1024,1024,0,0,0,0,273.3,0,0,95,4.185,4.187,4.187,4.183,0,0,7.237,75.92,151.12925942931,97.440948,6,P-GPS,
13200,2023-06-19 17:52:34,52.2063807177321,0.0866990367640818,97.440948,97.440948,53.688311429312,151.12925942931,83.66142,0,0.85771984372,1.14317260876,8,3,16.743,151.12925942931,97.440948,0.3131716,0.88384845348,0,0,0,272.8, -0.4, -5.6,0,0,1024,1024,1024,1024,0,0,0,0,273.3,0,0,95,4.185,4.187,4.187,4.183,0,0,7.237,75.92,151.12925942931,97.440948,6,P-GPS,
13400,2023-06-19 17:52:34,52.2063807938668,0.0866993433180868,97.440948,97.440948,53.688311429312,151.12925942931,83.66142,0,0.83387141776,1.21712930404,8,3,16.743,151.12925942931,97.440948,0.3131716,0.88384845348,0,0,0,272.8, -1.1, -6.1,0,0,1024,1024,1024,1024,0,0,0,0,273.3,0,0,95,4.185,4.187,4.187,4.183,0,0,7.237,75.92,151.12925942931,97.440948,6,P-GPS,
13600,2023-06-19 17:52:35,52.2063808732331,0.0866996515022289,97.440948,97.440948,53.688311429312,151.12925942931,83.66142,0,0.81495737516,1.29187340092,8,3,16.743,151.12925942931,97.440948,0.3131716,0.88384845348,0,0,0,272.8, -1.6, -6.6,0,0,1024,1024,1024,1024,0,0,0,0,273.3,0,0,95,4.185,4.187,4.187,4.183,0,0,7.237,75.92,151.12925942931,97.440948,6,P-GPS,
13800,2023-06-19 17:52:35,52.2063808920888,0.0866999417716827,97.440948,97.440948,53.688311429312,151.12925942931,83.66142,0,0.8227854594,1.3571358702,8,3,16.743,151.12925942931,97.440948,0.3131716,0.88384845348,0,0,0,272.7, -1.7, -6.3,0,0,1024,1024,1024,1024,0,0,0,0,273.3,0,0,95,4.185,4.187,4.187,4.183,0,0,7.237,75.92,151.12925942931,97.440948,6,P-GPS,
14000,2023-06-19 17:52:35,52.2063808659344,0.0867002267811433,97.440948,97.440948,53.688311429312,151.12925942931,83.66142,0,0.85074805872,1.4215715678,8,3,16.739,151.12925942931,97.440948,0.3131716,0.88384845348,0,0,0,272.7, -1.7, -5.8,0,0,1024,1024,1024,1024,0,0,0,0,273.3,0,0,95,4.185,4.184,4.185,4.18,0,0,7.232,75.92,151.12925942931,97.440948,6,P-GPS,
14200,2023-06-19 17:52:35,52.2063807956169,0.0867004995821599,97.440948,97.440948,53.688311429312,151.12925942931,83.66142,0,0.89636485808,1.48774282976,12,3,16.739,151.12925942931,97.440948,0.3131716,0.89636485808,0,0,0,272.9, -1.7, -5.3,0,0,1024,1024,1024,1024,0,0,0,0,273.3,0,0,95,4.185,4.184,4.185,4.18,0,0,7.232,75.92,151.12925942931,97.440948,6,P-GPS,
14400,2023-06-19 17:52:35,52.206380708009,0.086700741708292,97.440948,97.440948,53.688311429312,151.12925942931,83.66142,0,0.94725396732,1.55061028584,12,3,16.739,151.12925942931,97.440948,0.3131716,0.94725396732,0,0,0,273, -1.7, -5.1,0,0,1024,1024,965,1024,0,0,-9,0,273.3,0,0,95,4.185,4.184,4.185,4.18,0,0,7.232,75.92,151.12925942931,97.440948,6,P-GPS,
14600,2023-06-19 17:52:35,52.2063806341927,0.0867009654913963,97.440948,97.440948,53.688311429312,151.12925942931,83.66142,0,0.99317260396,1.60743443464,12,3,16.739,151.12925942931,97.440948,0.3131716,0.99317260396,0,0,0,273.1, -1.5, -5,0,0,1024,1024,364,1024,0,0,-100,0,273.3,0,0,95,4.185,4.184,4.185,4.18,0,0,7.232,75.92,151.12925942931,97.440948,6,P-GPS,
14800,2023-06-19 17:52:36,52.2063806262981,0.0867012247259945,97.112864,97.112864,53.688311429312,150.80117542931,83.66142,0,1.02294622696,1.66546593256,12,3,16.739,151.12925942931,97.440948,0.3131716,1.02294622696,0,0,0.894776,273.1, -2.3, -5.9,0,0,1024,1024,724,1024,0,0,-45,0,273.3,0,0,95,4.185,4.184,4.185,4.18,0,0,7.232,75.92,150.80117542931,97.112864,6,P-GPS,
15000,2023-06-19 17:52:36,52.2063807256032,0.0867015258577134,96.78478,96.78478,53.688311429312,150.47309142931,83.66142,0,1.027313025,1.74192590876,12,3,16.739,151.12925942931,97.440948,0.3131716,1.027313025,0,0,3.131716,272.8, -2.5, -7.2,0,0,1024,1024,1001,1024,0,0,-3,0,273.3,0,0,95,4.185,4.184,4.185,4.183,0,0,7.197,75.92,150.47309142931,96.78478,6,P-GPS,
15200,2023-06-19 17:52:36,52.2063809097768,0.0867018830877265,95.472444,95.472444,53.688311429312,149.16075542931,83.66142,0,1.020997408,1.84630255252,12,3,16.739,151.12925942931,97.440948,0.3131716,1.027313025,0,0,4.026492,272.8, -1, -5.5,0,0,1024,1024,918,1024,0,0,-16,0,273.3,0,0,95,4.185,4.184,4.185,4.183,0,0,7.197,75.92,149.16075542931,95.472444,6,P-GPS,
15400,2023-06-19 17:52:36,52.2063811130705,0.086702367240824,94.816276,94.816276,53.688311429312,148.50458742931,83.66142,0,1.04091538764,1.97752631,12,3,16.739,151.12925942931,97.440948,0.3131716,1.04091538764,0,0,2.013246,273.3, 0.8, -2.3,0,0,1024,1024,364,1024,0,0,-100,0,273.3,0,0,95,4.185,4.184,4.185,4.183,0,0,7.197,75.92,148.50458742931,94.816276,6,P-GPS,
15600,2023-06-19 17:52:36,52.2063815425648,0.0867031458351543,94.160108,94.160108,53.688311429312,147.84841942931,83.66142,0,1.08568573028,2.21174875844,12,3,16.739,151.12925942931,97.440948,0.3131716,1.08568573028,0,0,2.23694,273.3, -4, -8.2,0,0,1024,1024,364,1024,0,0,-100,0,273.3,0,0,95,4.185,4.184,4.185,4.183,0,0,7.197,75.92,147.84841942931,94.160108,6,P-GPS,
15800,2023-06-19 17:52:37,52.206382031307,0.0867038467752876,93.175856,93.175856,53.688311429312,146.86416742931,83.66142,0,1.15269360644,2.44914706,12,3,16.739,151.12925942931,97.440948,0.3131716,1.15269360644,0,0,4.47388,272.8, -3, -9.5,0,0,1024,1024,899,1024,0,0,-19,0,273.3,0,0,95,4.185,4.184,4.185,4.183,0,0,7.197,75.92,146.86416742931,93.175856,6,P-GPS,
16000,2023-06-19 17:52:37,52.2063824987328,0.086704563560711,91.535436,91.535436,53.688311429312,145.22374742931,83.66142,0,1.26626316388,2.68317265804,12,3,16.735,151.12925942931,97.440948,0.3131716,1.26626316388,0,0,6.487126,272.3, -2, -7.4,0,0,1024,1024,1024,1024,0,0,0,0,273.3,0,0,95,4.243,4.242,4.241,4.239,0,0,7.036,75.92,145.22374742931,91.535436,6,P-GPS,
16200,2023-06-19 17:52:37,52.2063828325851,0.0867051608395948,89.895016,89.895016,53.688311429312,143.58332742931,83.66142,0.3131716,1.38530844328,2.86392397616,12,3,16.735,151.12925942931,97.440948,0.3131716,1.38530844328,-0.223694,-0.223694,5.144962,272.8, -0.2, -0.7,0,0,1024,1024,1684,1024,0,0,100,0,273.3,0,0,95,4.243,4.242,4.241,4.239,0,0,7.036,75.92,143.58332742931,89.895016,6,P-GPS,
16400,2023-06-19 17:52:37,52.2063832777614,0.08670581771994,88.910764,88.910764,53.688311429312,142.59907542931,83.66142,0,1.531414091,3.08290364196,12,4,16.735,151.12925942931,97.440948,0.3131716,1.531414091,0,0,2.908022,273.6, 3.4, -3.7,0,0,1024,1024,1684,1024,0,0,100,0,273.3,0,0,95,4.243,4.242,4.241,4.239,0,0,7.036,75.92,142.59907542931,88.910764,6,P-GPS,
16600,2023-06-19 17:52:37,52.2063837437854,0.0867069790257955,88.58268,88.58268,53.688311429312,142.27099142931,83.66142,0.223694,1.8060532074,3.3932743868,12,4,16.735,151.12925942931,97.440948,0.3131716,1.8060532074,0,0.223694,0.447388,273, -3.2, -6.4,0,0,1024,1024,1684,1024,0,0,100,0,273.3,0,0,95,4.243,4.242,4.241,4.239,0,0,7.036,75.92,142.27099142931,88.58268,6,P-GPS,
16800,2023-06-19 17:52:38,52.2063840218747,0.086707977420174,88.910764,88.910764,53.688311429312,142.59907542931,83.66142,0.223694,2.04223759816,3.6384843684,12,3,16.735,151.12925942931,97.440948,0.3131716,2.04223759816,-0.223694,0,-2.013246,275.3, -3.3, -4.4,0,0,1024,1024,1684,1024,0,0,100,0,273.3,0,0,95,4.243,4.242,4.241,4.239,0,0,7.036,75.92,142.59907542931,88.910764,6,P-GPS,
17000,2023-06-19 17:52:38,52.2063842888197,0.0867086880987542,89.895016,89.895016,53.688311429312,143.58332742931,83.66142,0.223694,2.21647644888,3.8248360804,12,3,16.858,151.12925942931,97.440948,0.3131716,2.21647644888,-0.223694,0,-4.47388,278.1, -1.4, -3.3,0,0,1024,1024,1684,1024,0,0,100,0,273.3,0,0,95,4.183,4.125,4.125,4.125,0,0,6.401,76.1,143.58332742931,89.895016,6,P-GPS,
17200,2023-06-19 17:52:38,52.2063845491378,0.0867092825529117,91.535436,91.535436,53.688311429312,145.22374742931,83.66142,0.223694,2.36668970828,3.9882219124,19,4,16.858,151.12925942931,97.440948,0.3131716,2.36668970828,-0.223694,0,-6.934514,276, -1, -2.6,0,0,1024,1024,1684,1024,0,0,100,0,273.3,0,0,95,4.183,4.125,4.125,4.125,0,0,6.401,76.1,145.22374742931,91.535436,6,P-GPS,
17400,2023-06-19 17:52:38,52.2063849288153,0.0867099873443885,94.488192,94.488192,53.688311429312,148.17650342931,83.66142,0,2.55364837568,4.1980316304,19,4,16.858,151.12925942931,97.440948,0.3131716,2.55364837568,0,0,-9.395148,272.1, -1, -3.3,0,0,1024,1024,1531,1024,0,0,77,0,273.3,0,0,95,4.183,4.125,4.125,4.125,0,0,6.401,76.1,148.17650342931,94.488192,6,P-GPS,"Home Point updated (Code: 3000001)"
17600,2023-06-19 17:52:38,52.2063853889682,0.0867107090798541,98.097116,98.097116,53.688311429312,151.78542742931,83.66142,0,2.75640756852,4.4308728452,19,4,16.858,151.78542742931,98.097116,0.3131716,2.75640756852,0,0,-11.408394,271.6, -1.8, -3.4,0,0,1024,1024,1024,1024,0,0,0,0,273.3,0,0,95,4.183,4.125,4.125,4.125,0,0,6.401,76.1,151.78542742931,98.097116,6,P-GPS,
17800,2023-06-19 17:52:39,52.2063858654267,0.0867114157611802,101.377956,101.377956,53.688311429312,155.06626742931,83.66142,0,2.96247712892,4.6657809892,19,4,16.858,155.06626742931,101.377956,0.3131716,2.96247712892,0,0,-10.289924,271.4, -3.7, -4.2,0,0,1024,1024,1024,1024,0,0,0,0,273.3,0,0,95,4.183,4.125,4.125,4.125,0,0,6.401,76.1,155.06626742931,101.377956,6,P-GPS,
18000,2023-06-19 17:52:39,52.2063863741183,0.0867120107815061,104.002628,104.002628,53.688311429312,157.69093942931,83.66142,0,3.15392398544,4.8941602616,19,4,16.406,157.69093942931,104.002628,0.3131716,3.15392398544,0,0,-8.276678,271.3, -3.2, -4.3,0,0,1024,1024,1024,1024,0,0,0,0,273.3,0,0,95,4.083,4.081,4.084,4.075,0,0,10.625,75.92,157.69093942931,104.002628,6,P-GPS,
18200,2023-06-19 17:52:39,52.2063868748693,0.0867124694163954,105.314964,105.314964,53.688311429312,159.00327542931,83.66142,0,3.3210630984,5.103674704,19,4,16.406,159.00327542931,105.314964,0.3131716,3.3210630984,0,0,-6.039738,271.4, -2.9, -4.1,0,0,1024,1024,1666,1024,0,0,97,0,273.3,0,0,95,4.083,4.081,4.084,4.075,0,0,10.625,75.92,159.00327542931,105.314964,6,P-GPS,
18400,2023-06-19 17:52:39,52.2063874153553,0.0867128537346857,106.6273,106.6273,53.688311429312,160.31561142931,83.66142,0.223694,3.4845473556,5.3187665744,19,4,16.406,160.31561142931,106.6273,0.3131716,3.4845473556,0.223694,0,-3.579104,272.3, -2.6, -5.3,0,0,1024,1024,1684,1024,0,0,100,0,273.3,0,0,95,4.083,4.081,4.084,4.075,0,0,10.625,75.92,160.31561142931,106.6273,6,P-GPS,
18600,2023-06-19 17:52:39,52.2063879179417,0.0867130976484423,107.283468,107.283468,53.688311429312,160.97177942931,83.66142,0.223694,3.6191930292,5.5100723548,19,4,16.406,160.97177942931,107.283468,0.3131716,3.6191930292,0.223694,0,-3.35541,273.9, -0.8, -3.9,0,0,1024,1024,1684,1024,0,0,100,0,273.3,0,0,95,4.083,4.081,4.084,4.075,0,0,10.625,75.92,160.97177942931,107.283468,6,P-GPS,
18800,2023-06-19 17:52:40,52.2063884061596,0.0867133373386521,108.595804,108.595804,53.688311429312,162.28411542931,83.66142,0.223694,3.755249464,5.6960959828,19,4,16.406,162.28411542931,108.595804,0.3131716,3.755249464,0.223694,0,-5.59235,275.6, -0.9, -5.3,0,0,1024,1024,1684,1024,0,0,100,0,273.3,0,0,95,4.083,4.081,4.084,4.075,0,0,10.625,75.92,162.28411542931,108.595804,6,P-GPS,
19000,2023-06-19 17:52:40,52.2063887962248,0.0867136225687262,110.564308,110.564308,53.688311429312,164.25261942931,83.66142,0,3.8846129852,5.852034308,19,4,16.217,164.25261942931,110.564308,0.3131716,3.8846129852,0,0,-7.82929,276, -1.2, -7,0,0,1024,1024,1684,1024,0,0,100,0,273.3,0,0,95,4.198,4.199,4.201,4.202,0,0,14.449,75.92,164.25261942931,110.564308,6,P-GPS,
19200,2023-06-19 17:52:40,52.2063889467417,0.0867138336534498,113.18898,113.18898,53.688311429312,166.87729142931,83.66142,0,3.9539699428,5.9244424468,19,5,16.217,166.87729142931,113.18898,0.3131716,3.9539699428,0,0,-10.06623,275.5, -1.2, -4.9,0,0,1024,1024,1684,1024,0,0,100,0,273.3,0,0,95,4.198,4.199,4.201,4.202,0,0,14.449,75.92,166.87729142931,113.18898,6,P-GPS,
19400,2023-06-19 17:52:40,52.20638894704,0.0867139466058033,116.797904,116.797904,53.688311429312,170.48621542931,83.66142,0.223694,3.9752954028,5.9497049148,19,5,16.217,170.48621542931,116.797904,0.3131716,3.9752954028,-0.223694,0,-12.079476,277.4, 0, -3.4,0,0,1024,1024,1684,1024,0,0,100,0,273.3,0,0,95,4.198,4.199,4.201,4.202,0,0,14.449,75.92,170.48621542931,116.797904,6,P-GPS,
19600,2023-06-19 17:52:40,52.2063889434852,0.0867140804976524,121.062996,121.062996,53.688311429312,174.75130742931,83.66142,0,3.999836086,5.979658984,19,5,16.217,174.75130742931,121.062996,0.3131716,3.999836086,0,0,-13.197946,278.5, 1.4, -1.3,0,0,1024,1024,1675,1024,0,0,99,0,273.3,0,0,95,4.198,4.199,4.201,4.202,0,0,14.449,75.92,174.75130742931,121.062996,6,P-GPS,
19800,2023-06-19 17:52:41,52.2063890765241,0.0867143856711849,125.328088,125.328088,53.688311429312,179.01639942931,83.66142,0,4.0834318892,6.0633860208,19,5,16.217,179.01639942931,125.328088,0.3131716,4.0834318892,0,0,-13.42164,278.4, 1.4, 1.5,0,0,1024,1024,1664,1024,0,0,97,0,273.3,0,0,95,4.198,4.199,4.201,4.202,0,0,14.449,75.92,179.01639942931,125.328088,6,P-GPS,
20000,2023-06-19 17:52:41,52.2063895423993,0.086714973319089,128.937012,128.937012,53.688311429312,182.62532342931,83.66142,0.223694,4.2861549928,6.2782482324,19,5,16.436,182.62532342931,128.937012,0.3131716,4.2861549928,0.223694,0,-13.197946,278.6, 1.2, 0.2,0,0,1024,1024,1024,1024,0,0,0,0,273.3,0,0,95,4.064,4.063,4.064,4.059,0,0,7.014,76.1,182.62532342931,128.937012,6,P-GPS,
20200,2023-06-19 17:52:41,52.2063903627518,0.0867157991159665,132.545936,132.545936,53.688311429312,186.23424742931,83.66142,0.447388,4.6075460792,6.629921472,19,5,16.436,186.23424742931,132.545936,0.447388,4.6075460792,0.447388,0,-12.30317,278.6, 1.3, -3.1,0,0,1024,1024,1024,1024,0,0,0,0,273.3,0,0,95,4.064,4.063,4.064,4.059,0,0,7.014,76.1,186.23424742931,132.545936,6,P-GPS,
20400,2023-06-19 17:52:41,52.2063913562752,0.0867167747203173,135.498692,135.4658836,53.721119829312,189.18700342931,83.66142,0.4921268,4.9979004224,7.0529529816,19,5,16.436,189.18700342931,135.498692,0.4921268,4.9979004224,0.447388,0.223694,-10.06623,278.2, 0.6, -6.4,0,0,1024,1024,1024,1024,0,0,0,0,273.3,0,0,95,4.064,4.063,4.064,4.059,0,0,7.014,76.1,189.18700342931,135.498692,6,P-GPS,
20600,2023-06-19 17:52:42,52.2063923613345,0.0867178223433921,137.467196,137.4343876,53.721119829312,191.15550742931,83.66142,0.4921268,5.4083335064,7.4880907908,19,5,16.436,191.15550742931,137.467196,0.4921268,5.4083335064,0.447388,0.223694,-7.82929,278.1, 0.1, -8.6,0,0,1024,1024,1024,1024,0,0,0,0,273.3,0,0,95,4.064,4.063,4.064,4.059,0,0,7.014,76.1,191.15550742931,137.467196,6,P-GPS,
20800,2023-06-19 17:52:42,52.2063933171439,0.086718894963503,138.779532,138.7467236,53.721119829312,192.46784342931,83.66142,0.4921268,5.8150592412,7.9113191508,19,5,16.436,192.46784342931,138.779532,0.4921268,5.8150592412,0.447388,0.223694,-5.144962,278, -0.9, -11.3,0,0,1024,1024,1024,1024,0,0,0,0,273.3,0,0,95,4.064,4.063,4.064,4.059,0,0,7.014,76.1,192.46784342931,138.779532,6,P-GPS,
21000,2023-06-19 17:52:42,52.206394194713,0.0867199373128236,139.4357,139.3700832,53.753928229312,193.12401142931,83.66142,0.7158208,6.2001642404,8.3073493472,19,5,16.332,193.12401142931,139.4357,0.7158208,6.2001642404,0.671082,0.223694,-2.684328,277.8, -1.9, -15.4,0,0,1024,1024,1024,1024,0,0,0,0,273.3,0,0,95,4.135,4.136,4.141,4.145,0,0,15.049,76.46,193.12401142931,139.4357,6,P-GPS,
21200,2023-06-19 17:52:42,52.2063948667068,0.086720892566564,139.763784,139.6981672,53.753928229312,193.45209542931,83.66142,0.4921268,6.5222771116,8.6325133996,19,5,16.332,193.45209542931,139.763784,0.7158208,6.5222771116,0.447388,0.223694,-0.671082,278.4, -3.2, -17.9,0,0,1024,1024,1024,1024,0,0,0,0,273.3,-1.1,0,95,4.135,4.136,4.141,4.145,0,0,15.049,76.46,193.45209542931,139.763784,6,P-GPS,
21400,2023-06-19 17:52:42,52.2063950669117,0.0867215301613595,140.091868,140.0262512,53.753928229312,193.78017942931,83.66142,0,6.6777233108,8.7926840084,19,5,16.332,193.78017942931,140.091868,0.7158208,6.6777233108,0,0,0,278.7, -3.3, -17.4,0,0,1024,1024,1024,1024,0,0,0,0,273.3,-3.7,0,95,4.135,4.136,4.141,4.145,0,0,15.049,76.46,193.78017942931,140.091868,6,P-GPS,
21600,2023-06-19 17:52:43,52.2063946671755,0.0867216894504069,140.091868,140.0262512,53.753928229312,193.78017942931,83.66142,0.447388,6.6103348572,8.9428152468,19,5,16.332,193.78017942931,140.091868,0.7158208,6.6777233108,-0.447388,0,0,278.9, -2, -15,0,0,1024,1024,1024,1024,0,0,0,0,273.3,-6.6,0,95,4.135,4.136,4.141,4.145,0,0,15.049,76.46,193.78017942931,140.091868,6,P-GPS,
21800,2023-06-19 17:52:43,52.2063937466243,0.086721399250632,140.091868,140.0262512,53.753928229312,193.78017942931,83.66142,0.9171454,6.3491799932,9.2848756252,19,5,16.332,193.78017942931,140.091868,0.9171454,6.6777233108,-0.894776,-0.223694,0,280.3, -1, -11.1,0,0,1024,1024,1024,1024,0,0,0,0,273.3,-9.5,0,95,4.135,4.136,4.141,4.145,0,0,15.049,76.46,193.78017942931,140.091868,6,P-GPS,
22000,2023-06-19 17:52:43,52.2063925605735,0.0867208419836066,140.091868,140.0590596,53.721119829312,193.78017942931,83.66142,1.006623,5.991141924,9.7352037236,19,5,16.808,193.78017942931,140.091868,1.006623,6.6777233108,-0.894776,-0.447388,0,281.5, 0.3, -7.3,0,0,1024,1024,1024,1024,0,0,0,0,273.3,-12.4,0,95,4.22,4.216,4.211,4.202,0,0,6.544,76.82,193.78017942931,140.091868,6,P-GPS,
22200,2023-06-19 17:52:43,52.2063913616772,0.0867201626286455,140.091868,140.0590596,53.721119829312,193.78017942931,83.66142,1.006623,5.6208007048,10.1982286728,19,5,16.808,193.78017942931,140.091868,1.006623,6.6777233108,-0.894776,-0.447388,0,282.4, 1.7, -5.6,0,0,1024,1024,1024,1024,0,0,0,0,273.3,-15.3,0,95,4.22,4.216,4.211,4.202,0,0,6.544,76.82,193.78017942931,140.091868,6,P-GPS,
22400,2023-06-19 17:52:43,52.2063902795084,0.0867195332992104,140.091868,140.091868,53.688311429312,193.78017942931,83.66142,0.7158208,5.2958991196,10.6173887912,19,5,16.808,193.78017942931,140.091868,1.006623,6.6777233108,-0.671082,-0.223694,0,282.6, 2.3, -4.3,0,0,1024,1024,1024,1024,0,0,0,0,273.3,-18.2,0,95,4.22,4.216,4.211,4.202,0,0,6.544,76.82,193.78017942931,140.091868,6,P-GPS,
22600,2023-06-19 17:52:44,52.2063893593271,0.086719070910834,140.091868,140.091868,53.688311429312,193.78017942931,83.66142,0.447388,5.0450789016,10.96866833,19,5,16.808,193.78017942931,140.091868,1.006623,6.6777233108,-0.447388,0,0,281.4, 2.2, -5.2,0,0,1024,1024,1024,1024,0,0,0,0,273.3,-21.1,0,95,4.22,4.216,4.211,4.202,0,0,6.544,76.82,193.78017942931,140.091868,6,P-GPS,
22800,2023-06-19 17:52:44,52.2063885285247,0.0867188001163079,140.419952,140.419952,53.688311429312,194.10826342931,83.66142,0.223694,4.8593177408,11.2777890748,19,5,16.808,194.10826342931,140.419952,1.006623,6.6777233108,-0.223694,0,0,280.4, 1.7, -3.9,0,0,1024,1024,1024,1024,0,0,0,0,273.3,-24,0,95,4.22,4.216,4.211,4.202,0,0,6.544,76.82,194.10826342931,140.419952,6,P-GPS,
23000,2023-06-19 17:52:44,52.2063878852186,0.0867186842509828,140.419952,140.419952,53.688311429312,194.10826342931,83.66142,0.223694,4.7438321728,11.5139111296,19,5,16.678,194.10826342931,140.419952,1.006623,6.6777233108,-0.223694,0,0,279.8, 1.4, -3.4,0,0,1024,1024,1024,1024,0,0,0,0,273.3,-26.9,0,95,4.173,4.173,4.173,4.172,0,0,5.935,76.82,194.10826342931,140.419952,6,P-GPS,
23200,2023-06-19 17:52:44,52.2063874738505,0.0867186991076623,140.419952,140.419952,53.688311429312,194.10826342931,83.66142,0,4.6934384704,11.664042368,19,5,16.678,194.10826342931,140.419952,1.006623,6.6777233108,0,0,0,279.7, 1.7, -4,0,0,1024,1024,1024,1024,0,0,0,0,273.3,-29.9,0,95,4.173,4.173,4.173,4.172,0,0,5.935,76.82,194.10826342931,140.419952,6,P-GPS,
23400,2023-06-19 17:52:44,52.2063872407708,0.0867188357884153,140.419952,140.419952,53.688311429312,194.10826342931,83.66142,0,4.693897788,11.7543967016,19,5,16.678,194.10826342931,140.419952,1.006623,6.6777233108,0,0,0,279.7, 1.4, -4.2,0,0,1024,1024,1024,1024,0,0,0,0,273.3,-32.8,0,95,4.173,4.173,4.173,4.172,0,0,5.935,76.82,194.10826342931,140.419952,6,P-GPS,
23600,2023-06-19 17:52:44,52.2063872081567,0.0867190675575091,140.748036,140.748036,53.688311429312,194.43634742931,83.66142,0.223694,4.7391405716,11.807579118,19,5,16.678,194.43634742931,140.748036,1.006623,6.6777233108,0.223694,0,0,279.6, 1.5, -5.3,0,0,1024,1024,1024,1024,0,0,0,0,273.3,-35.7,0,95,4.173,4.173,4.173,4.172,0,0,5.935,76.82,194.43634742931,140.748036,6,P-GPS,
23800,2023-06-19 17:52:45,52.2063872674826,0.0867193964419667,140.419952,140.419952,53.688311429312,194.10826342931,83.66142,0.223694,4.8157153772,11.8842195404,19,5,16.678,194.43634742931,140.748036,1.006623,6.6777233108,0.223694,0,0,279.5, 1.3, -5.1,0,0,1024,1024,1024,1024,0,0,0,0,273.3,-38.6,0,95,4.173,4.173,4.173,4.172,0,0,5.935,76.82,194.10826342931,140.419952,6,P-GPS,
24000,2023-06-19 17:52:45,52.2063874235225,0.0867198262529405,140.419952,140.419952,53.688311429312,194.10826342931,83.66142,0.3131716,4.9250001576,11.9959321424,19,5,16.681,194.43634742931,140.748036,1.006623,6.6777233108,0.223694,0.223694,0,279.7, 0.2, -6.2,0,0,1024,1024,1024,1024,0,0,0,0,273.3,-41.5,0,95,4.173,4.173,4.174,4.17,0,0,7.03,76.82,194.10826342931,140.419952,6,P-GPS,
24200,2023-06-19 17:52:45,52.2063876266912,0.0867201872814372,140.419952,140.419952,53.688311429312,194.10826342931,83.66142,0.223694,5.0255250952,12.1055121984,19,5,16.681,194.43634742931,140.748036,1.006623,6.6777233108,0.223694,0,0,279.6, 0.5, -6.4,0,0,1024,1024,1024,1024,0,0,0,0,273.3,-44.5,0,95,4.173,4.173,4.174,4.17,0,0,7.03,76.82,194.10826342931,140.419952,6,P-GPS,
24400,2023-06-19 17:52:45,52.2063878364747,0.0867204812119827,140.419952,140.419952,53.688311429312,194.10826342931,83.66142,0.223694,5.1131235232,12.2063980284,19,5,16.681,194.43634742931,140.748036,1.006623,6.6777233108,0.223694,0,0,279.8, -0.2, -6.5,0,0,1024,1024,1024,1024,0,0,0,0,273.3,-47.4,0,95,4.173,4.173,4.174,4.17,0,0,7.03,76.82,194.10826342931,140.419952,6,P-GPS,
24600,2023-06-19 17:52:45,52.2063880507118,0.0867206461766941,140.419952,140.419952,53.688311429312,194.10826342931,83.66142,0.223694,5.1747376984,12.292815354,19,5,16.681,194.43634742931,140.748036,1.006623,6.6777233108,0.223694,0,0,279.7, 0.5, -6.2,0,0,1024,1024,1024,1024,0,0,0,0,273.3,-50.3,0,95,4.173,4.173,4.174,4.17,0,0,7.03,76.82,194.10826342931,140.419952,6,P-GPS,
24800,2023-06-19 17:52:46,52.2063882432046,0.0867207341774448,140.419952,140.419952,53.688311429312,194.10826342931,83.66142,0.223694,5.21817602,12.3657484272,19,5,16.681,194.43634742931,140.748036,1.006623,6.6777233108,0.223694,0,0,279.6, 0.8, -6.2,0,0,1024,1024,1024,1024,0,0,0,0,273.3,-53.2,0,95,4.173,4.173,4.174,4.17,0,0,7.03,76.82,194.10826342931,140.419952,6,P-GPS,
25000,2023-06-19 17:52:46,52.2063884384535,0.0867207878184107,140.419952,140.419952,53.688311429312,194.10826342931,83.66142,0.223694,5.2554791708,12.437992524,19,5,16.678,194.43634742931,140.748036,1.006623,6.6777233108,0.223694,0,0,279.7, 0.7, -6.4,0,0,1024,1024,1024,1024,0,0,0,0,273.3,-56.1,0,95,4.17,4.168,4.17,4.168,0,0,7.052,77,194.10826342931,140.419952,6,P-GPS,
25200,2023-06-19 17:52:46,52.2063886526904,0.0867207914286083,140.419952,140.419952,53.688311429312,194.10826342931,83.66142,0.223694,5.2858925576,12.5161749412,19,5,16.678,194.43634742931,140.748036,1.006623,6.6777233108,0.223694,0,0,279.5, 1.3, -6.4,0,0,1024,1024,1024,1024,0,0,0,0,273.3,-59,0,95,4.17,4.168,4.17,4.168,0,0,7.052,77,194.10826342931,140.419952,6,P-GPS,
25400,2023-06-19 17:52:46,52.2063888230895,0.0867208087142204,140.419952,140.419952,53.688311429312,194.10826342931,83.66142,0.223694,5.3137140808,12.5784452844,19,5,16.678,194.43634742931,140.748036,1.006623,6.6777233108,0.223694,0,0,279.6, 0.9, -6.5,0,0,1024,1024,1024,1024,0,0,0,0,273.3,-61.9,0,95,4.17,4.168,4.17,4.168,0,0,7.052,77,194.10826342931,140.419952,6,P-GPS,
25600,2023-06-19 17:52:46,52.2063889840109,0.0867208894246785,140.419952,140.419952,53.688311429312,194.10826342931,83.66142,0,5.353674712,12.6398954176,19,5,16.678,194.43634742931,140.748036,1.006623,6.6777233108,0,0,0,279.5, 0.7, -7,0,0,1024,1024,1024,1024,0,0,0,0,273.3,-64.9,0,95,4.17,4.168,4.17,4.168,0,0,7.052,77,194.10826342931,140.419952,6,P-GPS,
25800,2023-06-19 17:52:47,52.2063890912972,0.086721000591155,140.748036,140.748036,53.688311429312,194.43634742931,83.66142,0,5.3922573904,12.6862536868,19,5,16.678,194.43634742931,140.748036,1.006623,6.6777233108,0,0,0,279.5, -0.1, -7.1,0,0,1024,1024,1024,1024,0,0,0,0,273.3,-67.8,0,95,4.17,4.168,4.17,4.168,0,0,7.052,77,194.43634742931,140.748036,6,P-GPS,
26000,2023-06-19 17:52:47,52.2063891456107,0.086721078483003,140.748036,140.748036,53.688311429312,194.43634742931,83.66142,0,5.4162731392,12.7126316404,19,5,16.669,194.43634742931,140.748036,1.006623,6.6777233108,0,0,0,279.6, -0.5, -6.8,0,0,1024,1024,1024,1024,0,0,0,0,273.3,-70.7,0,94,4.168,4.167,4.169,4.165,0,0,7.216,77.18,194.43634742931,140.748036,6,P-GPS,
26200,2023-06-19 17:52:47,52.2063891511278,0.0867210911885919,140.748036,140.748036,53.688311429312,194.43634742931,83.66142,0,5.4196852128,12.7161093308,19,5,16.669,194.43634742931,140.748036,1.006623,6.6777233108,0,0,0,279.6, -0.2, -6.2,0,0,1024,1024,1024,1024,0,0,0,0,273.3,-73.6,0,94,4.168,4.167,4.169,4.165,0,0,7.216,77.18,194.43634742931,140.748036,6,P-GPS,
26400,2023-06-19 17:52:47,52.2063891323727,0.0867210730082938,140.748036,140.748036,53.688311429312,194.43634742931,83.66142,0,5.4131563412,12.724081772,19,5,16.669,194.43634742931,140.748036,1.006623,6.6777233108,0,0,0,279.6, -0.3, -6,0,0,1024,1024,1024,1024,0,0,0,0,273.3,-76,0,94,4.168,4.167,4.169,4.165,0,0,7.216,77.18,194.43634742931,140.748036,6,P-GPS,
26600,2023-06-19 17:52:47,52.2063891156812,0.086721045666202,140.748036,140.748036,53.688311429312,194.43634742931,83.66142,0,5.4050854748,12.7327103812,19,5,16.669,194.43634742931,140.748036,1.006623,6.6777233108,0,0,0,279.8, -0.6, -6,0,0,1024,1024,1024,1024,0,0,0,0,273.3,-78.5,0,94,4.168,4.167,4.169,4.165,0,0,7.216,77.18,194.43634742931,140.748036,6,P-GPS,
26800,2023-06-19 17:52:48,52.2063890867792,0.0867209444810656,140.748036,140.748036,53.688311429312,194.43634742931,83.66142,0,5.3801510908,12.7576447652,19,5,16.669,194.43634742931,140.748036,1.006623,6.6777233108,0,0,0,279.8, -0.8, -6.1,0,0,1024,1024,1024,1024,0,0,0,0,273.3,-81.3,0,94,4.168,4.167,4.169,4.165,0,0,7.216,77.18,194.43634742931,140.748036,6,P-GPS,
27000,2023-06-19 17:52:48,52.2063890840094,0.0867207478703336,140.748036,140.748036,53.688311429312,194.43634742931,83.66142,0,5.3396327168,12.8016408296,18,5,16.662,194.43634742931,140.748036,1.006623,6.6777233108,0,0,0,279.6, 0.3, -6.2,0,0,1024,1024,1024,1024,0,0,0,0,273.3,-84.2,0,94,4.168,4.169,4.169,4.164,0,0,7.257,77.18,194.43634742931,140.748036,6,P-GPS,
27200,2023-06-19 17:52:48,52.2063890792457,0.0867205335563529,140.748036,140.748036,53.688311429312,194.43634742931,83.66142,0,5.29527576,12.849573902,18,5,16.662,194.43634742931,140.748036,1.006623,6.6777233108,0,0,0,279.6, 0.6, -6.4,0,0,1024,1024,1024,1024,0,0,0,0,273.3,-87.1,0,94,4.168,4.169,4.169,4.164,0,0,7.257,77.18,194.43634742931,140.748036,6,P-GPS,
27400,2023-06-19 17:52:48,52.2063890532752,0.0867203582276135,140.748036,140.748036,53.688311429312,194.43634742931,83.66142,0,5.2556760212,12.8898954256,18,5,16.662,194.43634742931,140.748036,1.006623,6.6777233108,0,0,0,279.6, 0.6, -6.4,0,0,1024,1024,1024,1024,0,0,0,0,273.3,-89.9,0,94,4.168,4.169,4.169,4.164,0,0,7.257,77.18,194.43634742931,140.748036,6,P-GPS,
27600,2023-06-19 17:52:48,52.2063889920038,0.086720246061605,140.748036,140.748036,53.688311429312,194.43634742931,83.66142,0,5.2235565976,12.9234912272,18,5,16.662,194.43634742931,140.748036,1.006623,6.6777233108,0,0,0,279.6, 0.4, -6.2,0,0,1024,1024,1024,1024,0,0,0,0,273.3,-89.9,0,94,4.168,4.169,4.169,4.164,0,0,7.257,77.18,194.43634742931,140.748036,6,P-GPS,
27800,2023-06-19 17:52:49,52.2063889029575,0.0867201566733922,140.748036,140.748036,53.688311429312,194.43634742931,83.66142,0,5.1919621084,12.9616473964,18,5,16.662,194.43634742931,140.748036,1.006623,6.6777233108,0,0,0,279.6, 0, -6.4,0,0,1024,1024,1024,1024,0,0,0,0,273.3,-90,0,94,4.168,4.169,4.169,4.164,0,0,7.257,77.18,194.43634742931,140.748036,6,P-GPS,
28000,2023-06-19 17:52:49,52.2063888366921,0.0867200941921602,140.748036,140.748036,53.688311429312,194.43634742931,83.66142,0,5.1693571208,12.9895673448,18,5,16.671,194.43634742931,140.748036,1.006623,6.6777233108,0,0,0,279.7, -0.1, -6.6,0,0,1024,1024,1024,1521,0,0,0,75,273.3,-90,0,94,4.167,4.17,4.169,4.166,0,0,7.167,77.18,194.43634742931,140.748036,6,P-GPS,
28200,2023-06-19 17:52:49,52.206388770779,0.086720014271542,140.748036,140.748036,53.688311429312,194.43634742931,83.66142,0,5.1432416344,13.019521414,18,5,16.671,194.43634742931,140.748036,1.006623,6.6777233108,0,0,0,279.6, 0.1, -6.5,0,0,1024,1024,1024,1676,0,0,0,99,273.3,-89.9,0,94,4.167,4.17,4.169,4.166,0,0,7.167,77.18,194.43634742931,140.748036,6,P-GPS,
28400,2023-06-19 17:52:49,52.2063886712913,0.0867199421514669,140.748036,140.748036,53.688311429312,194.43634742931,83.66142,0,5.1139109248,13.0592523864,18,5,16.671,194.43634742931,140.748036,1.006623,6.6777233108,0,0,0,280.4, -0.2, -6.7,0,0,1024,1024,1024,1024,0,0,0,0,278.7,-90,0,94,4.167,4.17,4.169,4.166,0,0,7.167,77.18,194.43634742931,140.748036,6,P-GPS,
28600,2023-06-19 17:52:49,52.2063885532739,0.0867198862073836,140.748036,140.748036,53.688311429312,194.43634742931,83.66142,0,5.0853348084,13.1041014692,18,5,16.671,194.43634742931,140.748036,1.006623,6.6777233108,0,0,0,288, -0.5, -5.5,0,0,1024,1024,1024,1024,0,0,0,0,281,-89.9,0,94,4.167,4.17,4.169,4.166,0,0,7.167,77.18,194.43634742931,140.748036,6,P-GPS,
28800,2023-06-19 17:52:50,52.2063884736184,0.0867197517982943,140.748036,140.748036,53.688311429312,194.43634742931,83.66142,0,5.0462928124,13.1458993708,18,5,16.671,194.43634742931,140.748036,1.006623,6.6777233108,0,0,0,287.3, 0.2, -6.5,0,0,1024,1024,1035,1024,0,0,2,0,281,-90,0,94,4.167,4.17,4.169,4.166,0,0,7.167,77.18,194.43634742931,140.748036,6,P-GPS,
29000,2023-06-19 17:52:50,52.206388417485,0.0867196158968967,140.419952,140.419952,53.688311429312,194.10826342931,83.66142,0,5.010334806,13.1825463536,18,5,16.667,194.43634742931,140.748036,1.006623,6.6777233108,0,0,0,287.2, 1, -6.4,0,0,1024,1024,1024,1024,0,0,0,0,281,-90,0,94,4.167,4.168,4.168,4.165,0,0,7.184,77.18,194.10826342931,140.419952,6,P-GPS,
29200,2023-06-19 17:52:50,52.2063883434157,0.0867195065564882,140.419952,140.419952,53.688311429312,194.10826342931,83.66142,0,4.9772967472,13.218996486,18,5,16.667,194.43634742931,140.748036,1.006623,6.6777233108,0,0,0,287.3, 0.9, -6.6,0,0,1024,1024,1024,1024,0,0,0,0,281,-89.9,0,94,4.167,4.168,4.168,4.165,0,0,7.184,77.18,194.10826342931,140.419952,6,P-GPS,
29400,2023-06-19 17:52:50,52.2063882575876,0.086719439877921,140.419952,140.419952,53.688311429312,194.10826342931,83.66142,0,4.9515093448,13.2536749648,18,5,16.667,194.43634742931,140.748036,1.006623,6.6777233108,0,0,0,287.1, 0.5, -6.3,0,0,1024,1024,1024,1024,0,0,0,0,278.5,-89.9,0,94,4.167,4.168,4.168,4.165,0,0,7.184,77.18,194.10826342931,140.419952,6,P-GPS,
29600,2023-06-19 17:52:50,52.2063881774088,0.0867193857371891,140.419952,140.419952,53.688311429312,194.10826342931,83.66142,0,4.9291996328,13.2853350708,19,5,16.667,194.43634742931,140.748036,1.006623,6.6777233108,0,0,0,283.6, 0.8, -6.4,0,0,1024,1024,1024,1024,0,0,0,0,277.7,-90,0,94,4.167,4.168,4.168,4.165,0,0,7.184,77.18,194.10826342931,140.419952,6,P-GPS,
29800,2023-06-19 17:52:51,52.2063881008599,0.0867194012998318,140.419952,140.419952,53.688311429312,194.10826342931,83.66142,0,4.921916168,13.3134518696,19,5,16.667,194.43634742931,140.748036,1.006623,6.6777233108,0,0,0,284.1, 0, -5.9,0,0,1024,1024,1656,1024,0,0,96,0,277.7,-89.9,0,94,4.167,4.168,4.168,4.165,0,0,7.184,77.18,194.10826342931,140.419952,6,P-GPS,
30000,2023-06-19 17:52:51,52.2063880239518,0.0867194181398484,140.748036,140.748036,53.688311429312,194.43634742931,83.66142,0,4.915026404,13.3417655188,20,5,16.655,194.43634742931,140.748036,1.006623,6.6777233108,0,0,-0.894776,284.2, -0.3, -4.5,0,0,1024,1024,1684,1023,0,0,100,-0,277.7,-90,0,94,4.167,4.165,4.168,4.163,0,0,7.245,77.18,194.43634742931,140.748036,6,P-GPS,
30200,2023-06-19 17:52:51,52.2063879937428,0.0867194314884928,141.404204,141.404204,53.688311429312,195.09251542931,83.66142,0,4.9137468764,13.353182842,20,5,16.655,195.09251542931,141.404204,1.006623,6.6777233108,0,0,-3.131716,284.3, -0.2, -4.5,0,0,1024,1024,1684,1024,0,0,100,0,277.7,-89.9,0,94,4.167,4.165,4.168,4.163,0,0,7.245,77.18,195.09251542931,141.404204,6,P-GPS,
30400,2023-06-19 17:52:51,52.2063880148479,0.0867194254161614,142.71654,142.71654,53.688311429312,196.40485142931,83.66142,0,4.9153216796,13.3610240496,20,5,16.655,196.40485142931,142.71654,1.006623,6.6777233108,0,0,-5.368656,284.2, 0.4, -5.7,0,0,1024,1024,1366,1024,0,0,52,0,277.7,-90,0,94,4.167,4.165,4.168,4.163,0,0,7.245,77.18,196.40485142931,142.71654,6,P-GPS,
30600,2023-06-19 17:52:51,52.206387964287,0.086719346381492,144.685044,144.685044,53.688311429312,198.37335542931,83.66142,0,4.8921261408,13.3865489848,20,5,16.655,198.37335542931,144.685044,1.006623,6.6777233108,0,0,-7.605596,284, 0.8, -4.3,0,0,1024,1024,1024,1024,0,0,0,0,277.7,-89.9,0,94,4.167,4.165,4.168,4.163,0,0,7.245,77.18,198.37335542931,144.685044,6,P-GPS,
30800,2023-06-19 17:52:52,52.2063879564627,0.0867192921166923,146.981632,146.981632,53.688311429312,200.66994342931,83.66142,0,4.8797901824,13.3990161768,20,5,16.655,200.66994342931,146.981632,1.006623,6.6777233108,0,0,-6.487126,283.7, 1.2, -3.6,0,0,1024,1024,1024,1024,0,0,0,0,277.7,-89.9,0,94,4.167,4.165,4.168,4.163,0,0,7.245,77.18,200.66994342931,146.981632,6,P-GPS,
31000,2023-06-19 17:52:52,52.2063881040658,0.0867193401151955,148.293968,148.293968,53.688311429312,201.98227942931,83.66142,0,4.9096786348,13.4539374384,20,5,16.6,201.98227942931,148.293968,1.006623,6.6777233108,0,0,-4.47388,283.8, 2.3, -1.7,0,0,1024,1024,364,1024,0,0,-100,0,277.7,-90,0,94,4.108,4.106,4.105,4.092,0,0,8.203,77.18,201.98227942931,148.293968,6,P-GPS,
31200,2023-06-19 17:52:52,52.2063884365993,0.0867195411923675,149.27822,149.27822,53.688311429312,202.96653142931,83.66142,0,4.9976707636,13.583333768,20,5,16.6,202.96653142931,149.27822,1.006623,6.6777233108,0,0,-2.013246,283.9, 3.5, 0.7,0,0,1024,1024,364,1024,0,0,-100,0,277.7,-89.9,0,94,4.108,4.106,4.105,4.092,0,0,8.203,77.18,202.96653142931,149.27822,6,P-GPS,
31400,2023-06-19 17:52:52,52.2063889844681,0.08671996860761,149.606304,149.606304,53.688311429312,203.29461542931,83.66142,0.223694,5.166010664,13.8048888932,20,5,16.6,203.29461542931,149.606304,1.006623,6.6777233108,0.223694,0,0.223694,284.2, 2.5, -1,0,0,1024,1024,364,1024,0,0,-100,0,277.7,-90,0,94,4.108,4.106,4.105,4.092,0,0,8.203,77.18,203.29461542931,149.606304,6,P-GPS,
31600,2023-06-19 17:52:52,52.2063897689136,0.0867206477965649,148.950136,148.950136,53.688311429312,202.63844742931,83.66142,0.4921268,5.4271327196,14.1288718432,20,5,16.6,203.29461542931,149.606304,1.006623,6.6777233108,0.447388,0.223694,2.908022,284.3, 0.3, -6.1,0,0,1024,1024,364,1024,0,0,-100,0,277.7,-89.9,0,94,4.108,4.106,4.105,4.092,0,0,8.203,77.18,202.63844742931,148.950136,6,P-GPS,
31800,2023-06-19 17:52:53,52.2063906414935,0.0867213887468092,147.6378,147.6049916,53.721119829312,201.32611142931,83.66142,1.006623,5.722277086,14.4877629308,20,5,16.6,203.29461542931,149.606304,1.006623,6.6777233108,0.894776,0.447388,5.144962,284.9, -1.8, -13,0,0,1024,1024,819,1024,0,0,-31,0,277.7,-89.9,0,94,4.108,4.106,4.105,4.092,0,0,8.203,77.18,201.32611142931,147.6378,6,P-GPS,
32000,2023-06-19 17:52:53,52.2063914214896,0.0867220355296101,146.325464,146.2926556,53.721119829312,200.01377542931,83.66142,1.006623,5.989009378,14.8069886628,20,5,16.741,203.29461542931,149.606304,1.006623,6.6777233108,0.894776,0.447388,7.381902,285.3, -2.9, -19.3,0,0,1024,1024,1024,1024,0,0,0,0,277.7,-90,0,94,4.203,4.206,4.211,4.21,0,0,9.745,77.36,200.01377542931,146.325464,6,P-GPS,
32200,2023-06-19 17:52:53,52.2063915934971,0.0867221050267875,144.35696,144.3241516,53.721119829312,198.04527142931,83.66142,0,6.0345146288,14.8716212108,21,5,16.741,203.29461542931,149.606304,1.006623,6.6777233108,0,0,6.263432,285.8, -3.1, -15.3,0,0,1024,1024,1024,1024,0,0,0,0,277.7,-90,0,94,4.203,4.206,4.211,4.21,0,0,9.745,77.36,198.04527142931,144.35696,6,P-GPS,
32400,2023-06-19 17:52:53,52.2063909719327,0.0867213327450607,142.71654,142.6837316,53.721119829312,196.40485142931,83.66142,0.4921268,5.7706038592,15.15666059,21,5,16.741,203.29461542931,149.606304,1.006623,6.6777233108,-0.447388,-0.223694,4.026492,284.7, 0.8, -12,0,0,1024,1024,994,1024,0,0,-5,0,277.7,-90,0,94,4.203,4.206,4.211,4.21,0,0,9.745,77.36,196.40485142931,142.71654,6,P-GPS,
32600,2023-06-19 17:52:53,52.2063898598853,0.0867203373178243,142.060372,142.060372,53.688311429312,195.74868342931,83.66142,0.9171454,5.3804463664,15.619423072,21,5,16.741,203.29461542931,149.606304,1.006623,6.6777233108,-0.894776,-0.223694,1.565858,285.2, -0.3, -9.2,0,0,1024,1024,364,1024,0,0,-100,0,277.7,-90,0,94,4.203,4.206,4.211,4.21,0,0,9.745,77.36,195.74868342931,142.060372,6,P-GPS,
32800,2023-06-19 17:52:54,52.2063885914516,0.0867193419936865,141.732288,141.732288,53.688311429312,195.42059942931,83.66142,0.9171454,4.979330868,16.1329401488,21,5,16.741,203.29461542931,149.606304,1.006623,6.6777233108,-0.894776,-0.223694,1.565858,285.9, -1.1, -8.3,0,0,1024,1024,364,1024,0,0,-100,0,277.7,-90,0,94,4.203,4.206,4.211,4.21,0,0,9.745,77.36,195.42059942931,141.732288,6,P-GPS,
33000,2023-06-19 17:52:54,52.2063873731211,0.0867183320050868,141.07612,141.07612,53.688311429312,194.76443142931,83.66142,1.006623,4.6037403048,16.6315294036,21,5,16.87,203.29461542931,149.606304,1.006623,6.6777233108,-0.894776,-0.447388,3.579104,286.4, -0.1, -3.7,0,0,1024,1024,654,1024,0,0,-56,0,277.7,-90,0,94,4.104,4.114,4.124,4.12,0,0,3.736,77.54,194.76443142931,141.07612,6,P-GPS,
33200,2023-06-19 17:52:54,52.2063862858417,0.0867174381054838,139.4357,139.4357,53.688311429312,193.12401142931,83.66142,0.7158208,4.29133872,17.0757223312,21,5,16.87,203.29461542931,149.606304,1.006623,6.6777233108,-0.671082,-0.223694,5.59235,286.8, -0.3, -1.9,0,0,1024,1024,841,1024,0,0,-28,0,277.7,-90,0,94,4.104,4.114,4.124,4.12,0,0,3.736,77.54,193.12401142931,139.4357,6,P-GPS,
33400,2023-06-19 17:52:54,52.2063854590721,0.0867167001153918,138.123364,138.123364,53.688311429312,191.81167542931,83.66142,0.4921268,4.0575460616,17.4195543632,21,5,16.87,203.29461542931,149.606304,1.006623,6.6777233108,-0.447388,-0.223694,4.250186,287.5, -0.2, 4.3,0,0,1024,1024,546,1024,0,0,-72,0,277.7,-89.9,0,94,4.104,4.114,4.124,4.12,0,0,3.736,77.54,191.81167542931,138.123364,6,P-GPS,
33600,2023-06-19 17:52:54,52.2063852678646,0.0867162269575828,137.139112,137.139112,53.688311429312,190.82742342931,83.66142,0.223694,3.93946863,17.546260404,21,5,16.87,203.29461542931,149.606304,1.006623,6.6777233108,0.223694,0,2.684328,287.3, 2.4, -1.5,0,0,1024,1024,370,1024,0,0,-99,0,277.7,-90,0,94,4.104,4.114,4.124,4.12,0,0,3.736,77.54,190.82742342931,137.139112,6,P-GPS,
33800,2023-06-19 17:52:55,52.2063853873515,0.0867160379726506,136.15486,136.15486,53.688311429312,189.84317142931,83.66142,0.447388,3.907316398,17.6069887524,21,5,16.87,203.29461542931,149.606304,1.006623,6.6777233108,0.447388,0,4.250186,286.6, 1.8, -10.5,0,0,1024,1024,583,1024,0,0,-67,0,277.7,-90,0,94,4.104,4.114,4.124,4.12,0,0,3.736,77.54,189.84317142931,136.15486,6,P-GPS,
34000,2023-06-19 17:52:55,52.2063854398831,0.0867159953352734,134.51444,134.51444,53.688311429312,188.20275142931,83.66142,0,3.902231096,17.6283798292,21,5,16.776,203.29461542931,149.606304,1.006623,6.6777233108,0,0,5.816044,286.4, 1.4, -8.2,0,0,1024,1024,1003,1024,0,0,-3,0,277.7,-89.9,0,94,4.216,4.209,4.21,4.202,0,0,8.88,77.54,188.20275142931,134.51444,6,P-GPS,
