time(millisecond),datetime(utc),latitude,longitude,height_above_takeoff(feet),height_above_ground_at_drone_location(feet),ground_elevation_at_drone_location(feet),altitude_above_seaLevel(feet),height_sonar(feet),speed(mph),distance(feet),mileage(feet),satellites,gpslevel,voltage(v),max_altitude(feet),max_ascent(feet),max_speed(mph),max_distance(feet), xSpeed(mph), ySpeed(mph), zSpeed(mph), compass_heading(degrees), pitch(degrees), roll(degrees),isPhoto,isVideo,rc_elevator,rc_aileron,rc_throttle,rc_rudder,rc_elevator(percent),rc_aileron(percent),rc_throttle(percent),rc_rudder(percent),gimbal_heading(degrees),gimbal_pitch(degrees),gimbal_roll(degrees),battery_percent,voltageCell1,voltageCell2,voltageCell3,voltageCell4,voltageCell5,voltageCell6,current(A),battery_temperature(f),altitude(feet),ascent(feet),flycStateRaw,flycState,message
0,2023-06-06 16:46:29,52.2063912203429,0.0867229052370474,0,0,53.875204151828,53.875204151828,0.328084,0,0,0,28,5,0,53.875204151828,0,0,0,0,0,0,272.3, 4.5, -0.2,0,0,1024,1024,1024,1024,0,0,0,0,272.3,0,0,96,4.232,4.239,4.238,4.233,0,0,0,70.7,53.875204151828,0,41,Motors_Started,"Remote controller not bound/still confirming binding status (Code: 30306)"
200,2023-06-06 16:46:30,52.2063912300056,0.0867229007478697,0,0,53.875204151828,53.875204151828,0.328084,0,0.00366551849,0.00366551849,28,5,0,53.875204151828,0,0,0.00366551849,0,0,0,272.3, 4.5, -0.2,0,0,1024,1024,1024,1024,0,0,0,0,272.3,0,0,96,4.232,4.239,4.238,4.233,0,0,0,70.7,53.875204151828,0,41,Motors_Started,
400,2023-06-06 16:46:30,52.2063912419441,0.0867228650734105,0,0,53.875204151828,53.875204151828,0,0,0.01194799907,0.0127536749488,28,5,0,53.875204151828,0,0,0.01194799907,0,0,0,272.2, 4.5, -0.2,0,0,1024,1024,1024,1024,0,0,0,0,272.3,0,0,96,4.232,4.239,4.238,4.233,0,0,0,70.7,53.875204151828,0,41,Motors_Started,"Setting new Return-To-Home altitude to 26m (85 ft). Data Recorder File Index is 32. Setting new Maximum Flight Altitude to 120m (394 ft). Unable to take off"
600,2023-06-06 16:46:30,52.2063912620716,0.0867228290813538,0,0,53.875204151828,53.875204151828,0,0,0.0228412736968,0.0236480322528,28,5,0,53.875204151828,0,0,0.0228412736968,0,0,0,272.2, 4.5, -0.2,0,0,1024,1024,1024,1024,0,0,0,0,272.3,0,0,96,4.232,4.239,4.238,4.233,0,0,0,70.7,53.875204151828,0,41,Motors_Started,
800,2023-06-06 16:46:30,52.2063913079877,0.0867228005735898,0,0,53.875204151828,53.875204151828,0,0,0.039625329352,0.041572179808,28,5,0,53.875204151828,0,0,0.039625329352,0,0,0,272.2, 4.5, -0.2,0,0,1024,1024,1024,1024,0,0,0,0,272.3,0,0,96,4.232,4.239,4.238,4.233,0,0,0,70.7,53.875204151828,0,41,Motors_Started,
1000,2023-06-06 16:46:30,52.2063913415892,0.0867227971861741,0,0,53.875204151828,53.875204151828,0,0,0.05040354492,0.0538549886,28,5,0,53.875204151828,0,0,0.05040354492,0,0,0,272.1, 4.5, -0.2,0,0,1024,1024,1024,1024,0,0,0,0,272.3,0,0,96,4.232,4.239,4.238,4.233,0,0,0,70.7,53.875204151828,0,41,Motors_Started,
1200,2023-06-06 16:46:31,52.2063913466284,0.0867227915039305,0,0,53.875204151828,53.875204151828,0,0,0.052626642104,0.056089896808,28,5,0,53.875204151828,0,0,0.052626642104,0,0,0,272.2, 4.5, -0.2,0,0,1024,1024,1024,1024,0,0,0,0,272.3,0,0,96,4.232,4.239,4.238,4.233,0,0,0,70.7,53.875204151828,0,41,Motors_Started,
1400,2023-06-06 16:46:31,52.2063913517249,0.0867228059797376,0,0,53.875204151828,53.875204151828,0,0,0.052822836336,0.059822508476,28,5,16.957,53.875204151828,0,0,0.052822836336,0,0,0,272.2, 4.5, -0.2,0,0,1024,1024,1024,1024,0,0,0,0,272.3,0,0,96,4.232,4.239,4.238,4.233,0,0,4.187,70.7,53.875204151828,0,41,Motors_Started,
1600,2023-06-06 16:46:31,52.2063913564386,0.0867228148178609,0,0,53.875204151828,53.875204151828,0,0,0.05361220644,0.062442259216,28,5,16.957,53.875204151828,0,0,0.05361220644,0,0,0,272.1, 4.5, -0.2,0,0,1024,1024,1024,1024,0,0,0,0,272.3,0,0,96,4.232,4.239,4.238,4.233,0,0,4.187,70.7,53.875204151828,0,11,AutoTakeoff,
1800,2023-06-06 16:46:31,52.2063913494456,0.0867228106366697,0,0,53.875204151828,53.875204151828,0,0,0.051634188004,0.065159450904,28,5,16.957,53.875204151828,0,0,0.05361220644,0,0,0,271.9, 4.4, -0.1,0,0,1024,1024,1024,1024,0,0,0,0,272.3,0,0,96,4.232,4.239,4.238,4.233,0,0,4.187,70.7,53.875204151828,0,11,AutoTakeoff,
2000,2023-06-06 16:46:31,52.2063912960465,0.0867228256803953,0,0,53.875204151828,53.875204151828,0,0,0.03285269134,0.084930120828,28,5,16.957,53.875204151828,0,0,0.05361220644,0,0,0,271.8, 0.7, -0.4,0,0,1024,1024,1024,1024,0,0,0,0,272.3,0,0,96,4.232,4.239,4.238,4.233,0,0,4.187,70.7,53.875204151828,0,11,AutoTakeoff,
2200,2023-06-06 16:46:32,52.2063911844233,0.0867228563999836,0,0,53.875204151828,53.875204151828,0.328084,0,0.0170581042204,0.126230975168,28,5,16.957,53.875204151828,0,0,0.05361220644,0,0,-0.894776,272.3, -1.4, 0.4,0,0,1024,1024,1024,1024,0,0,0,0,272.3,0,0,96,4.232,4.239,4.238,4.233,0,0,4.187,70.7,53.875204151828,0,11,AutoTakeoff,
2400,2023-06-06 16:46:32,52.206391002494,0.0867227389269046,0.328084,0.328084,53.875204151828,54.203288151828,0.328084,0,0.087750330892,0.197615491888,28,5,17.008,54.203288151828,0.328084,0,0.087750330892,0,0,-1.11847,272, 0.8, 1.3,0,0,1024,1024,1024,1024,0,0,0,0,272.3,0,0,96,4.224,4.227,4.221,4.211,0,0,3.541,70.88,54.203288151828,0.328084,11,AutoTakeoff,
2600,2023-06-06 16:46:32,52.2063908582865,0.0867226146525641,0.656168,0.656168,53.875204151828,54.531372151828,0.656168,0,0.147209322296,0.25711614996,29,5,17.008,54.531372151828,0.656168,0,0.147209322296,0,0,-0.894776,272.2, 1, 1.4,0,0,1024,1024,1024,1024,0,0,0,0,272.3,0,0,96,4.224,4.227,4.221,4.211,0,0,3.541,70.88,54.531372151828,0.656168,11,AutoTakeoff,
2800,2023-06-06 16:46:32,52.2063907533014,0.0867225694777012,0.984252,0.984252,53.875204151828,54.859456151828,0.984252,0,0.186203746116,0.29672901212,29,5,17.008,54.859456151828,0.984252,0,0.186203746116,0,0,-0.894776,272.1, 0.8, 1.9,0,0,1024,1024,1024,1024,0,0,0,0,272.3,0,0,96,4.224,4.227,4.221,4.211,0,0,3.541,70.88,54.859456151828,0.984252,11,AutoTakeoff,
3000,2023-06-06 16:46:32,52.2063907125684,0.0867225825625446,1.312336,1.312336,53.875204151828,55.187540151828,1.312336,0,0.198813326572,0.311875666148,29,5,17.008,55.187540151828,1.312336,0,0.198813326572,0,0,-0.894776,272.2, 0.1, 1.3,0,0,1024,1024,1024,1024,0,0,0,0,272.3,0,0,96,4.224,4.227,4.221,4.211,0,0,3.541,70.88,55.187540151828,1.312336,11,AutoTakeoff,
3200,2023-06-06 16:46:33,52.20639067743,0.0867226185993796,1.64042,1.64042,53.875204151828,55.515624151828,1.64042,0,0.208191279628,0.327017727,29,5,17.008,55.515624151828,1.64042,0,0.208191279628,0,0,-0.894776,272.2, -0.3, 1,0,0,1024,1024,1024,1024,0,0,0,0,272.3,0,0,96,4.224,4.227,4.221,4.211,0,0,3.541,70.88,55.515624151828,1.64042,11,AutoTakeoff,
3400,2023-06-06 16:46:33,52.2063906460999,0.086722643769093,1.968504,1.968504,53.875204151828,55.843708151828,1.968504,0,0.217515426908,0.33975722872,29,5,16.778,55.843708151828,1.968504,0,0.217515426908,0,0,-0.894776,272.2, -0.2, 1.2,0,0,1024,1024,1024,1024,0,0,0,0,272.3,0,0,96,4.187,4.194,4.193,4.189,0,0,7.181,70.7,55.843708151828,1.968504,11,AutoTakeoff,
3600,2023-06-06 16:46:33,52.2063906368169,0.086722669013728,2.296588,2.296588,53.875204151828,56.171792151828,2.296588,0,0.219352697308,0.3463418746,29,5,16.778,56.171792151828,2.296588,0,0.219352697308,0,0,-1.11847,272.2, -0.2, 1.2,0,0,1024,1024,1024,1024,0,0,0,0,272.3,0,0,96,4.187,4.194,4.193,4.189,0,0,7.181,70.7,56.171792151828,2.296588,11,AutoTakeoff,
3800,2023-06-06 16:46:33,52.2063906092867,0.0867227358107792,2.624672,2.624672,53.875204151828,56.499876151828,2.624672,0,0.226138786764,0.36434056284,29,5,16.778,56.499876151828,2.624672,0,0.226138786764,0,0,-1.11847,272.2, -0.6, 1.4,0,0,1024,1024,1024,1024,0,0,0,0,272.3,0,0,96,4.187,4.194,4.193,4.189,0,0,7.181,70.7,56.499876151828,2.624672,11,AutoTakeoff,
4000,2023-06-06 16:46:33,52.2063905799875,0.0867227823268036,2.952756,2.952756,53.875204151828,56.827960151828,2.952756,0,0.235244102016,0.37925526148,29,5,16.778,56.827960151828,2.952756,0,0.235244102016,0,0,-1.11847,272.1, -0.6, 1.4,0,0,1024,1024,1024,1024,0,0,0,0,272.3,0,0,96,4.187,4.194,4.193,4.189,0,0,7.181,70.7,56.827960151828,2.952756,11,AutoTakeoff,
4200,2023-06-06 16:46:34,52.2063905716548,0.0867228607428131,3.28084,3.28084,53.875204151828,57.156044151828,3.28084,0,0.236882553512,0.3970472568,30,5,16.778,57.156044151828,3.28084,0,0.236882553512,0,0,-1.11847,271.9, -0.4, 1,0,0,1024,1024,1024,1024,0,0,0,0,272.3,0,0,96,4.187,4.194,4.193,4.189,0,0,7.181,70.7,57.156044151828,3.28084,11,AutoTakeoff,
4400,2023-06-06 16:46:34,52.2063905421423,0.0867229238547282,3.608924,3.608924,53.875204151828,57.484128151828,3.937008,0,0.247476057788,0.41479988204,30,5,16.769,57.484128151828,3.608924,0,0.247476057788,0,0,-0.894776,272, -0.4, 0.9,0,0,1024,1024,1024,1024,0,0,0,0,272.3,0,0,96,4.189,4.196,4.195,4.192,0,0,7.323,70.88,57.484128151828,3.608924,6,P-GPS,
4600,2023-06-06 16:46:34,52.2063904656765,0.0867229818400862,3.937008,3.9698164,53.842395751828,57.812212151828,3.937008,0,0.275871727988,0.44556103788,30,5,16.769,57.812212151828,3.937008,0,0.275871727988,0,0,0,272, -0.2, 1.4,0,0,1024,1024,1024,1024,0,0,0,0,272.3,0,0,96,4.189,4.196,4.195,4.192,0,0,7.323,70.88,57.812212151828,3.937008,6,P-GPS,
4800,2023-06-06 16:46:34,52.2063903687897,0.0867230381059616,3.937008,3.9698164,53.842395751828,57.812212151828,3.937008,0,0.312105653032,0.48308400496,30,5,16.769,57.812212151828,3.937008,0,0.312105653032,0,0,0,272.2, 0, 1.6,0,0,1024,1024,1024,1024,0,0,0,0,272.3,0,0,96,4.189,4.196,4.195,4.192,0,0,7.323,70.88,57.812212151828,3.937008,6,P-GPS,
5000,2023-06-06 16:46:34,52.2063902581493,0.0867231196874617,3.937008,3.9698164,53.842395751828,57.812212151828,3.937008,0,0.3543143158,0.5273786258,30,5,16.769,57.812212151828,3.937008,0,0.3543143158,0,0,0,272.3, 0.1, 1.6,0,0,1024,1024,1024,1024,0,0,0,0,272.3,0,0,96,4.189,4.196,4.195,4.192,0,0,7.323,70.88,57.812212151828,3.937008,6,P-GPS,
5200,2023-06-06 16:46:35,52.2063901510382,0.0867232371884998,3.937008,3.9698164,53.842395751828,57.812212151828,3.937008,0,0.39713255864,0.57446852232,30,5,16.769,57.812212151828,3.937008,0,0.39713255864,0,0,0,272.4, -0.2, 1.7,0,0,1024,1024,1024,1024,0,0,0,0,272.3,0,0,96,4.189,4.196,4.195,4.192,0,0,7.323,70.88,57.812212151828,3.937008,6,P-GPS,
5400,2023-06-06 16:46:35,52.2063900828558,0.0867233520242524,3.937008,3.9698164,53.842395751828,57.812212151828,3.937008,0,0.42686353072,0.6102198358,30,5,16.814,57.812212151828,3.937008,0,0.42686353072,0,0,0,272.5, -0.3, 1.8,0,0,1024,1024,1024,1024,0,0,0,0,272.3,0,0,96,4.188,4.196,4.194,4.19,0,0,6.715,70.88,57.812212151828,3.937008,6,P-GPS,
5600,2023-06-06 16:46:35,52.2063900464529,0.0867234846214394,3.937008,3.9698164,53.842395751828,57.812212151828,3.937008,0,0.44745408256,0.64270671348,30,5,16.814,57.812212151828,3.937008,0,0.44745408256,0,0,0,272.4, -0.2, 1.8,0,0,1024,1024,1024,1024,0,0,0,0,272.3,0,0,96,4.188,4.196,4.194,4.19,0,0,6.715,70.88,57.812212151828,3.937008,6,P-GPS,
5800,2023-06-06 16:46:35,52.2063900195902,0.0867236301697905,3.937008,3.9698164,53.842395751828,57.812212151828,3.937008,0,0.46711615668,0.67669293504,31,5,16.814,57.812212151828,3.937008,0,0.46711615668,0,0,0,272.4, -0.4, 1.6,0,0,1024,1024,1024,1024,0,0,0,0,272.3,0,0,96,4.188,4.196,4.194,4.19,0,0,6.715,70.88,57.812212151828,3.937008,6,P-GPS,
6000,2023-06-06 16:46:35,52.2063900010608,0.0867237869568129,3.937008,3.9698164,53.842395751828,57.812212151828,3.937008,0,0.4865813804,0.71239503592,31,5,16.814,57.812212151828,3.937008,0,0.4865813804,0,0,0,272.4, -0.6, 1.3,0,0,1024,1024,1024,1024,0,0,0,0,272.3,0,0,96,4.188,4.196,4.194,4.19,0,0,6.715,70.88,57.812212151828,3.937008,6,P-GPS,
6200,2023-06-06 16:46:36,52.2063899754309,0.0867239720563226,3.937008,3.9698164,53.842395751828,57.812212151828,3.937008,0,0.51302823164,0.7548228588,31,5,16.814,57.812212151828,3.937008,0,0.51302823164,0,0,0,272.4, -0.7, 0.9,0,0,1024,1024,1024,1024,0,0,0,0,272.3,0,0,96,4.188,4.196,4.194,4.19,0,0,6.715,70.88,57.812212151828,3.937008,6,P-GPS,
6400,2023-06-06 16:46:36,52.2063898931686,0.0867241785676724,3.937008,3.9698164,53.842395751828,57.812212151828,3.937008,0,0.5617126164,0.8098917582,31,5,16.765,57.812212151828,3.937008,0,0.5617126164,0,0,0,272.3, -0.4, 0.5,0,0,1024,1024,1024,1024,0,0,0,0,272.3,0,0,96,4.185,4.194,4.193,4.189,0,0,7.018,70.88,57.812212151828,3.937008,6,P-GPS,
6600,2023-06-06 16:46:36,52.206389726857,0.0867244213476116,3.937008,3.9698164,53.842395751828,57.812212151828,3.937008,0,0.641732304,0.89130908364,31,5,16.765,57.812212151828,3.937008,0,0.641732304,0,0,0,272.3, -0.6, 0.9,0,0,1024,1024,1358,1024,0,0,51,0,272.3,0,0,96,4.185,4.194,4.193,4.189,0,0,7.018,70.88,57.812212151828,3.937008,6,P-GPS,
6800,2023-06-06 16:46:36,52.2063895032493,0.0867247048560482,3.937008,3.9698164,53.842395751828,57.812212151828,3.937008,0,0.74456695296,0.99462273524,31,5,16.765,57.812212151828,3.937008,0,0.74456695296,0,0,0,272.3, -0.5, 0.9,0,0,1024,1024,1684,1024,0,0,100,0,272.3,0,0,96,4.185,4.194,4.193,4.189,0,0,7.018,70.88,57.812212151828,3.937008,6,P-GPS,
7000,2023-06-06 16:46:36,52.2063892455683,0.0867249550888262,4.265092,4.2979004,53.842395751828,58.140296151828,4.265092,0,0.85391406932,1.10402562588,31,5,16.765,58.140296151828,4.265092,0,0.85391406932,0,0,-1.342164,272.1, -0.2, 1.2,0,0,1024,1024,1684,1024,0,0,100,0,272.3,0,0,96,4.185,4.194,4.193,4.189,0,0,7.018,70.88,58.140296151828,4.265092,6,P-GPS,
7200,2023-06-06 16:46:37,52.206388998576,0.0867251854339703,4.92126,4.9540684,53.842395751828,58.796464151828,4.92126,0,0.95760501752,1.20782156096,31,5,16.765,58.796464151828,4.92126,0,0.95760501752,0,0,-3.802798,272.2, 0.1, 1.6,0,0,1024,1024,1684,1024,0,0,100,0,272.3,0,0,96,4.185,4.194,4.193,4.189,0,0,7.018,70.88,58.796464151828,4.92126,6,P-GPS,
7400,2023-06-06 16:46:37,52.2063887652028,0.0867253905600356,6.56168,6.5944884,53.842395751828,60.436884151828,6.56168,0,1.0541174878,1.30453416248,31,5,16.76,60.436884151828,6.56168,0,1.0541174878,0,0,-6.039738,272.2, 0.5, 1.6,0,0,1024,1024,1669,1024,0,0,98,0,272.3,0,0,96,4.117,4.126,4.124,4.119,0,0,6.973,71.06,60.436884151828,6.56168,6,P-GPS,
7600,2023-06-06 16:46:37,52.206388601713,0.0867255337646306,8.858268,8.8910764,53.842395751828,62.733472151828,8.858268,0,1.12169294928,1.37223101504,31,5,16.76,62.733472151828,8.858268,0,1.12169294928,0,0,-8.500372,272.4, 0.8, 1.4,0,0,1024,1024,1672,1024,0,0,98,0,272.3,0,0,96,4.117,4.126,4.124,4.119,0,0,6.973,71.06,62.733472151828,8.858268,6,P-GPS,
7800,2023-06-06 16:46:37,52.2063884857529,0.0867256630722585,12.795276,12.8280844,53.842395751828,66.670480151828,11.811024,0,1.17288061496,1.423474455,31,5,16.76,66.670480151828,12.795276,0,1.17288061496,0,0,-10.961006,272, 1.3, 1.5,0,0,1024,1024,1669,1024,0,0,98,0,272.3,0,0,96,4.117,4.126,4.124,4.119,0,0,6.973,71.06,66.670480151828,12.795276,6,P-GPS,
8000,2023-06-06 16:46:37,52.2063883888409,0.0867257738609361,17.060368,17.0931764,53.842395751828,70.935572151828,15.091864,0,1.21598101004,1.46664702856,31,5,16.76,70.935572151828,17.060368,0,1.21598101004,0,0,-12.526864,272.3, 1.4, 0.6,0,0,1024,1024,1666,1024,0,0,97,0,272.3,0,0,96,4.117,4.126,4.124,4.119,0,0,6.973,71.06,70.935572151828,17.060368,6,P-GPS,
8200,2023-06-06 16:46:38,52.2063882350449,0.0867258687898329,20.997376,21.0301844,53.842395751828,74.872580151828,19.028872,0,1.2749016156,1.5266404688,31,5,16.76,74.872580151828,20.997376,0,1.2749016156,0,0,-12.974252,272, 1.2, 2.4,0,0,1024,1024,1662,1024,0,0,97,0,272.3,0,0,96,4.117,4.126,4.124,4.119,0,0,6.973,71.06,74.872580151828,20.997376,6,P-GPS,
8400,2023-06-06 16:46:38,52.2063880853598,0.086725919150229,25.262468,25.2952764,53.842395751828,79.137672151828,22.96588,0,1.3275426934,1.58240162544,31,5,16.283,79.137672151828,25.262468,0,1.3275426934,0,0,-12.750558,272.5, 1.6, 1.1,0,0,1024,1024,1625,1024,0,0,91,0,272.3,0,0,96,4.079,4.09,4.103,4.105,0,0,13.241,70.88,79.137672151828,25.262468,6,P-GPS,
8600,2023-06-06 16:46:38,52.2063878742187,0.086725898671086,28.871392,28.9042004,53.842395751828,82.746596151828,26.574804,0.223694,1.3922572624,1.65957026308,31,5,16.283,82.746596151828,28.871392,0.223694,1.3922572624,-0.223694,0,-12.30317,272.5, 2.4, 4.5,0,0,1024,1024,1595,1024,0,0,87,0,272.3,0,0,96,4.079,4.09,4.103,4.105,0,0,13.241,70.88,82.746596151828,28.871392,6,P-GPS,
8800,2023-06-06 16:46:38,52.2063876119153,0.0867258047107088,32.480316,32.5131244,53.842395751828,86.355520151828,30.511812,0.223694,1.46749020444,1.75755254968,31,5,16.283,86.355520151828,32.480316,0.223694,1.46749020444,-0.223694,0,-11.408394,272.9, 1.9, 6.4,0,0,1024,1024,1565,1024,0,0,82,0,272.3,0,0,96,4.079,4.09,4.103,4.105,0,0,13.241,70.88,86.355520151828,32.480316,6,P-GPS,
9000,2023-06-06 16:46:38,52.2063872084247,0.0867255683740241,37.72966,37.7624684,53.842395751828,91.604864151828,34.44882,0.223694,1.58022314768,1.913960035,31,5,16.283,91.604864151828,37.72966,0.223694,1.58022314768,-0.223694,0,-10.06623,272.9, 2.1, 7.8,0,0,1024,1024,1156,1024,0,0,20,0,272.3,0,0,96,4.079,4.09,4.103,4.105,0,0,13.241,70.88,91.604864151828,37.72966,6,P-GPS,
9200,2023-06-06 16:46:39,52.2063869759471,0.0867252999704735,40.026248,40.0590564,53.842395751828,93.901452151828,37.401576,0,1.6385171128,2.0178642378,31,5,16.283,93.901452151828,40.026248,0.223694,1.6385171128,0,0,-8.724066,272.9, 2.9, 7.9,0,0,1024,1024,1024,1024,0,0,0,0,272.3,0,0,96,4.079,4.09,4.103,4.105,0,0,13.241,70.88,93.901452151828,40.026248,6,P-GPS,
9400,2023-06-06 16:46:39,52.2063868300982,0.0867249989727666,41.666668,41.6994764,53.842395751828,95.541872151828,39.698164,0,1.6687828618,2.1036582038,31,5,16.533,95.541872151828,41.666668,0.223694,1.6687828618,0,0,-6.487126,273, 4.1, 7.8,0,0,1024,1024,1024,1024,0,0,0,0,272.3,0,0,96,4.165,4.161,4.151,4.151,0,0,11.336,71.24,95.541872151828,41.666668,6,P-GPS,
9600,2023-06-06 16:46:39,52.2063867790329,0.086724710697309,42.322836,42.3556444,53.842395751828,96.198040151828,38.057744,0,1.66993443664,2.1707513818,31,5,16.533,96.198040151828,42.322836,0.223694,1.66993443664,0,0,-4.250186,272.8, 4, 7.7,0,0,1024,1024,1024,1024,0,0,0,0,272.3,0,0,96,4.165,4.161,4.151,4.151,0,0,11.336,71.24,96.198040151828,42.322836,6,P-GPS,
9800,2023-06-06 16:46:39,52.206386803556,0.0867243612434805,42.65092,42.6837284,53.842395751828,96.526124151828,38.713912,0,1.64401580064,2.24939639744,31,5,16.533,96.526124151828,42.65092,0.223694,1.66993443664,0,0,-1.789552,272.7, 5.9, 7.8,0,0,1024,1024,1684,1024,0,0,100,0,272.3,0,0,96,4.165,4.161,4.151,4.151,0,0,11.336,71.24,96.526124151828,42.65092,6,P-GPS,
10000,2023-06-06 16:46:39,52.2063869696834,0.0867240715691958,42.979004,43.0118124,53.842395751828,96.854208151828,39.041996,0.223694,1.5726214414,2.33810046852,31,5,16.533,96.854208151828,42.979004,0.223694,1.66993443664,0.223694,0,-1.789552,273.8, 4.7, 4.3,0,0,1024,1024,1684,1024,0,0,100,0,272.3,0,0,96,4.165,4.161,4.151,4.151,0,0,11.336,71.24,96.854208151828,42.979004,6,P-GPS,
10200,2023-06-06 16:46:40,52.2063872029882,0.0867240533403209,43.963256,43.9960644,53.842395751828,97.838460151828,39.698164,0.223694,1.48803810536,2.42332028752,31,5,16.533,97.838460151828,43.963256,0.223694,1.66993443664,0.223694,0,-4.026492,274.5, 5.2, 3.9,0,0,1024,1024,1684,1024,0,0,100,0,272.3,0,0,96,4.165,4.161,4.151,4.151,0,0,11.336,71.24,97.838460151828,43.963256,6,P-GPS,
10400,2023-06-06 16:46:40,52.2063873821563,0.0867242837108028,45.603676,45.6364844,53.842395751828,99.478880151828,41.666668,0.3131716,1.4338747178,2.50654207496,31,5,16.899,99.478880151828,45.603676,0.3131716,1.66993443664,0.223694,0.223694,-6.487126,274.7, 5.3, 5.3,0,0,1024,1024,1684,1024,0,0,100,0,272.3,0,0,96,4.113,4.124,4.125,4.118,0,0,5.569,71.42,99.478880151828,45.603676,6,P-GPS,
10600,2023-06-06 16:46:40,52.2063876498544,0.0867247195913504,48.556432,48.5892404,53.842395751828,102.43163615183,43.963256,0.3131716,1.36439308828,2.64451780116,31,5,16.899,102.43163615183,48.556432,0.3131716,1.66993443664,0.223694,0.223694,-8.94776,274.7, 3.8, 3.9,0,0,1024,1024,1684,1024,0,0,100,0,272.3,0,0,96,4.113,4.124,4.125,4.118,0,0,5.569,71.42,102.43163615183,48.556432,6,P-GPS,
10800,2023-06-06 16:46:40,52.2063879154261,0.0867251608361071,52.49344,52.5262484,53.842395751828,106.36864415183,46.916012,0.3131716,1.30701447752,2.78279864548,31,5,16.899,106.36864415183,52.49344,0.3131716,1.66993443664,0.223694,0.223694,-10.961006,278.5, 4.5, 2.5,0,0,1024,1024,1565,1024,0,0,82,0,272.3,0,0,96,4.113,4.124,4.125,4.118,0,0,5.569,71.42,106.36864415183,52.49344,6,P-GPS,
11000,2023-06-06 16:46:40,52.206388039964,0.0867256079033396,56.758532,56.7913404,53.842395751828,110.63373615183,50.524936,0.223694,1.30827760092,2.89259851776,31,5,16.899,110.63373615183,56.758532,0.3131716,1.66993443664,0,0.223694,-12.750558,279.2, 3.7, 3.2,0,0,1024,1024,1024,1024,0,0,0,0,272.3,0,0,96,4.113,4.124,4.125,4.118,0,0,5.569,71.42,110.63373615183,56.758532,6,P-GPS,
11200,2023-06-06 16:46:41,52.2063880823135,0.0867259923758998,60.039372,60.0721804,53.842395751828,113.91457615183,54.13386,0,1.33687996404,2.97994104024,31,5,16.899,113.91457615183,60.039372,0.3131716,1.66993443664,0,0,-11.855782,279.4, 3.8, 3.7,0,0,1024,1024,1024,1024,0,0,0,0,272.3,0,0,96,4.113,4.124,4.125,4.118,0,0,5.569,71.42,113.91457615183,60.039372,6,P-GPS,
11400,2023-06-06 16:46:41,52.2063880167391,0.086726170678735,62.664044,62.6968524,53.842395751828,116.53924815183,57.086616,0,1.37812668452,3.02643382388,31,5,16.262,116.53924815183,62.664044,0.3131716,1.66993443664,0,0,-9.618842,279.6, 3.7, 4.9,0,0,1024,1024,1024,1024,0,0,0,0,272.3,0,0,95,4.063,4.093,4.142,4.153,0,0,12.842,71.24,116.53924815183,62.664044,6,P-GPS,
11600,2023-06-06 16:46:41,52.2063878723495,0.086726217862719,64.304464,64.3372724,53.842395751828,118.17966815183,59.711288,0,1.42852038692,3.08016085972,31,5,16.262,118.17966815183,64.304464,0.3131716,1.66993443664,0,0,-7.158208,279.7, 4.2, 5.7,0,0,1024,1024,1024,1024,0,0,0,0,272.3,0,0,95,4.063,4.093,4.142,4.153,0,0,12.842,71.24,118.17966815183,64.304464,6,P-GPS,
11800,2023-06-06 16:46:41,52.2063876891148,0.0867260970009137,65.6168,65.6496084,53.842395751828,119.49200415183,61.023624,0,1.47280844608,3.15226716124,31,5,16.262,119.49200415183,65.6168,0.3131716,1.66993443664,0,0,-4.697574,279.7, 5.3, 6.3,0,0,1024,1024,1024,1024,0,0,0,0,272.3,0,0,95,4.063,4.093,4.142,4.153,0,0,12.842,71.24,119.49200415183,65.6168,6,P-GPS,
12000,2023-06-06 16:46:41,52.2063875151891,0.0867258807309757,66.272968,66.3057764,53.842395751828,120.14817215183,61.679792,0,1.5066601532,3.23205062836,31,5,16.262,120.14817215183,66.272968,0.3131716,1.66993443664,0,0,-2.23694,279.4, 6.8, 6.9,0,0,1024,1024,1024,1024,0,0,0,0,272.3,0,0,95,4.063,4.093,4.142,4.153,0,0,12.842,71.24,120.14817215183,66.272968,6,P-GPS,
12200,2023-06-06 16:46:42,52.206387381294,0.0867256930365151,66.601052,66.6338604,53.842395751828,120.47625615183,61.679792,0,1.5331037236,3.2964567984,31,5,16.262,120.47625615183,66.601052,0.3131716,1.66993443664,0,0,-0.447388,279.2, 6.2, 6.1,0,0,1024,1024,1024,1024,0,0,0,0,272.3,0,0,95,4.063,4.093,4.142,4.153,0,0,12.842,71.24,120.47625615183,66.601052,6,P-GPS,
12400,2023-06-06 16:46:42,52.2063873278163,0.0867256494535716,66.601052,66.6338604,53.842395751828,120.47625615183,61.351708,0,1.54706041696,3.3182743844,31,5,16.835,120.47625615183,66.601052,0.3131716,1.66993443664,0,0,0,279.3, 6, 5.3,0,0,1024,1024,1024,1024,0,0,0,0,272.3,0,0,95,4.223,4.224,4.216,4.195,0,0,7.86,71.78,120.47625615183,66.601052,6,P-GPS,
12600,2023-06-06 16:46:42,52.2063873094534,0.086725747820123,66.601052,66.6338604,53.842395751828,120.47625615183,61.351708,0,1.56203088988,3.3412402644,31,5,16.835,120.47625615183,66.601052,0.3131716,1.66993443664,0,0,0,279.5, 5.5, 3.8,0,0,1456,1024,1024,1024,65,0,0,0,272.3,0,0,95,4.223,4.224,4.216,4.195,0,0,7.86,71.78,120.47625615183,66.601052,6,P-GPS,
12800,2023-06-06 16:46:42,52.2063872213375,0.0867259333778993,66.929136,66.9619444,53.842395751828,120.80434015183,61.351708,0,1.60847118008,3.3937337044,31,5,16.835,120.80434015183,66.929136,0.3131716,1.66993443664,0,0,0,279.8, 1.7, 2.2,0,0,1684,1024,1024,1024,100,0,0,0,272.3,0,0,95,4.223,4.224,4.216,4.195,0,0,7.86,71.78,120.80434015183,66.929136,6,P-GPS,
13000,2023-06-06 16:46:42,52.2063870206225,0.0867257750142476,66.929136,66.9619444,53.842395751828,120.80434015183,61.351708,0.447388,1.6611877172,3.475065728,31,5,16.835,120.80434015183,66.929136,0.447388,1.66993443664,0,-0.447388,0,279.2, -19.1, 0.2,0,0,1684,1024,1024,1024,100,0,0,0,272.3,0,0,95,4.223,4.224,4.216,4.195,0,0,7.86,71.78,120.80434015183,66.929136,6,P-GPS,
13200,2023-06-06 16:46:43,52.2063867730926,0.0867236833322094,66.601052,66.6338604,53.842395751828,120.47625615183,61.351708,2.460634,1.63187669264,3.9513780792,31,5,16.835,120.80434015183,66.929136,2.460634,1.66993443664,0,-2.460634,0,278.4, -26.1, 1.8,0,0,1684,1024,1024,1024,100,0,0,0,272.3,0,0,95,4.223,4.224,4.216,4.195,0,0,7.86,71.78,120.47625615183,66.601052,6,P-GPS,
13400,2023-06-06 16:46:43,52.2063866293789,0.0867186192720406,66.601052,66.6338604,53.842395751828,120.47625615183,61.351708,4.697574,1.9297572796,5.0848754908,31,5,16.702,120.80434015183,66.929136,4.697574,1.9297572796,0.223694,-4.697574,0,277.7, -23.8, 4,0,0,1676,1024,1024,1024,99,0,0,0,272.3,0,0,95,4.148,4.166,4.164,4.152,0,0,5.74,71.78,120.47625615183,66.601052,6,P-GPS,
13600,2023-06-06 16:46:43,52.2063869128381,0.0867107770873335,66.601052,66.6338604,53.842395751828,120.47625615183,53.805776,6.7331894,3.13419301368,6.8413059932,31,5,16.702,120.80434015183,66.929136,6.7331894,3.13419301368,0.671082,-6.71082,0,279.7, -23, 6.7,0,0,1684,1024,1024,1024,100,0,0,0,272.3,0,0,95,4.148,4.166,4.164,4.152,0,0,5.74,71.78,120.47625615183,66.601052,6,P-GPS,
13800,2023-06-06 16:46:43,52.2063873784618,0.0867003929788002,66.601052,66.6338604,53.842395751828,120.47625615183,54.790028,8.7911742,5.2249673588,9.1692588236,31,5,16.702,120.80434015183,66.929136,8.7911742,5.2249673588,1.11847,-8.724066,0,278.9, -23.3, 8,0,0,1667,1024,1024,1024,97,0,0,0,272.3,0,0,95,4.148,4.166,4.164,4.152,0,0,5.74,71.78,120.47625615183,66.601052,6,P-GPS,
14000,2023-06-06 16:46:43,52.206388319376,0.0866874829633821,66.601052,66.6338604,53.842395751828,120.47625615183,55.77428,10.625465,7.9903545864,12.076115872,31,5,16.702,120.80434015183,66.929136,10.625465,7.9903545864,1.565858,-10.513618,0,279.2, -21.5, 7.4,0,0,1617,1024,1024,1024,90,0,0,0,272.3,0,0,95,4.148,4.166,4.164,4.152,0,0,5.74,71.78,120.47625615183,66.601052,6,P-GPS,
14200,2023-06-06 16:46:44,52.2063896571689,0.0866723309802601,66.601052,66.6338604,53.842395751828,120.47625615183,56.758532,12.2360618,11.3221132232,15.4988850104,31,5,16.702,120.80434015183,66.929136,12.2360618,11.3221132232,2.013246,-12.079476,0,278.9, -20.1, 6.7,0,0,1024,1024,1024,1024,0,0,0,0,272.3,0,0,95,4.148,4.166,4.164,4.152,0,0,5.74,71.78,120.47625615183,66.601052,6,P-GPS,
14400,2023-06-06 16:46:44,52.2063913709368,0.0866553164689254,66.601052,66.601052,53.875204151828,120.47625615183,58.070868,13.6005952,15.112041166,19.3541344776,31,5,16.583,120.80434015183,66.929136,13.6005952,15.112041166,2.23694,-13.42164,0,279.7, -5.1, 5.6,0,0,1024,1024,1024,1024,0,0,0,0,272.3,0,0,95,4.137,4.143,4.147,4.142,0,0,8.365,71.96,120.47625615183,66.601052,6,P-GPS,
14600,2023-06-06 16:46:44,52.2063931635572,0.0866379791002619,66.601052,66.601052,53.875204151828,120.47625615183,65.6168,12.6834498,19.0015754112,23.2853353908,31,5,16.583,120.80434015183,66.929136,13.6005952,19.0015754112,2.013246,-12.526864,0,280, 26.7, 1.9,0,0,1024,1024,1024,1024,0,0,0,0,272.3,0,0,95,4.137,4.143,4.147,4.142,0,0,8.365,71.96,120.47625615183,66.601052,6,P-GPS,
14800,2023-06-06 16:46:44,52.2063945469802,0.0866230562137368,66.601052,66.5682436,53.908012551828,120.47625615183,65.288716,10.1557076,22.3578747312,26.6598433728,31,5,16.583,120.80434015183,66.929136,13.6005952,22.3578747312,1.342164,-10.06623,0,281.2, 28.7, 3.6,0,0,1403,1024,1024,1024,57,0,0,0,272.3,0,0,95,4.137,4.143,4.147,4.142,0,0,8.365,71.96,120.47625615183,66.601052,6,P-GPS,
15000,2023-06-06 16:46:44,52.2063955024759,0.0866114051881264,66.601052,66.5354352,53.940820951828,120.47625615183,56.430448,7.6503348,24.978839382,29.2880914884,31,5,16.583,120.80434015183,66.929136,13.6005952,24.978839382,0.894776,-7.605596,0,281.3, 28.3, 4.7,0,0,1684,1024,1024,1024,100,0,0,0,272.3,0,0,95,4.137,4.143,4.147,4.142,0,0,8.365,71.96,120.47625615183,66.601052,6,P-GPS,
15200,2023-06-06 16:46:45,52.206396103324,0.086602793865316,66.601052,66.5354352,53.940820951828,120.47625615183,56.430448,5.6370888,26.9143381316,31.2259196344,31,5,16.583,120.80434015183,66.929136,13.6005952,26.9143381316,0.671082,-5.59235,0,281.1, 16.9, 3.9,0,0,1610,1024,1024,1024,89,0,0,0,272.3,0,0,95,4.137,4.143,4.147,4.142,0,0,8.365,71.96,120.47625615183,66.601052,6,P-GPS,
15400,2023-06-06 16:46:45,52.2063964992979,0.0865958767431539,66.601052,66.5354352,53.940820951828,120.47625615183,63.648296,5.1673314,28.4670940868,32.779200524,31,5,16.603,120.80434015183,66.929136,13.6005952,28.4670940868,0.447388,-5.144962,0,280.3, 0.7, 4.9,0,0,1024,1024,1024,1024,0,0,0,0,272.3,0,0,95,4.134,4.144,4.141,4.14,0,0,8.424,71.96,120.47625615183,66.601052,6,P-GPS,
15600,2023-06-06 16:46:45,52.2063968623967,0.086589409377537,66.601052,66.5354352,53.940820951828,120.47625615183,64.304464,4.4962494,29.91880017,34.231300308,31,5,16.603,120.80434015183,66.929136,13.6005952,29.91880017,0.447388,-4.47388,0,281.6, 25, 5.5,0,0,1024,1024,1024,1024,0,0,0,0,272.3,0,0,95,4.134,4.144,4.141,4.14,0,0,8.424,71.96,120.47625615183,66.601052,6,P-GPS,
15800,2023-06-06 16:46:45,52.2063970465266,0.086584934864335,66.601052,66.5354352,53.940820951828,120.47625615183,64.960632,2.460634,30.9214904908,35.233925012,31,5,16.603,120.80434015183,66.929136,13.6005952,30.9214904908,0,-2.460634,0,283.1, 25.7, 9,0,0,1024,1024,1024,1024,0,0,0,0,272.3,0,0,95,4.134,4.144,4.141,4.14,0,0,8.424,71.96,120.47625615183,66.601052,6,P-GPS,
16000,2023-06-06 16:46:45,52.2063971252888,0.0865829917231418,66.601052,66.5354352,53.940820951828,120.47625615183,64.304464,0.894776,31.3568907672,35.66929248,31,5,16.603,120.80434015183,66.929136,13.6005952,31.3568907672,0,-0.894776,0,281.1, 14.2, 8.2,0,0,1024,1024,1024,1024,0,0,0,0,272.3,0,0,95,4.134,4.144,4.141,4.14,0,0,8.424,71.96,120.47625615183,66.601052,6,P-GPS,
16200,2023-06-06 16:46:46,52.2063973041276,0.0865824498065211,66.601052,66.5354352,53.940820951828,120.47625615183,64.304464,0.3131716,31.482284472,35.80708776,31,5,16.603,120.80434015183,66.929136,13.6005952,31.482284472,0.223694,-0.223694,0,280, 7.5, 5.9,0,0,1024,1024,1024,1024,0,0,0,0,272.3,0,0,95,4.134,4.144,4.141,4.14,0,0,8.424,71.96,120.47625615183,66.601052,6,P-GPS,
16400,2023-06-06 16:46:46,52.206397513403,0.0865823349087343,66.929136,66.8635192,53.940820951828,120.80434015183,64.960632,0.223694,31.5133868352,35.88746834,31,5,16.568,120.80434015183,66.929136,13.6005952,31.5133868352,0.223694,0,0,281.8, 5.5, 5.2,0,0,1024,1024,1024,1024,0,0,0,0,272.3,0,0,95,4.146,4.156,4.154,4.15,0,0,8.404,71.96,120.80434015183,66.929136,6,P-GPS,
16600,2023-06-06 16:46:46,52.2063976892686,0.0865823386272903,66.929136,66.8635192,53.940820951828,120.80434015183,65.6168,0,31.5172910348,35.951772804,31,5,16.568,120.80434015183,66.929136,13.6005952,31.5172910348,0,0,0,282, 5.2, 5.2,0,0,1024,1024,1024,1024,0,0,0,0,272.3,0,0,95,4.146,4.156,4.154,4.15,0,0,8.404,71.96,120.80434015183,66.929136,6,P-GPS,
16800,2023-06-06 16:46:46,52.2063978425415,0.0865824378120813,66.929136,66.8635192,53.940820951828,120.80434015183,65.944884,0,31.4994432652,36.011812176,31,5,16.568,120.80434015183,66.929136,13.6005952,31.5172910348,0,0,0,282.1, 5.1, 4.9,0,0,1684,1024,1024,1024,100,0,0,0,272.3,0,0,95,4.146,4.156,4.154,4.15,0,0,8.404,71.96,120.80434015183,66.929136,6,P-GPS,
17000,2023-06-06 16:46:46,52.2063979992445,0.0865825742243703,66.929136,66.8635192,53.940820951828,120.80434015183,66.272968,0,31.4734590124,36.076772808,31,5,16.568,120.80434015183,66.929136,13.6005952,31.5172910348,0,0,0,282.1, -5.9, 0.6,0,0,1684,1024,1024,1024,100,0,0,0,272.3,0,0,95,4.146,4.156,4.154,4.15,0,0,8.404,71.96,120.80434015183,66.929136,6,P-GPS,
17200,2023-06-06 16:46:47,52.2063981189983,0.0865816959741504,66.929136,66.8635192,53.940820951828,120.80434015183,65.944884,1.565858,31.6726716172,36.2778883,31,5,16.568,120.80434015183,66.929136,13.6005952,31.6726716172,0,-1.565858,0,280.6, -25.2, 2.2,0,0,1024,1024,1024,1024,0,0,0,0,272.3,0,0,95,4.146,4.156,4.154,4.15,0,0,8.404,71.96,120.80434015183,66.929136,6,P-GPS,
17400,2023-06-06 16:46:47,52.2063984586682,0.0865781144316172,66.929136,66.8635192,53.940820951828,120.80434015183,66.272968,3.6014734,32.480808126,37.08825578,31,5,16.622,120.80434015183,66.929136,13.6005952,32.480808126,0.447388,-3.579104,0,280.7, -7.2, 2.3,0,0,1024,1024,1024,1024,0,0,0,0,272.3,0,0,95,4.148,4.153,4.153,4.167,0,0,7.79,72.14,120.80434015183,66.929136,6,P-GPS,
17600,2023-06-06 16:46:47,52.2063988312699,0.0865732910172152,66.929136,66.8307108,53.973629351828,120.80434015183,56.430448,3.131716,33.566930208,38.175198072,31,5,16.622,120.80434015183,66.929136,13.6005952,33.566930208,0.223694,-3.131716,0,282.8, 27.4, 5,0,0,1024,1024,1024,1024,0,0,0,0,272.3,0,0,95,4.148,4.153,4.153,4.167,0,0,7.79,72.14,120.80434015183,66.929136,6,P-GPS,
17800,2023-06-06 16:46:47,52.2063989815492,0.0865704871701166,66.929136,66.8307108,53.973629351828,120.80434015183,56.102364,1.11847,34.19619532,38.804463184,31,5,16.622,120.80434015183,66.929136,13.6005952,34.19619532,0,-1.11847,0,283.1, 21.5, 7.5,0,0,1024,1024,1024,1024,0,0,0,0,272.3,0,0,95,4.148,4.153,4.153,4.167,0,0,7.79,72.14,120.80434015183,66.929136,6,P-GPS,
18000,2023-06-06 16:46:47,52.2063990552922,0.0865698200667725,66.929136,66.8307108,53.973629351828,120.80434015183,55.77428,0,34.34711396,38.956037992,31,5,16.622,120.80434015183,66.929136,13.6005952,34.34711396,0,0,0,280.5, 10.2, 6.1,0,0,1024,1024,1024,1024,0,0,0,0,272.3,0,0,95,4.148,4.153,4.153,4.167,0,0,7.79,72.14,120.80434015183,66.929136,6,P-GPS,
18200,2023-06-06 16:46:48,52.2063991431053,0.0865700495687758,66.929136,66.8307108,53.973629351828,120.80434015183,56.102364,0.223694,34.298557528,39.016405448,31,5,16.622,120.80434015183,66.929136,13.6005952,34.34711396,0,0.223694,0,281.3, 4.8, 6,0,0,1024,1024,1024,1024,0,0,0,0,272.3,0.2,0,95,4.148,4.153,4.153,4.167,0,0,7.79,72.14,120.80434015183,66.929136,6,P-GPS,
18400,2023-06-06 16:46:48,52.2063992779176,0.086570466536325,66.929136,66.8307108,53.973629351828,120.80434015183,64.632548,0.223694,34.209646764,39.122048496,31,5,16.501,120.80434015183,66.929136,13.6005952,34.34711396,0,0.223694,0,282.4, 3.8, 5.2,0,0,1024,1024,1024,1024,0,0,0,0,272.3,1.8,0,95,4.152,4.16,4.163,4.157,0,0,8.594,72.14,120.80434015183,66.929136,6,P-GPS,
18600,2023-06-06 16:46:48,52.2063994048377,0.0865709206335155,66.929136,66.8307108,53.973629351828,120.80434015183,64.960632,0.223694,34.1125339,39.233597056,31,5,16.501,120.80434015183,66.929136,13.6005952,34.34711396,0,0.223694,0,282.1, 2.9, 4.5,0,0,1024,1024,1024,1024,0,0,0,0,272.3,4.5,0,95,4.152,4.16,4.163,4.157,0,0,8.594,72.14,120.80434015183,66.929136,6,P-GPS,
18800,2023-06-06 16:46:48,52.2063995216873,0.0865713419906383,66.929136,66.8307108,53.973629351828,120.80434015183,65.288716,0,34.022638884,39.336943516,31,5,16.501,120.80434015183,66.929136,13.6005952,34.34711396,0,0,0,281.9, 2.4, 4.4,0,0,1024,1024,1024,1024,0,0,0,0,272.3,7.4,0,95,4.152,4.16,4.163,4.157,0,0,8.594,72.14,120.80434015183,66.929136,6,P-GPS,
19000,2023-06-06 16:46:48,52.2063996077002,0.0865716407053126,66.929136,66.8307108,53.973629351828,120.80434015183,65.288716,0,33.958990588,39.410762416,31,5,16.501,120.80434015183,66.929136,13.6005952,34.34711396,0,0,0,281.8, 2.8, 4.7,0,0,1024,1024,1024,1024,0,0,0,0,272.3,9.3,0,95,4.152,4.16,4.163,4.157,0,0,8.594,72.14,120.80434015183,66.929136,6,P-GPS,
19200,2023-06-06 16:46:49,52.2063996755888,0.0865718373973506,66.929136,66.8307108,53.973629351828,120.80434015183,65.288716,0,33.91732392,39.461287352,31,5,16.501,120.80434015183,66.929136,13.6005952,34.34711396,0,0,0,282.2, 3.3, 3.9,0,0,1024,1024,1024,1024,0,0,0,0,272.3,9.9,0,95,4.152,4.16,4.163,4.157,0,0,8.594,72.14,120.80434015183,66.929136,6,P-GPS,
19400,2023-06-06 16:46:49,52.2063996541945,0.0865719887677406,66.929136,66.8307108,53.973629351828,120.80434015183,65.288716,0,33.8828751,39.496064256,31,5,16.656,120.80434015183,66.929136,13.6005952,34.34711396,0,0,0,282.1, 2.6, 4.9,0,0,1024,1024,1024,1024,0,0,0,0,272.3,9.5,0,95,4.152,4.158,4.153,4.149,0,0,7.047,72.32,120.80434015183,66.929136,6,P-GPS,
19600,2023-06-06 16:46:49,52.206399629101,0.0865720712330094,66.929136,66.8307108,53.973629351828,120.80434015183,65.288716,0,33.863846228,39.516405464,31,5,16.656,120.80434015183,66.929136,13.6005952,34.34711396,0,0,0,282.1, 2.7, 5,0,0,1024,1024,1024,1024,0,0,0,0,272.3,7.3,0,95,4.152,4.158,4.153,4.149,0,0,7.047,72.32,120.80434015183,66.929136,6,P-GPS,
19800,2023-06-06 16:46:49,52.2063996250718,0.0865721010793137,66.929136,66.8307108,53.973629351828,120.80434015183,64.960632,0,33.856956464,39.523295228,31,5,16.656,120.80434015183,66.929136,13.6005952,34.34711396,0,0,0,282, 2.6, 5.2,0,0,1024,1024,1024,1024,0,0,0,0,272.3,4.6,0,95,4.152,4.158,4.153,4.149,0,0,7.047,72.32,120.80434015183,66.929136,6,P-GPS,
20000,2023-06-06 16:46:49,52.2063995759512,0.0865720600493825,66.929136,66.8307108,53.973629351828,120.80434015183,64.960632,0,33.864502396,39.543636436,31,5,16.656,120.80434015183,66.929136,13.6005952,34.34711396,0,0,0,282.1, 3.1, 5.7,0,0,1024,1024,1024,1024,0,0,0,0,272.3,1.8,0,95,4.152,4.158,4.153,4.149,0,0,7.047,72.32,120.80434015183,66.929136,6,P-GPS,
20200,2023-06-06 16:46:50,52.2063995239297,0.0865720011815665,66.929136,66.8307108,53.973629351828,120.80434015183,64.960632,0,33.875985336,39.566602316,31,5,16.656,120.80434015183,66.929136,13.6005952,34.34711396,0,0,0,282.3, 3.4, 5.7,0,0,1024,1024,1024,1024,0,0,0,0,272.3,0.2,0,95,4.152,4.158,4.153,4.149,0,0,7.047,72.32,120.80434015183,66.929136,6,P-GPS,
20400,2023-06-06 16:46:50,52.2063994885178,0.0865719531618685,66.929136,66.8307108,53.973629351828,120.80434015183,64.960632,0,33.885499772,39.5833346,31,5,16.618,120.80434015183,66.929136,13.6005952,34.34711396,0,0,0,282.5, 3.2, 5.3,0,0,1024,1024,1024,1024,0,0,0,0,272.3,-0.1,0,95,4.147,4.156,4.152,4.149,0,0,7.524,72.32,120.80434015183,66.929136,6,P-GPS,
20600,2023-06-06 16:46:50,52.2063994502006,0.0865719070573666,66.929136,66.8307108,53.973629351828,120.80434015183,64.960632,0,33.89435804,39.600723052,31,5,16.618,120.80434015183,66.929136,13.6005952,34.34711396,0,0,0,282.5, 2.8, 5.7,0,0,1024,1024,1024,1024,0,0,0,0,272.3,-1.7,0,95,4.147,4.156,4.152,4.149,0,0,7.524,72.32,120.80434015183,66.929136,6,P-GPS,
20800,2023-06-06 16:46:50,52.206399429013,0.0865718545642179,66.929136,66.8307108,53.973629351828,120.80434015183,64.960632,0,33.905512896,39.614830664,31,5,16.618,120.80434015183,66.929136,13.6005952,34.34711396,0,0,0,282.2, 2.7, 5.8,0,0,1024,1024,1024,1024,0,0,0,0,272.3,-4.4,0,95,4.147,4.156,4.152,4.149,0,0,7.524,72.32,120.80434015183,66.929136,6,P-GPS,
21000,2023-06-06 16:46:50,52.2063994638006,0.0865717003140439,66.929136,66.8307108,53.973629351828,120.80434015183,64.960632,0,33.940945968,39.651576072,31,5,16.618,120.80434015183,66.929136,13.6005952,34.34711396,0,0,0,281.8, 4.1, 5.2,0,0,1024,1024,1024,1024,0,0,0,0,272.3,-7.2,0,95,4.147,4.156,4.152,4.149,0,0,7.524,72.32,120.80434015183,66.929136,6,P-GPS,
21200,2023-06-06 16:46:51,52.2063995563276,0.0865715178112326,66.929136,66.8307108,53.973629351828,120.80434015183,64.960632,0,33.98458114,39.704397596,31,5,16.618,120.80434015183,66.929136,13.6005952,34.34711396,0,0,0,281.4, 4.8, 4.5,0,0,1024,1024,1024,1024,0,0,0,0,272.3,-10.1,0,95,4.147,4.156,4.152,4.149,0,0,7.524,72.32,120.80434015183,66.929136,6,P-GPS,
21400,2023-06-06 16:46:51,52.2063996262428,0.0865713999218256,66.929136,66.8307108,53.973629351828,120.80434015183,64.960632,0,34.013124448,39.741143004,31,5,16.616,120.80434015183,66.929136,13.6005952,34.34711396,0,0,0,281, 5.1, 4.1,0,0,1024,1024,1024,1024,0,0,0,0,272.3,-11.7,0,95,4.151,4.163,4.168,4.162,0,0,7.567,72.5,120.80434015183,66.929136,6,P-GPS,
21600,2023-06-06 16:46:51,52.2063996095909,0.0865713883467717,66.929136,66.8307108,53.973629351828,120.80434015183,65.288716,0,34.015092952,39.747704684,31,5,16.616,120.80434015183,66.929136,13.6005952,34.34711396,0,0,0,280.7, 4.6, 3.9,0,0,1024,1024,1024,1024,0,0,0,0,272.3,-12,0,95,4.151,4.163,4.168,4.162,0,0,7.567,72.5,120.80434015183,66.929136,6,P-GPS,
21800,2023-06-06 16:46:51,52.2063995241428,0.0865714593208639,66.929136,66.8307108,53.973629351828,120.80434015183,65.288716,0,33.996392164,39.782809672,31,5,16.616,120.80434015183,66.929136,13.6005952,34.34711396,0,0,0,280.9, 3.4, 4.2,0,0,1024,1024,1024,1024,0,0,0,0,272.3,-12,0,95,4.151,4.163,4.168,4.162,0,0,7.567,72.5,120.80434015183,66.929136,6,P-GPS,
22000,2023-06-06 16:46:51,52.2063994336889,0.086571511744115,66.929136,66.8307108,53.973629351828,120.80434015183,65.288716,0,33.981956468,39.81791466,31,5,16.616,120.80434015183,66.929136,13.6005952,34.34711396,0,0,0,281, 3.4, 4.3,0,0,1024,1024,1024,1024,0,0,0,0,272.3,-12,0,95,4.151,4.163,4.168,4.162,0,0,7.567,72.5,120.80434015183,66.929136,6,P-GPS,
22200,2023-06-06 16:46:52,52.2063993033143,0.0865715509986454,66.929136,66.8307108,53.973629351828,120.80434015183,64.960632,0,33.969161192,39.866143008,31,5,16.616,120.80434015183,66.929136,13.6005952,34.34711396,0,0,0,281, 3.4, 4.3,0,0,1024,1024,1024,1024,0,0,0,0,272.3,-12,0,95,4.151,4.163,4.168,4.162,0,0,7.567,72.5,120.80434015183,66.929136,6,P-GPS,
22400,2023-06-06 16:46:52,52.2063991078739,0.0865715686827554,66.929136,66.8307108,53.973629351828,120.80434015183,64.960632,0,33.958990588,39.93766532,31,5,16.619,120.80434015183,66.929136,13.6005952,34.34711396,0,0,0,280.8, 3.3, 5.7,0,0,1024,1024,1024,1024,0,0,0,0,272.3,-12,0,95,4.15,4.159,4.156,4.153,0,0,7.11,72.5,120.80434015183,66.929136,6,P-GPS,
22600,2023-06-06 16:46:52,52.206398863481,0.0865715270796634,66.929136,66.8307108,53.973629351828,120.80434015183,64.960632,0,33.960959092,40.027232252,31,5,16.619,120.80434015183,66.929136,13.6005952,34.34711396,0,0,0,280.2, 2.8, 6.5,0,0,1024,1024,1024,1024,0,0,0,0,272.3,-12,0,95,4.15,4.159,4.156,4.153,0,0,7.11,72.5,120.80434015183,66.929136,6,P-GPS,
22800,2023-06-06 16:46:52,52.2063986885026,0.0865714796471058,66.929136,66.8307108,53.973629351828,120.80434015183,64.632548,0,33.966208436,40.0918648,31,5,16.619,120.80434015183,66.929136,13.6005952,34.34711396,0,0,0,279.8, 3, 7.2,0,0,1024,1024,1024,1024,0,0,0,0,272.3,-12,0,95,4.15,4.159,4.156,4.153,0,0,7.11,72.5,120.80434015183,66.929136,6,P-GPS,
23000,2023-06-06 16:46:52,52.2063985903739,0.0865714061706771,66.929136,66.8307108,53.973629351828,120.80434015183,64.632548,0,33.97965988,40.13123488,31,5,16.619,120.80434015183,66.929136,13.6005952,34.34711396,0,0,0,279.6, 2.7, 5.8,0,0,1024,1024,1024,1024,0,0,0,0,272.3,-12,0,95,4.15,4.159,4.156,4.153,0,0,7.11,72.5,120.80434015183,66.929136,6,P-GPS,
23200,2023-06-06 16:46:53,52.206398532212,0.0865713145907524,66.929136,66.8307108,53.973629351828,120.80434015183,64.632548,0,33.998360668,40.16076244,31,5,16.619,120.80434015183,66.929136,13.6005952,34.34711396,0,0,0,280.1, 2.7, 6.3,0,0,1024,1024,1024,1024,0,0,0,0,272.3,-12.2,0,95,4.15,4.159,4.156,4.153,0,0,7.11,72.5,120.80434015183,66.929136,6,P-GPS,
23400,2023-06-06 16:46:53,52.2063984680361,0.0865712099259842,66.929136,66.8635192,53.940820951828,120.80434015183,64.632548,0,34.020014212,40.193898924,31,5,16.593,120.80434015183,66.929136,13.6005952,34.34711396,0,0,0,279.9, 3.6, 6.3,0,0,1024,1024,1024,1024,0,0,0,0,272.3,-14.1,0,95,4.151,4.159,4.157,4.158,0,0,7.563,72.5,120.80434015183,66.929136,6,P-GPS,
23600,2023-06-06 16:46:53,52.206398409683,0.0865711839380312,66.929136,66.8635192,53.940820951828,120.80434015183,64.632548,0,34.02395122,40.215880552,31,5,16.593,120.80434015183,66.929136,13.6005952,34.34711396,0,0,0,279.8, 3, 6.5,0,0,1024,1024,1024,1024,0,0,0,0,272.3,-16.2,0,95,4.151,4.159,4.157,4.158,0,0,7.563,72.5,120.80434015183,66.929136,6,P-GPS,
23800,2023-06-06 16:46:53,52.2063983637392,0.0865712533464156,66.929136,66.8635192,53.940820951828,120.80434015183,64.632548,0,34.007218936,40.238846432,31,5,16.593,120.80434015183,66.929136,13.6005952,34.34711396,0,0,0,280, 2.2, 6.5,0,0,1024,1024,1024,1024,0,0,0,0,272.3,-17,0,95,4.151,4.159,4.157,4.158,0,0,7.563,72.5,120.80434015183,66.929136,6,P-GPS,
24000,2023-06-06 16:46:53,52.2063984035025,0.0865713226150047,66.929136,66.8635192,53.940820951828,120.80434015183,64.632548,0,33.993111324,40.260171892,31,5,16.593,120.80434015183,66.929136,13.6005952,34.34711396,0,0,0,280.3, 1.8, 5.5,0,0,1024,1024,1024,1024,0,0,0,0,272.3,-17,0,95,4.151,4.159,4.157,4.158,0,0,7.563,72.5,120.80434015183,66.929136,6,P-GPS,
24200,2023-06-06 16:46:54,52.2063984490186,0.0865713385097344,66.929136,66.8635192,53.940820951828,120.80434015183,64.632548,0,33.990814736,40.276904176,31,5,16.593,120.80434015183,66.929136,13.6005952,34.34711396,0,0,0,280.3, 2, 5.6,0,0,1024,1024,1024,1024,0,0,0,0,272.3,-17.5,0,95,4.151,4.159,4.157,4.158,0,0,7.563,72.5,120.80434015183,66.929136,6,P-GPS,
24400,2023-06-06 16:46:54,52.2063984484532,0.0865713161285011,66.929136,66.8635192,53.940820951828,120.80434015183,64.304464,0,33.995735996,40.28215352,31,5,16.613,120.80434015183,66.929136,13.6005952,34.34711396,0,0,0,280.4, 1.9, 6.4,0,0,1024,1024,1024,1024,0,0,0,0,272.3,-19.6,0,95,4.149,4.156,4.151,4.149,0,0,7.303,72.68,120.80434015183,66.929136,6,P-GPS,
24600,2023-06-06 16:46:54,52.2063984495439,0.0865712627406622,66.929136,66.8635192,53.940820951828,120.80434015183,64.304464,0,34.00754702,40.293964544,31,5,16.613,120.80434015183,66.929136,13.6005952,34.34711396,0,0,0,281.1, 1.8, 6.6,0,0,1024,1024,1024,1024,0,0,0,0,272.3,-21.2,0,95,4.149,4.156,4.151,4.149,0,0,7.303,72.68,120.80434015183,66.929136,6,P-GPS,
24800,2023-06-06 16:46:54,52.2063984922344,0.0865711717478779,66.929136,66.8635192,53.940820951828,120.80434015183,64.304464,0,34.029200564,40.319555096,31,5,16.613,120.80434015183,66.929136,13.6005952,34.34711396,0,0,0,281.7, 2.5, 6.2,0,0,1024,1024,1024,1024,0,0,0,0,272.3,-21.6,0,95,4.149,4.156,4.151,4.149,0,0,7.303,72.68,120.80434015183,66.929136,6,P-GPS,
25000,2023-06-06 16:46:54,52.2063985779476,0.0865711022556163,66.929136,66.8307108,53.973629351828,120.80434015183,64.304464,0,34.047245184,40.354660084,31,5,16.613,120.80434015183,66.929136,13.6005952,34.34711396,0,0,0,282.1, 3.1, 5,0,0,1024,1024,1024,1024,0,0,0,0,272.3,-21.9,0,95,4.149,4.156,4.151,4.149,0,0,7.303,72.68,120.80434015183,66.929136,6,P-GPS,
25200,2023-06-06 16:46:55,52.2063986242775,0.0865711741383781,66.929136,66.8307108,53.973629351828,120.80434015183,64.632548,0,34.032481404,40.377954048,31,5,16.613,120.80434015183,66.929136,13.6005952,34.34711396,0,0,0,281.9, 1.5, 4.9,0,0,1024,1024,1024,1024,0,0,0,0,272.3,-23.8,0,95,4.149,4.156,4.151,4.149,0,0,7.303,72.68,120.80434015183,66.929136,6,P-GPS,
25400,2023-06-06 16:46:55,52.2063986194452,0.0865712885888199,66.929136,66.8307108,53.973629351828,120.80434015183,64.632548,0,34.006890852,40.4035446,31,5,16.624,120.80434015183,66.929136,13.6005952,34.34711396,0,0,0,281.7, 0.7, 5.6,0,0,1024,1024,1024,1024,0,0,0,0,272.3,-25.1,0,95,4.146,4.156,4.155,4.151,0,0,7.24,72.68,120.80434015183,66.929136,6,P-GPS,
25600,2023-06-06 16:46:55,52.2063986168682,0.0865713319673127,66.929136,66.8307108,53.973629351828,120.80434015183,64.304464,0,33.997048332,40.41338712,31,5,16.624,120.80434015183,66.929136,13.6005952,34.34711396,0,0,0,281.8, 0.9, 5.5,0,0,1024,1024,1024,1024,0,0,0,0,272.3,-25.4,0,95,4.146,4.156,4.155,4.151,0,0,7.24,72.68,120.80434015183,66.929136,6,P-GPS,
25800,2023-06-06 16:46:55,52.2063986265065,0.0865712667807474,66.929136,66.8307108,53.973629351828,120.80434015183,64.304464,0,34.011812112,40.4281509,31,5,16.624,120.80434015183,66.929136,13.6005952,34.34711396,0,0,0,281.9, 1.4, 5.5,0,0,1024,1024,1024,1024,0,0,0,0,272.3,-25.6,0,95,4.146,4.156,4.155,4.151,0,0,7.24,72.68,120.80434015183,66.929136,6,P-GPS,
26000,2023-06-06 16:46:55,52.2063986559419,0.0865711790312149,66.929136,66.8307108,53.973629351828,120.80434015183,64.304464,0,34.03215332,40.450460612,31,5,16.624,120.80434015183,66.929136,13.6005952,34.34711396,0,0,0,281.9, 1.7, 5.5,0,0,1024,1024,1024,1024,0,0,0,0,272.3,-27.3,0,95,4.146,4.156,4.155,4.151,0,0,7.24,72.68,120.80434015183,66.929136,6,P-GPS,
26200,2023-06-06 16:46:56,52.2063986661398,0.0865711167663722,66.929136,66.8307108,53.973629351828,120.80434015183,64.304464,0,34.046260932,40.464896308,31,5,16.624,120.80434015183,66.929136,13.6005952,34.34711396,0,0,0,282, 1.5, 5.5,0,0,1024,1024,1024,1024,0,0,0,0,272.3,-28.6,0,95,4.146,4.156,4.155,4.151,0,0,7.24,72.68,120.80434015183,66.929136,6,P-GPS,
26400,2023-06-06 16:46:56,52.2063986548255,0.0865710479591077,66.929136,66.8307108,53.973629351828,120.80434015183,64.304464,0,34.061352796,40.480972424,31,5,16.602,120.80434015183,66.929136,13.6005952,34.34711396,0,0,0,281.7, 1.5, 6,0,0,1024,1024,1024,1024,0,0,0,0,272.3,-28.8,0,95,4.145,4.153,4.154,4.151,0,0,7.247,72.68,120.80434015183,66.929136,6,P-GPS,
26600,2023-06-06 16:46:56,52.2063986683142,0.0865709734202345,66.929136,66.8307108,53.973629351828,120.80434015183,64.304464,0,34.078413164,40.498360876,31,5,16.602,120.80434015183,66.929136,13.6005952,34.34711396,0,0,0,281.9, 2, 5.8,0,0,1024,1024,1024,1024,0,0,0,0,272.3,-28.9,0,95,4.145,4.153,4.154,4.151,0,0,7.247,72.68,120.80434015183,66.929136,6,P-GPS,
26800,2023-06-06 16:46:56,52.2063986961727,0.0865709453633105,66.929136,66.8307108,53.973629351828,120.80434015183,64.304464,0,34.085631012,40.5101719,31,5,16.602,120.80434015183,66.929136,13.6005952,34.34711396,0,0,0,282, 1.4, 5.1,0,0,1024,1024,1024,1024,0,0,0,0,272.3,-29.7,0,95,4.145,4.153,4.154,4.151,0,0,7.247,72.68,120.80434015183,66.929136,6,P-GPS,
27000,2023-06-06 16:46:56,52.2063987114042,0.08657091270712,66.929136,66.8307108,53.973629351828,120.80434015183,64.304464,0,34.093176944,40.519358252,31,5,16.602,120.80434015183,66.929136,13.6005952,34.34711396,0,0,0,282, 1.6, 5.3,0,0,1024,1024,1024,1024,0,0,0,0,272.3,-31.6,0,95,4.145,4.153,4.154,4.151,0,0,7.247,72.68,120.80434015183,66.929136,6,P-GPS,
27200,2023-06-06 16:46:57,52.2063987294129,0.08657086324753,66.929136,66.8307108,53.973629351828,120.80434015183,64.304464,0,34.104659884,40.532153528,31,5,16.602,120.80434015183,66.929136,13.6005952,34.34711396,0,0,0,282, 1.6, 5.7,0,0,1024,1024,1024,1024,0,0,0,0,272.3,-32.6,0,95,4.145,4.153,4.154,4.151,0,0,7.247,72.68,120.80434015183,66.929136,6,P-GPS,
27400,2023-06-06 16:46:57,52.2063987358044,0.0865708254328916,66.929136,66.8307108,53.973629351828,120.80434015183,64.304464,0,34.113518152,40.541011796,31,5,16.598,120.80434015183,66.929136,13.6005952,34.34711396,0,0,0,281.9, 1.4, 5.8,0,0,1024,1024,1024,1024,0,0,0,0,272.3,-32.6,0,95,4.146,4.155,4.156,4.151,0,0,7.245,72.86,120.80434015183,66.929136,6,P-GPS,
27600,2023-06-06 16:46:57,52.2063987531701,0.0865707725483159,66.929136,66.8307108,53.973629351828,120.80434015183,64.304464,0,34.12565726,40.55446324,31,5,16.598,120.80434015183,66.929136,13.6005952,34.34711396,0,0,0,281.9, 2.2, 5.8,0,0,1024,1024,1024,1024,0,0,0,0,272.3,-33,0,95,4.146,4.155,4.156,4.151,0,0,7.245,72.86,120.80434015183,66.929136,6,P-GPS,
27800,2023-06-06 16:46:57,52.2063987670661,0.0865707742118804,66.601052,66.5026268,53.973629351828,120.47625615183,64.304464,0,34.12565726,40.559712584,31,5,16.598,120.80434015183,66.929136,13.6005952,34.34711396,0,0,0,281.9, 1.7, 5.4,0,0,1024,1024,1024,1024,0,0,0,0,272.3,-35.1,0,95,4.146,4.155,4.156,4.151,0,0,7.245,72.86,120.47625615183,66.601052,6,P-GPS,
28000,2023-06-06 16:46:57,52.2063987791616,0.0865708216164789,66.601052,66.5026268,53.973629351828,120.47625615183,64.304464,0,34.115486656,40.571195524,31,5,16.598,120.80434015183,66.929136,13.6005952,34.34711396,0,0,0,281.9, 1.1, 5,0,0,1024,1024,1024,1024,0,0,0,0,272.3,-36.5,0,95,4.146,4.155,4.156,4.151,0,0,7.245,72.86,120.47625615183,66.601052,6,P-GPS,
28200,2023-06-06 16:46:58,52.2063987917105,0.0865708037925736,66.601052,66.5026268,53.973629351828,120.47625615183,64.304464,0,34.119751748,40.577101036,31,5,16.598,120.80434015183,66.929136,13.6005952,34.34711396,0,0,0,282, 1.4, 5.5,0,0,1024,1024,1024,1024,0,0,0,0,272.3,-36.7,0,95,4.146,4.155,4.156,4.151,0,0,7.245,72.86,120.47625615183,66.601052,6,P-GPS,
28400,2023-06-06 16:46:58,52.206398760573,0.0865707331539902,66.601052,66.5026268,53.973629351828,120.47625615183,64.304464,0,34.134515528,40.596457992,31,5,16.598,120.80434015183,66.929136,13.6005952,34.34711396,0,0,0,282, 1.9, 5.7,0,0,1024,1024,1024,1024,0,0,0,0,272.3,-36.7,0,95,4.148,4.156,4.153,4.148,0,0,7.17,72.86,120.47625615183,66.601052,6,P-GPS,
28600,2023-06-06 16:46:58,52.2063987025031,0.0865706033680001,66.601052,66.5026268,53.973629351828,120.47625615183,64.304464,0,34.1617465,40.632547232,31,5,16.598,120.80434015183,66.929136,13.6005952,34.34711396,0,0,0,282.1, 2, 6.2,0,0,1024,1024,1024,1024,0,0,0,0,272.3,-36.7,0,95,4.148,4.156,4.153,4.148,0,0,7.17,72.86,120.47625615183,66.601052,6,P-GPS,
28800,2023-06-06 16:46:58,52.206398674175,0.0865704257859845,66.601052,66.5026268,53.973629351828,120.47625615183,64.304464,0,34.200788496,40.673557732,31,5,16.598,120.80434015183,66.929136,13.6005952,34.34711396,0,0,0,282, 2.7, 6.1,0,0,1024,1024,1024,1024,0,0,0,0,272.3,-37.6,0,95,4.148,4.156,4.153,4.148,0,0,7.17,72.86,120.47625615183,66.601052,6,P-GPS,
29000,2023-06-06 16:46:58,52.2063986536144,0.0865703100913643,66.601052,66.5026268,53.973629351828,120.47625615183,64.304464,0,34.22572288,40.70046062,31,5,16.598,120.80434015183,66.929136,13.6005952,34.34711396,0,0,0,282, 2.3, 6.3,0,0,1024,1024,1024,1024,0,0,0,0,272.3,-39.4,0,95,4.148,4.156,4.153,4.148,0,0,7.17,72.86,120.47625615183,66.601052,6,P-GPS,
29200,2023-06-06 16:46:59,52.206398608652,0.0865702535860894,66.929136,66.8307108,53.973629351828,120.80434015183,64.304464,0,34.23720582,40.721129912,31,5,16.598,120.80434015183,66.929136,13.6005952,34.34711396,0,0,0,281.8, 1.6, 6.4,0,0,1024,1024,1024,1024,0,0,0,0,272.3,-40.1,0,95,4.148,4.156,4.153,4.148,0,0,7.17,72.86,120.80434015183,66.929136,6,P-GPS,
29400,2023-06-06 16:46:59,52.2063986190999,0.0865701162511512,66.929136,66.8307108,53.973629351828,120.80434015183,64.632548,0,34.268045716,40.751969808,31,5,16.59,120.80434015183,66.929136,13.6005952,34.34711396,0,0,0,281.8, 2.2, 6.3,0,0,1024,1024,1024,1024,0,0,0,0,272.3,-40.1,0,95,4.143,4.152,4.151,4.146,0,0,7.269,72.86,120.80434015183,66.929136,6,P-GPS,
29600,2023-06-06 16:46:59,52.2063987096287,0.0865698703371753,66.929136,66.8307108,53.973629351828,120.80434015183,64.304464,0.223694,34.325460416,40.816274272,31,5,16.59,120.80434015183,66.929136,13.6005952,34.34711396,0,-0.223694,0,282.2, 3.9, 5.5,0,0,1024,1024,1024,1024,0,0,0,0,272.3,-40.1,0,95,4.143,4.152,4.151,4.146,0,0,7.269,72.86,120.80434015183,66.929136,6,P-GPS,
29800,2023-06-06 16:46:59,52.2063988150056,0.0865696363337621,66.929136,66.8307108,53.973629351828,120.80434015183,64.632548,0,34.380578528,40.881234904,31,5,16.59,120.80434015183,66.929136,13.6005952,34.380578528,0,0,0,282.4, 5.2, 4.6,0,0,1024,1024,1024,1024,0,0,0,0,272.3,-40.1,0,95,4.143,4.152,4.151,4.146,0,0,7.269,72.86,120.80434015183,66.929136,6,P-GPS,
30000,2023-06-06 16:46:59,52.2063988461105,0.0865694912262032,66.929136,66.8307108,53.973629351828,120.80434015183,64.632548,0,34.414043096,40.915683724,31,5,16.59,120.80434015183,66.929136,13.6005952,34.414043096,0,0,0,282.2, 4.9, 5.1,0,0,1024,1024,1024,1024,0,0,0,0,272.3,-40.1,0,95,4.143,4.152,4.151,4.146,0,0,7.269,72.86,120.80434015183,66.929136,6,P-GPS,
30200,2023-06-06 16:47:00,52.2063987964009,0.0865694461841459,66.929136,66.8307108,53.973629351828,120.80434015183,64.960632,0,34.42257328,40.936353016,31,5,16.59,120.80434015183,66.929136,13.6005952,34.42257328,0,0,0,282.1, 4.4, 6.1,0,0,1024,1024,1024,1024,0,0,0,0,272.3,-40.1,0,95,4.143,4.152,4.151,4.146,0,0,7.269,72.86,120.80434015183,66.929136,6,P-GPS,
30400,2023-06-06 16:47:00,52.206398690065,0.0865694791339066,66.929136,66.8307108,53.973629351828,120.80434015183,64.960632,0,34.412074592,40.975723096,31,5,16.583,120.80434015183,66.929136,13.6005952,34.42257328,0,0,0,282.2, 3.5, 7.1,0,0,1024,1024,1024,1024,0,0,0,0,272.3,-40.1,0,95,4.139,4.149,4.149,4.146,0,0,7.323,72.86,120.80434015183,66.929136,6,P-GPS,
30600,2023-06-06 16:47:00,52.2063985586843,0.0865695074005236,66.929136,66.8307108,53.973629351828,120.80434015183,64.960632,0,34.401903988,41.024279528,31,5,16.583,120.80434015183,66.929136,13.6005952,34.42257328,0,0,0,282.2, 3.6, 8.2,0,0,1024,1024,1024,1024,0,0,0,0,272.3,-40.1,0,95,4.139,4.149,4.149,4.146,0,0,7.323,72.86,120.80434015183,66.929136,6,P-GPS,
30800,2023-06-06 16:47:00,52.2063984998071,0.0865695526802329,66.929136,66.8635192,53.940820951828,120.80434015183,64.960632,0,34.390421048,41.047901576,31,5,16.583,120.80434015183,66.929136,13.6005952,34.42257328,0,0,0,282.3, 3.8, 8,0,0,1024,1024,1024,1024,0,0,0,0,272.3,-40.1,0,95,4.139,4.149,4.149,4.146,0,0,7.323,72.86,120.80434015183,66.929136,6,P-GPS,
31000,2023-06-06 16:47:00,52.2063985277069,0.086569644399953,66.929136,66.8307108,53.973629351828,120.80434015183,64.960632,0,34.370736008,41.070867456,31,5,16.583,120.80434015183,66.929136,13.6005952,34.42257328,0,0,0,282.3, 3.7, 6.8,0,0,1024,1024,1024,1024,0,0,0,0,272.3,-40.1,0,95,4.139,4.149,4.149,4.146,0,0,7.323,72.86,120.80434015183,66.929136,6,P-GPS,
31200,2023-06-06 16:47:01,52.2063985813251,0.0865697708448346,66.929136,66.8307108,53.973629351828,120.80434015183,64.960632,0,34.34383312,41.105316276,31,5,16.583,120.80434015183,66.929136,13.6005952,34.42257328,0,0,0,281.9, 2.6, 6,0,0,1024,1024,1024,1024,0,0,0,0,272.3,-40.1,0,95,4.139,4.149,4.149,4.146,0,0,7.323,72.86,120.80434015183,66.929136,6,P-GPS,
31400,2023-06-06 16:47:01,52.2063986190212,0.0865698604676246,66.929136,66.8307108,53.973629351828,120.80434015183,64.960632,0,34.325132332,41.129594492,31,5,16.544,120.80434015183,66.929136,13.6005952,34.42257328,0,0,0,281.9, 2.1, 7.1,0,0,1024,1024,1024,1024,0,0,0,0,272.3,-40.1,0,95,4.137,4.149,4.147,4.142,0,0,7.819,73.04,120.80434015183,66.929136,6,P-GPS,
31600,2023-06-06 16:47:01,52.206398704753,0.0865698462644185,66.929136,66.8307108,53.973629351828,120.80434015183,64.960632,0,34.33070976,41.160762472,31,5,16.544,120.80434015183,66.929136,13.6005952,34.42257328,0,0,0,282, 3.7, 6.6,0,0,1024,1024,1024,1024,0,0,0,0,272.3,-40.1,0,95,4.137,4.149,4.147,4.142,0,0,7.819,73.04,120.80434015183,66.929136,6,P-GPS,
31800,2023-06-06 16:47:01,52.2063988434263,0.0865699040837695,66.929136,66.8307108,53.973629351828,120.80434015183,64.632548,0,34.321851492,41.213255912,31,5,16.544,120.80434015183,66.929136,13.6005952,34.42257328,0,0,0,282.1, 3.3, 5.6,0,0,1024,1024,1024,1024,0,0,0,0,272.3,-40.1,0,95,4.137,4.149,4.147,4.142,0,0,7.819,73.04,120.80434015183,66.929136,6,P-GPS,
32000,2023-06-06 16:47:01,52.206398982347,0.0865700295361042,67.25722,67.1587948,53.973629351828,121.13242415183,64.960632,0,34.298229444,41.270998696,31,5,16.544,121.13242415183,67.25722,13.6005952,34.42257328,0,0,0,281.9, 2.8, 5.2,0,0,1024,963,1024,1024,0,-9,0,0,272.3,-40.1,0,95,4.137,4.149,4.147,4.142,0,0,7.819,73.04,121.13242415183,67.25722,6,P-GPS,
32200,2023-06-06 16:47:02,52.2063990486127,0.0865701580639363,67.25722,67.1587948,53.973629351828,121.13242415183,64.960632,0,34.271326556,41.308728356,31,5,16.544,121.13242415183,67.25722,13.6005952,34.42257328,0,0,0,282.2, -0.4, 0.2,0,0,1024,910,1024,1024,0,-17,0,0,272.3,-40.1,0,95,4.137,4.149,4.147,4.142,0,0,7.819,73.04,121.13242415183,67.25722,6,P-GPS,
32400,2023-06-06 16:47:02,52.2063988509647,0.0865700311157915,67.25722,67.1587948,53.973629351828,121.13242415183,64.960632,0.3131716,34.293636268,41.38615618,31,5,16.605,121.13242415183,67.25722,13.6005952,34.42257328,-0.223694,-0.223694,0,281.7, 0.6, 1.8,0,0,1024,1024,1024,1024,0,0,0,0,272.3,-40.1,0,94,4.128,4.162,4.167,4.16,0,0,7.331,73.04,121.13242415183,67.25722,6,P-GPS,
32600,2023-06-06 16:47:02,52.2063984376391,0.0865696986125844,67.25722,67.1916032,53.940820951828,121.13242415183,64.632548,0.4921268,34.355972228,41.554135188,31,5,16.605,121.13242415183,67.25722,13.6005952,34.42257328,-0.447388,-0.223694,0,282.1, 1.8, 5.4,0,0,1024,1024,1024,1024,0,0,0,0,272.3,-40.1,0,94,4.128,4.162,4.167,4.16,0,0,7.331,73.04,121.13242415183,67.25722,6,P-GPS,
