time(millisecond),datetime(utc),latitude,longitude,height_above_takeoff(feet),height_above_ground_at_drone_location(feet),ground_elevation_at_drone_location(feet),altitude_above_seaLevel(feet),height_sonar(feet),speed(mph),distance(feet),mileage(feet),satellites,gpslevel,voltage(v),max_altitude(feet),max_ascent(feet),max_speed(mph),max_distance(feet), xSpeed(mph), ySpeed(mph), zSpeed(mph), compass_heading(degrees), pitch(degrees), roll(degrees),isPhoto,isVideo,rc_elevator,rc_aileron,rc_throttle,rc_rudder,rc_elevator(percent),rc_aileron(percent),rc_throttle(percent),rc_rudder(percent),gimbal_heading(degrees),gimbal_pitch(degrees),gimbal_roll(degrees),battery_percent,voltageCell1,voltageCell2,voltageCell3,voltageCell4,voltageCell5,voltageCell6,current(A),battery_temperature(f),altitude(feet),ascent(feet),flycStateRaw,flycState,message
100,2023-06-06 16:32:09,0,0,0,,,53.465355713516,0.328084,0,0,0,14,2,0,53.465355713516,0,0,0,0,0,0,273.2, 4.4, -0.1,0,0,1024,1024,1024,1024,0,0,0,0,273.3,0,0,70,4.005,4.009,4.003,4.004,0,0,0,73.22,53.465355713516,0,41,Motors_Started,"Aircraft not in flight. Vision systems and obstacle avoidance disabled (Code: 180059). No GPS signal. Aircraft unable to hover. Fly with caution (Code: 30008). GPS signal weak. Hovering unstable. Fly with caution (Code: 30002)"
300,2023-06-06 16:32:09,0,0,0,,,53.465355713516,0.328084,0,0,0,18,2,0,53.465355713516,0,0,0,0,0,0,273.2, 4.4, -0.1,0,0,1024,1024,1024,1024,0,0,0,0,273.3,0,0,70,4.005,4.009,4.003,4.004,0,0,0,73.22,53.465355713516,0,41,Motors_Started,
500,2023-06-06 16:32:09,52.2063559773939,0.0867010421464069,0,0,53.465355713516,53.465355713516,0,0,0,0,18,2,0,53.465355713516,0,0,0,0,0,0,273.2, 4.4, -0.1,0,0,1024,1024,1024,1024,0,0,0,0,273.3,0,0,70,4.005,4.009,4.003,4.004,0,0,0,73.22,53.465355713516,0,41,Motors_Started,"Setting new Return-To-Home altitude to 26m (85 ft). Data Recorder File Index is 31. Setting new Maximum Flight Altitude to 30m (98 ft)"
700,2023-06-06 16:32:09,52.2063559907746,0.0867010457770372,0,0,53.465355713516,53.465355713516,0,0,0.0049489502896,0.0049489502896,18,2,0,53.465355713516,0,0,0.0049489502896,0,0,0,273.2, 4.4, -0.1,0,0,1024,1024,1024,1024,0,0,0,0,273.3,0,0,70,4.005,4.009,4.003,4.004,0,0,0,73.22,53.465355713516,0,41,Motors_Started,
900,2023-06-06 16:32:09,52.2063560531946,0.0867010890965749,0,0,53.465355713516,53.465355713516,0,0,0.0295811033088,0.0296969497692,18,2,0,53.465355713516,0,0,0.0295811033088,0,0,0,273.2, 4.4, -0.1,0,0,1024,1024,1024,1024,0,0,0,0,273.3,0,0,70,4.005,4.009,4.003,4.004,0,0,0,73.22,53.465355713516,0,41,Motors_Started,
1100,2023-06-06 16:32:10,52.206356288875,0.0867012692440139,0,0,53.465355713516,53.465355713516,0,0,0.124471132592,0.124650922624,18,2,16.148,53.465355713516,0,0,0.124471132592,0,0,0,273.4, 4.4, -0.1,0,0,1024,1024,1024,1024,0,0,0,0,273.3,0,0,70,4.005,4.009,4.003,4.004,0,0,1.281,73.22,53.465355713516,0,41,Motors_Started,
1300,2023-06-06 16:32:10,52.2063568900035,0.0867017317336616,0,0,53.465355713516,53.465355713516,0,0,0.3669291456,0.367125996,18,2,16.148,53.465355713516,0,0,0.3669291456,0,0,0,273.1, 4.4, -0.1,0,0,1024,1024,1024,1024,0,0,0,0,273.3,0,0,70,4.005,4.009,4.003,4.004,0,0,1.281,73.22,53.465355713516,0,41,Motors_Started,
1500,2023-06-06 16:32:10,52.2063581684171,0.0867027152308378,0,0,53.465355713516,53.465355713516,0,0,0.88258861092,0.882792023,18,5,16.148,53.465355713516,0,0,0.88258861092,0,0,0,273, 4.5, -0.1,0,0,1024,1024,1024,1024,0,0,0,0,273.3,0,0,70,4.005,4.009,4.003,4.004,0,0,1.281,73.22,53.465355713516,0,41,Motors_Started,"Setting new Maximum Flight Altitude to 120m (394 ft)"
1700,2023-06-06 16:32:10,52.20636018127,0.0867042580839463,0,0,53.465355713516,53.465355713516,0,0,1.6939633088,1.69416344004,18,5,16.148,53.465355713516,0,0,1.6939633088,0,0,0,273, 4.5, -0.1,0,0,1024,1024,1024,1024,0,0,0,0,273.3,0,0,70,4.005,4.009,4.003,4.004,0,0,1.281,73.22,53.465355713516,0,11,AutoTakeoff,
1900,2023-06-06 16:32:10,52.206363197774,0.0867065655471805,0,0,53.465355713516,53.465355713516,0,0,2.90945547368,2.90965888576,18,5,16.148,53.465355713516,0,0,2.90945547368,0,0,0,273, 4.4, -0.1,0,0,1024,1024,1024,1024,0,0,0,0,273.3,0,0,70,4.005,4.009,4.003,4.004,0,0,1.281,73.22,53.465355713516,0,11,AutoTakeoff,
2100,2023-06-06 16:32:11,52.2063668516261,0.0867094073643297,0,0,53.465355713516,53.465355713516,0,0,4.3862206128,4.3864502716,18,3,15.935,53.465355713516,0,0,4.3862206128,0,0,0,272.8, 1.5, 0,0,0,1024,1024,1024,1024,0,0,0,0,273.3,0,0,70,3.986,3.999,4.001,4.007,0,0,4.042,73.04,53.465355713516,0,11,AutoTakeoff,
2300,2023-06-06 16:32:11,52.2063708590755,0.0867125960894518,0,0,53.465355713516,53.465355713516,0.328084,0,6.012795468,6.013123552,18,3,15.935,53.465355713516,0,0,6.012795468,0,0,-0.671082,272.8, -1, 0.6,0,0,1024,1024,1024,1024,0,0,0,0,273.3,0,0,70,3.986,3.999,4.001,4.007,0,0,4.042,73.04,53.465355713516,0,11,AutoTakeoff,
2500,2023-06-06 16:32:11,52.2063750782731,0.0867158188992286,0.328084,0.328084,53.465355713516,53.793439713516,0.328084,0,7.71243463,7.7127955224,18,3,15.935,53.793439713516,0.328084,0,7.71243463,0,0,-0.894776,272.7, 0.2, -0.2,0,0,1024,1024,1024,1024,0,0,0,0,273.3,0,0,70,3.986,3.999,4.001,4.007,0,0,4.042,73.04,53.793439713516,0.328084,11,AutoTakeoff,"Home Point updated (Code: 3000001)"
2700,2023-06-06 16:32:11,52.2063789476924,0.0867187680296121,0.656168,0.656168,53.465355713516,54.121523713516,0.656168,0,9.2705711628,9.2709648636,18,3,15.935,54.121523713516,0.656168,0,9.2705711628,0,0,-0.894776,272.6, 0.3, 0.1,0,0,1024,1024,1024,1024,0,0,0,0,273.3,0,0,70,3.986,3.999,4.001,4.007,0,0,4.042,73.04,54.121523713516,0.656168,11,AutoTakeoff,
2900,2023-06-06 16:32:11,52.2063823361973,0.0867213655806837,0.984252,0.984252,53.465355713516,54.449607713516,0.984252,0,10.63648328,10.6368769808,18,5,15.935,54.449607713516,0.984252,0,10.63648328,0,0,-0.894776,272.6, 0.1, 1.2,0,0,1024,1024,1024,1024,0,0,0,0,273.2,0,0,70,3.986,3.999,4.001,4.007,0,0,4.042,73.04,54.449607713516,0.984252,11,AutoTakeoff,
3100,2023-06-06 16:32:12,52.2063852027931,0.0867235462332056,1.312336,1.312336,53.465355713516,54.777691713516,1.312336,0,11.7904203248,11.7908140256,25,5,16.022,54.777691713516,1.312336,0,11.7904203248,0,0,-0.894776,272.7, -0.1, 1.9,0,0,1024,1024,1024,1024,0,0,0,0,273.2,0,0,70,3.955,3.959,3.948,3.959,0,0,3.498,73.04,54.777691713516,1.312336,11,AutoTakeoff,
3300,2023-06-06 16:32:12,52.2063876590809,0.0867254207537868,1.64042,1.64042,53.465355713516,55.105775713516,1.64042,0,12.7797576268,12.7801513276,25,5,16.022,55.105775713516,1.64042,0,12.7797576268,0,0,-0.894776,272.8, -0.2, 1.9,0,0,1024,1024,1024,1024,0,0,0,0,273.2,0,0,70,3.955,3.959,3.948,3.959,0,0,3.498,73.04,55.105775713516,1.64042,11,AutoTakeoff,
3500,2023-06-06 16:32:12,52.2063897106293,0.0867269800347798,1.968504,1.968504,53.465355713516,55.433859713516,1.968504,0,13.6054466296,13.6058731388,26,5,16.022,55.433859713516,1.968504,0,13.6054466296,0,0,-1.11847,272.9, -0.6, 1.1,0,0,1024,1024,1024,1024,0,0,0,0,273.2,0,0,70,3.955,3.959,3.948,3.959,0,0,3.498,73.04,55.433859713516,1.968504,11,AutoTakeoff,
3700,2023-06-06 16:32:12,52.2063914291561,0.0867282787412918,2.296588,2.2637796,53.498164113516,55.761943713516,2.296588,0,14.296424342,14.2968508512,26,5,16.022,55.761943713516,2.296588,0,14.296424342,0,0,-1.11847,272.8, -1, 0.6,0,0,1024,1024,1024,1024,0,0,0,0,273.2,0,0,70,3.955,3.959,3.948,3.959,0,0,3.498,73.04,55.761943713516,2.296588,11,AutoTakeoff,
3900,2023-06-06 16:32:12,52.2063928111618,0.0867292479176663,2.624672,2.5918636,53.498164113516,56.090027713516,2.624672,0,14.8449151732,14.8456697664,26,5,16.022,56.090027713516,2.624672,0,14.8449151732,0,0,-1.11847,272.8, -1, 0,0,0,1024,1024,1024,1024,0,0,0,0,273.2,0,0,70,3.955,3.959,3.948,3.959,0,0,3.498,73.04,56.090027713516,2.624672,11,AutoTakeoff,
4100,2023-06-06 16:32:13,52.2063938584668,0.0867298986671254,2.952756,2.8871392,53.530972513516,56.418111713516,2.952756,0,15.2526907768,15.2545280472,26,5,15.774,56.418111713516,2.952756,0,15.2526907768,0,0,-1.11847,272.7, -0.6, -0.5,0,0,1024,1024,1024,1024,0,0,0,0,273.2,0,0,70,3.934,3.943,3.936,3.939,0,0,7.08,73.04,56.418111713516,2.952756,11,AutoTakeoff,
4300,2023-06-06 16:32:13,52.2063945510416,0.0867302909110703,3.28084,3.2152232,53.530972513516,56.746195713516,3.28084,0,15.5187669008,15.5220149324,26,5,15.774,56.746195713516,3.28084,0,15.5187669008,0,0,-1.11847,272.7, -0.6, 0.1,0,0,1024,1024,1024,1024,0,0,0,0,273.1,0,0,70,3.934,3.943,3.936,3.939,0,0,7.08,73.04,56.746195713516,3.28084,11,AutoTakeoff,
4500,2023-06-06 16:32:13,52.206394988738,0.0867304715157921,3.608924,3.5433072,53.530972513516,57.074279713516,3.608924,0,15.6806435464,15.6867131004,26,5,15.774,57.074279713516,3.608924,0,15.6806435464,0,0,-0.894776,272.5, -0.5, 0.8,0,0,1024,1024,1024,1024,0,0,0,0,273.1,0,0,70,3.934,3.943,3.936,3.939,0,0,7.08,73.04,57.074279713516,3.608924,6,P-GPS,
4700,2023-06-06 16:32:13,52.2063952689831,0.0867304978811388,3.937008,3.8713912,53.530972513516,57.402363713516,3.937008,0,15.7759519484,15.7891409252,26,5,15.774,57.402363713516,3.937008,0,15.7759519484,0,0,-0.447388,272.8, -0.5, 0.9,0,0,1024,1024,1024,1024,0,0,0,0,273.1,0,0,70,3.934,3.943,3.936,3.939,0,0,7.08,73.04,57.402363713516,3.937008,6,P-GPS,
4900,2023-06-06 16:32:13,52.2063954284605,0.0867303848638295,3.937008,3.8713912,53.530972513516,57.402363713516,3.937008,0,15.8183732096,15.8525595624,26,5,15.774,57.402363713516,3.937008,0,15.8183732096,0,0,0,272.9, -0.4, 1.1,0,0,1024,1024,1024,1024,0,0,0,0,273.1,0,0,70,3.934,3.943,3.936,3.939,0,0,7.08,73.04,57.402363713516,3.937008,6,P-GPS,
5100,2023-06-06 16:32:14,52.2063954028968,0.0867301632746935,3.937008,3.8713912,53.530972513516,57.402363713516,3.937008,0,15.789370584,15.9029860732,26,5,15.75,57.402363713516,3.937008,0,15.8183732096,0,0,0,273.2, -0.4, 1.2,0,0,1024,1024,1024,1024,0,0,0,0,273.1,0,0,70,3.934,3.942,3.936,3.939,0,0,7.68,73.04,57.402363713516,3.937008,6,P-GPS,
5300,2023-06-06 16:32:14,52.2063953179687,0.0867299037976038,3.937008,3.8713912,53.530972513516,57.402363713516,3.937008,0,15.7372708448,15.9687669152,26,5,15.75,57.402363713516,3.937008,0,15.8183732096,0,0,0,273.2, -0.5, 0.7,0,0,1024,1024,1024,1024,0,0,0,0,273.1,0,0,70,3.934,3.942,3.936,3.939,0,0,7.68,73.04,57.402363713516,3.937008,6,P-GPS,
5500,2023-06-06 16:32:14,52.2063951548419,0.086729568499173,3.937008,3.8713912,53.530972513516,57.402363713516,3.937008,0,15.6523298972,16.064469018,26,5,15.75,57.402363713516,3.937008,0,15.8183732096,0,0,0,273.2, -0.8, 0.8,0,0,1024,1024,1024,1024,0,0,0,0,273.1,0,0,70,3.934,3.942,3.936,3.939,0,0,7.68,73.04,57.402363713516,3.937008,6,P-GPS,
5700,2023-06-06 16:32:14,52.206395008429,0.0867292311632294,3.937008,3.8713912,53.530972513516,57.402363713516,3.937008,0,15.5728679524,16.1568902808,26,5,15.75,57.402363713516,3.937008,0,15.8183732096,0,0,0,273.2, -1, 0.7,0,0,1024,1024,1024,1024,0,0,0,0,273.1,0,0,70,3.934,3.942,3.936,3.939,0,0,7.68,73.04,57.402363713516,3.937008,6,P-GPS,
5900,2023-06-06 16:32:14,52.2063947688554,0.0867288436338726,3.937008,3.8713912,53.530972513516,57.402363713516,3.937008,0,15.4579401272,16.2799873976,26,5,15.75,57.402363713516,3.937008,0,15.8183732096,0,0,0,273.3, -0.5, 0.3,0,0,1024,1024,1024,1024,0,0,0,0,273.1,0,0,70,3.934,3.942,3.936,3.939,0,0,7.68,73.04,57.402363713516,3.937008,6,P-GPS,
6100,2023-06-06 16:32:15,52.206394463068,0.0867284458645282,3.937008,3.8713912,53.530972513516,57.402363713516,3.937008,0,15.3200792304,16.4226711292,26,5,15.779,57.402363713516,3.937008,0,15.8183732096,0,0,0,273.2, -0.5, 0.8,0,0,1024,1024,1024,1024,0,0,0,0,273.1,0,0,70,3.932,3.94,3.934,3.938,0,0,7.019,73.22,57.402363713516,3.937008,6,P-GPS,
6300,2023-06-06 16:32:15,52.2063941436507,0.0867280709027465,3.937008,3.8713912,53.530972513516,57.402363713516,3.937008,0,15.1797577036,16.5662078792,26,5,15.779,57.402363713516,3.937008,0,15.8183732096,0,0,0,273.2, -0.7, 0.3,0,0,1024,1024,1024,1024,0,0,0,0,273.1,0,0,70,3.932,3.94,3.934,3.938,0,0,7.019,73.22,57.402363713516,3.937008,6,P-GPS,
6500,2023-06-06 16:32:15,52.2063937888263,0.0867277169276969,3.937008,3.8713912,53.530972513516,57.402363713516,3.937008,0,15.0294952316,16.7179467292,26,5,15.779,57.402363713516,3.937008,0,15.8183732096,0,0,0,273.2, -0.7, 0.5,0,0,1024,1024,1024,1024,0,0,0,0,273.1,0,0,70,3.932,3.94,3.934,3.938,0,0,7.019,73.22,57.402363713516,3.937008,6,P-GPS,
6700,2023-06-06 16:32:15,52.2063934464925,0.0867274174412635,3.937008,3.9041996,53.498164113516,57.402363713516,3.937008,0,14.888287878,16.8596790172,26,5,15.779,57.402363713516,3.937008,0,15.8183732096,0,0,0,273.1, -0.7, 1.8,0,0,1024,1024,1024,1024,0,0,0,0,273.1,0,0,70,3.932,3.94,3.934,3.938,0,0,7.019,73.22,57.402363713516,3.937008,6,P-GPS,
6900,2023-06-06 16:32:15,52.2063931473017,0.0867270876734745,3.937008,3.9041996,53.498164113516,57.402363713516,3.937008,0,14.7588915484,16.9914047432,26,5,15.779,57.402363713516,3.937008,0,15.8183732096,0,0,0,273.1, -0.8, 1.5,0,0,1024,1024,1024,1024,0,0,0,0,273.1,0,0,70,3.932,3.94,3.934,3.938,0,0,7.019,73.22,57.402363713516,3.937008,6,P-GPS,
7100,2023-06-06 16:32:16,52.2063929061903,0.0867267801243614,3.937008,3.9041996,53.498164113516,57.402363713516,3.937008,0,14.6509519124,17.1030517284,26,5,15.736,57.402363713516,3.937008,0,15.8183732096,0,0,0,273.2, -0.6, 1.3,0,0,1024,1024,1024,1024,0,0,0,0,273.1,0,0,70,3.928,3.936,3.93,3.934,0,0,7.375,73.04,57.402363713516,3.937008,6,P-GPS,
7300,2023-06-06 16:32:16,52.2063927137817,0.0867264932177351,3.937008,3.9041996,53.498164113516,57.402363713516,3.937008,0,14.5612209384,17.19816328,26,5,15.736,57.402363713516,3.937008,0,15.8183732096,0,0,0,273.2, -0.5, 1,0,0,1024,1024,1024,1024,0,0,0,0,273.1,0,0,70,3.928,3.936,3.93,3.934,0,0,7.375,73.04,57.402363713516,3.937008,6,P-GPS,
7500,2023-06-06 16:32:16,52.2063925318376,0.0867262207641697,3.937008,3.9041996,53.498164113516,57.402363713516,3.937008,0,14.4763456076,17.2882551464,26,5,15.736,57.402363713516,3.937008,0,15.8183732096,0,0,0,273.2, -0.2, 1,0,0,1024,1024,1024,1024,0,0,0,0,273.1,0,0,70,3.928,3.936,3.93,3.934,0,0,7.375,73.04,57.402363713516,3.937008,6,P-GPS,
7700,2023-06-06 16:32:16,52.2063923888944,0.0867260093800725,3.937008,3.9041996,53.498164113516,57.402363713516,3.937008,0,14.409941406,17.3586291644,26,5,15.736,57.402363713516,3.937008,0,15.8183732096,0,0,0,273.3, -0.2, 1.2,0,0,1024,1024,1123,1024,0,0,15,0,273.1,0,0,70,3.928,3.936,3.93,3.934,0,0,7.375,73.04,57.402363713516,3.937008,6,P-GPS,
7900,2023-06-06 16:32:16,52.2063922676855,0.0867258443223079,3.937008,3.9041996,53.498164113516,57.402363713516,3.937008,0,14.3548889108,17.4162407148,26,5,15.736,57.402363713516,3.937008,0,15.8183732096,0,0,0,273.3, -0.4, 1.7,0,0,1024,1024,1024,1024,0,0,0,0,273.1,0,0,70,3.928,3.936,3.93,3.934,0,0,7.375,73.04,57.402363713516,3.937008,6,P-GPS,
8100,2023-06-06 16:32:17,52.2063922039391,0.0867257054359244,4.265092,4.2322836,53.498164113516,57.730447713516,3.937008,0,14.3214571512,17.4550202436,26,5,15.71,57.730447713516,4.265092,0,15.8183732096,0,0,-0.671082,273.2, -0.7, 1.6,0,0,1024,1024,1024,1024,0,0,0,0,273.1,0,0,70,3.925,3.93,3.925,3.929,0,0,7.557,73.22,57.730447713516,4.265092,6,P-GPS,
8300,2023-06-06 16:32:17,52.2063921933589,0.0867255906152589,4.265092,4.2322836,53.498164113516,57.730447713516,4.265092,0,14.3080057072,17.480971688,26,5,15.71,57.730447713516,4.265092,0,15.8183732096,0,0,-0.223694,273.2, -0.6, 0.9,0,0,1024,1024,1024,1024,0,0,0,0,273.1,0,0,70,3.925,3.93,3.925,3.929,0,0,7.557,73.22,57.730447713516,4.265092,6,P-GPS,
8500,2023-06-06 16:32:17,52.2063921943484,0.086725476359016,4.265092,4.2322836,53.498164113516,57.730447713516,4.265092,0,14.298556888,17.5065294316,27,5,15.71,57.730447713516,4.265092,0,15.8183732096,0,0,0,273.2, -0.5, 1,0,0,1024,1024,1024,1024,0,0,0,0,273.1,0,0,70,3.925,3.93,3.925,3.929,0,0,7.557,73.22,57.730447713516,4.265092,6,P-GPS,
8700,2023-06-06 16:32:17,52.2063922364462,0.086725364080873,4.265092,4.2322836,53.498164113516,57.730447713516,4.265092,0,14.3031828724,17.5359585664,27,5,15.71,57.730447713516,4.265092,0,15.8183732096,0,0,0,273.2, -0.3, 0,0,0,1024,1024,1024,1024,0,0,0,0,273.1,0,0,70,3.925,3.93,3.925,3.929,0,0,7.557,73.22,57.730447713516,4.265092,6,P-GPS,
8900,2023-06-06 16:32:17,52.20639223744,0.0867252466285657,4.265092,4.2322836,53.498164113516,57.730447713516,4.265092,0,14.2935700112,17.5622380948,27,5,15.71,57.730447713516,4.265092,0,15.8183732096,0,0,0,273.2, -0.4, 0.3,0,0,1024,1024,1024,1024,0,0,0,0,273.1,0,0,70,3.925,3.93,3.925,3.929,0,0,7.557,73.22,57.730447713516,4.265092,6,P-GPS,
9100,2023-06-06 16:32:18,52.2063921959204,0.0867251649061261,4.265092,4.2322836,53.498164113516,57.730447713516,4.265092,0,14.272638252,17.585958568,27,5,15.704,57.730447713516,4.265092,0,15.8183732096,0,0,0,273.2, 0, 1.3,0,0,1024,1024,1024,1024,0,0,0,0,273.1,0,0,70,3.931,3.925,3.916,3.926,0,0,7.565,73.22,57.730447713516,4.265092,6,P-GPS,
9300,2023-06-06 16:32:18,52.2063921529103,0.0867251258037028,4.265092,4.2322836,53.498164113516,57.730447713516,4.265092,0,14.2547904824,17.6039375712,27,5,15.704,57.730447713516,4.265092,0,15.8183732096,0,0,0,273.1, 0, 2,0,0,1024,1024,1024,1024,0,0,0,0,273.1,0,0,70,3.931,3.925,3.916,3.926,0,0,7.565,73.22,57.730447713516,4.265092,6,P-GPS,
9500,2023-06-06 16:32:18,52.2063921603078,0.0867251345461358,4.265092,4.2322836,53.498164113516,57.730447713516,4.265092,0,14.258038514,17.6072512196,27,5,15.704,57.730447713516,4.265092,0,15.8183732096,0,0,0,273.2, -0.1, 1.7,0,0,1024,1024,1024,1024,0,0,0,0,273.1,0,0,70,3.931,3.925,3.916,3.926,0,0,7.565,73.22,57.730447713516,4.265092,6,P-GPS,
9700,2023-06-06 16:32:18,52.2063921961946,0.0867251636968989,4.265092,4.2322836,53.498164113516,57.730447713516,4.265092,0,14.272638252,17.621883766,27,5,15.704,57.730447713516,4.265092,0,15.8183732096,0,0,0,273.1, -0.5, 1.5,0,0,1024,1024,1024,1024,0,0,0,0,273.1,0,0,70,3.931,3.925,3.916,3.926,0,0,7.565,73.22,57.730447713516,4.265092,6,P-GPS,
9900,2023-06-06 16:32:18,52.2063922417406,0.086725169456455,4.265092,4.2322836,53.498164113516,57.730447713516,4.265092,0,14.2884847092,17.6385504332,27,5,15.704,57.730447713516,4.265092,0,15.8183732096,0,0,0,273, -0.7, 1.9,0,0,1024,1024,1024,1024,0,0,0,0,273.1,0,0,70,3.931,3.925,3.916,3.926,0,0,7.565,73.22,57.730447713516,4.265092,6,P-GPS,
10100,2023-06-06 16:32:19,52.2063923232676,0.0867251381808072,4.265092,4.2322836,53.498164113516,57.730447713516,4.265092,0,14.3134190932,17.6690950536,27,5,15.703,57.730447713516,4.265092,0,15.8183732096,0,0,0,273.1, -0.1, 0.9,0,0,1024,1024,1024,1024,0,0,0,0,273.1,0,0,70,3.923,3.929,3.924,3.928,0,0,7.482,73.22,57.730447713516,4.265092,6,P-GPS,
10300,2023-06-06 16:32:19,52.2063924085169,0.0867251291081083,4.265092,4.2322836,53.498164113516,57.730447713516,4.265092,0,14.3414702752,17.7002630336,27,5,15.703,57.730447713516,4.265092,0,15.8183732096,0,0,0,273, -0.3, 0.8,0,0,1024,1024,1206,1024,0,0,28,0,273.1,0,0,70,3.923,3.929,3.924,3.928,0,0,7.482,73.22,57.730447713516,4.265092,6,P-GPS,
10500,2023-06-06 16:32:19,52.2063924794253,0.086725130642359,4.265092,4.2322836,53.498164113516,57.730447713516,4.265092,0,14.3655844492,17.7261488612,27,5,15.703,57.730447713516,4.265092,0,15.8183732096,0,0,0,273, -0.2, 0.9,0,0,1024,1024,1684,1024,0,0,100,0,273.1,0,0,70,3.923,3.929,3.924,3.928,0,0,7.482,73.22,57.730447713516,4.265092,6,P-GPS,
10700,2023-06-06 16:32:19,52.2063925386055,0.0867251400977468,4.593176,4.5603676,53.498164113516,58.058531713516,4.593176,0,14.3863849748,17.7478352136,27,5,15.703,58.058531713516,4.593176,0,15.8183732096,0,0,-1.565858,273.2, -0.2, 0.8,0,0,1024,1024,1684,1024,0,0,100,0,273.1,0,0,70,3.923,3.929,3.924,3.928,0,0,7.482,73.22,58.058531713516,4.593176,6,P-GPS,
10900,2023-06-06 16:32:19,52.2063925574784,0.086725177225565,5.249344,5.2165356,53.498164113516,58.714699713516,5.249344,0,14.3958994108,17.7586291772,27,5,15.703,58.714699713516,5.249344,0,15.8183732096,0,0,-3.802798,272.8, 0.1, 1.3,0,0,1024,1024,1099,1024,0,0,11,0,273.1,0,0,70,3.923,3.929,3.924,3.928,0,0,7.482,73.22,58.714699713516,5.249344,6,P-GPS,
11100,2023-06-06 16:32:20,52.2063925590333,0.0867251919372467,6.889764,6.8569556,53.498164113516,60.355119713516,6.56168,0,14.397638256,17.761975634,27,5,15.697,60.355119713516,6.889764,0,15.8183732096,0,0,-4.47388,272.9, 0, 1.6,0,0,1024,1024,1024,1024,0,0,0,0,273.1,0,0,70,3.921,3.925,3.921,3.923,0,0,7.297,73.4,60.355119713516,6.889764,6,P-GPS,
11300,2023-06-06 16:32:20,52.2063925566217,0.086725155445496,7.874016,7.8412076,53.498164113516,61.339371713516,7.874016,0,14.3937668648,17.770177734,27,5,15.697,61.339371713516,7.874016,0,15.8183732096,0,0,-2.460634,273.2, 0.3, 1.2,0,0,1024,1024,1024,1024,0,0,0,0,273.1,0,0,70,3.921,3.925,3.921,3.923,0,0,7.297,73.4,61.339371713516,7.874016,6,P-GPS,
11500,2023-06-06 16:32:20,52.2063925176337,0.0867250901017941,8.2021,8.1692916,53.498164113516,61.667455713516,8.2021,0,14.3750988852,17.7905517504,27,5,15.697,61.667455713516,8.2021,0,15.8183732096,0,0,-0.671082,273.1, 0.7, 1.4,0,0,1024,1024,1024,1024,0,0,0,0,273.1,0,0,70,3.921,3.925,3.921,3.923,0,0,7.297,73.4,61.667455713516,8.2021,6,P-GPS,
11700,2023-06-06 16:32:20,52.2063924286577,0.0867250642991225,8.2021,8.1692916,53.498164113516,61.667455713516,8.2021,0,14.342848228,17.8235241924,27,5,15.697,61.667455713516,8.2021,0,15.8183732096,0,0,0,273, 0.8, 2,0,0,1024,1024,1024,1024,0,0,0,0,273.1,0,0,70,3.921,3.925,3.921,3.923,0,0,7.297,73.4,61.667455713516,8.2021,6,P-GPS,
11900,2023-06-06 16:32:20,52.2063923240515,0.0867251499742672,8.2021,8.1692916,53.498164113516,61.667455713516,8.2021,0,14.3146658124,17.8662407292,27,5,15.697,61.667455713516,8.2021,0,15.8183732096,0,0,0,273, 0.7, 2,0,0,1024,1024,1024,1024,0,0,0,0,273.1,0,0,70,3.921,3.925,3.921,3.923,0,0,7.297,73.4,61.667455713516,8.2021,6,P-GPS,
12100,2023-06-06 16:32:21,52.2063922390163,0.0867253033888515,8.2021,8.1692916,53.498164113516,61.667455713516,8.2021,0,14.2989177804,17.9125005732,27,5,15.416,61.667455713516,8.2021,0,15.8183732096,0,0,0,273.1, 0.1, 2.9,0,0,1024,1024,1024,1024,0,0,0,0,273.1,0,0,70,3.831,3.888,3.937,3.94,0,0,9.986,73.22,61.667455713516,8.2021,6,P-GPS,
12300,2023-06-06 16:32:21,52.2063922108911,0.0867254771243939,8.2021,8.1692916,53.498164113516,61.667455713516,8.2021,0,14.3041999328,17.9526580548,27,5,15.416,61.667455713516,8.2021,0,15.8183732096,0,0,0,273.1, -0.6, 2.3,0,0,1024,1024,1024,1024,0,0,0,0,273.1,0,0,70,3.831,3.888,3.937,3.94,0,0,9.986,73.22,61.667455713516,8.2021,6,P-GPS,
12500,2023-06-06 16:32:21,52.2063922247652,0.0867255789318875,8.2021,8.1692916,53.498164113516,61.667455713516,8.2021,0,14.31758576,17.9759848272,27,5,15.416,61.667455713516,8.2021,0,15.8183732096,0,0,0,272.8, -0.4, 1.6,0,0,1024,1024,1024,1024,0,0,0,0,273.1,0,0,70,3.831,3.888,3.937,3.94,0,0,9.986,73.22,61.667455713516,8.2021,6,P-GPS,
12700,2023-06-06 16:32:21,52.2063922857745,0.0867255727040179,8.2021,8.1692916,53.498164113516,61.667455713516,8.2021,0,14.3376316924,17.9982945392,27,5,15.416,61.667455713516,8.2021,0,15.8183732096,0,0,0,273, 0.6, 1.1,0,0,1024,1024,1024,1024,0,0,0,0,273.1,0,0,70,3.831,3.888,3.937,3.94,0,0,9.986,73.22,61.667455713516,8.2021,6,P-GPS,
12900,2023-06-06 16:32:21,52.2063923510801,0.0867255400618735,8.2021,8.1692916,53.498164113516,61.667455713516,8.2021,0,14.3568574148,18.0231961148,27,5,15.416,61.667455713516,8.2021,0,15.8183732096,0,0,0,272.9, 1.1, 0.4,0,0,1024,1024,1024,1024,0,0,0,0,273.1,0,0,70,3.831,3.888,3.937,3.94,0,0,9.986,73.22,61.667455713516,8.2021,6,P-GPS,
13100,2023-06-06 16:32:22,52.2063923615188,0.0867255455296074,8.2021,8.1692916,53.498164113516,61.667455713516,8.2021,0,14.3608272312,18.0271987396,27,5,15.699,61.667455713516,8.2021,0,15.8183732096,0,0,0,273.2, 1, 0.3,0,0,1024,1024,1024,1024,0,0,0,0,273.1,0,0,70,3.92,3.923,3.92,3.921,0,0,5.937,73.58,61.667455713516,8.2021,6,P-GPS,
13300,2023-06-06 16:32:22,52.206392303054,0.0867256362461111,8.2021,8.1692916,53.498164113516,61.667455713516,8.2021,0,14.3488849736,18.0566278744,27,5,15.699,61.667455713516,8.2021,0,15.8183732096,0,0,0,273.4, 0.6, 1.4,0,0,1024,1024,1049,1024,0,0,4,0,273.1,0,0,70,3.92,3.923,3.92,3.921,0,0,5.937,73.58,61.667455713516,8.2021,6,P-GPS,
13500,2023-06-06 16:32:22,52.2063922454543,0.08672581537949,8.2021,8.1692916,53.498164113516,61.667455713516,8.2021,0,14.3448823488,18.101870658,27,5,15.699,61.667455713516,8.2021,0,15.8183732096,0,0,0,273.2, 0, 1.7,0,0,1024,1024,1200,1024,0,0,27,0,273.1,0,0,70,3.92,3.923,3.92,3.921,0,0,5.937,73.58,61.667455713516,8.2021,6,P-GPS,
13700,2023-06-06 16:32:22,52.2063921831343,0.0867260165393266,8.2021,8.1692916,53.498164113516,61.667455713516,8.2021,0,14.34137185,18.1522643604,27,5,15.699,61.667455713516,8.2021,0,15.8183732096,0,0,0,273, -0.7, 1.7,0,0,1024,1024,1684,1024,0,0,100,0,273.1,0,0,70,3.92,3.923,3.92,3.921,0,0,5.937,73.58,61.667455713516,8.2021,6,P-GPS,
13900,2023-06-06 16:32:22,52.206392120039,0.0867261974201436,8.530184,8.4973756,53.498164113516,61.995539713516,8.2021,0,14.3359912724,18.19881948,27,5,15.699,61.995539713516,8.530184,0,15.8183732096,0,0,-1.565858,273, -0.2, 1.8,0,0,1024,1024,1684,1024,0,0,100,0,273.1,0,0,70,3.92,3.923,3.92,3.921,0,0,5.937,73.58,61.995539713516,8.530184,6,P-GPS,
14100,2023-06-06 16:32:23,52.2063920799801,0.0867263546860815,9.514436,9.4816276,53.498164113516,62.979791713516,9.186352,0,14.3363849732,18.236877224,27,5,15.662,62.979791713516,9.514436,0,15.8183732096,0,0,-3.802798,273, -1.7, 2.2,0,0,1024,1024,1684,1024,0,0,100,0,273.1,0,0,70,3.915,3.919,3.917,3.917,0,0,7.375,73.58,62.979791713516,9.514436,6,P-GPS,
14300,2023-06-06 16:32:23,52.206392112029,0.0867263549901357,11.154856,11.1220476,53.498164113516,64.620211713516,10.826772,0,14.3471789368,18.2485898228,27,5,15.662,64.620211713516,11.154856,0,15.8183732096,0,0,-6.263432,272.9, -0.5, 0.8,0,0,1024,1024,1684,1024,0,0,100,0,273.1,0,0,70,3.915,3.919,3.917,3.917,0,0,7.375,73.58,64.620211713516,11.154856,6,P-GPS,
14500,2023-06-06 16:32:23,52.2063921167922,0.0867262828122033,13.451444,13.4186356,53.498164113516,66.916799713516,13.12336,0,14.3424217188,18.2647971724,27,5,15.662,66.916799713516,13.451444,0,15.8183732096,0,0,-8.724066,273.1, -0.3, 1,0,0,1024,1024,1684,1024,0,0,100,0,273.1,0,0,70,3.915,3.919,3.917,3.917,0,0,7.375,73.58,66.916799713516,13.451444,6,P-GPS,
14700,2023-06-06 16:32:23,52.2063920893952,0.0867262549230905,16.732284,16.6994756,53.498164113516,70.197639713516,16.076116,0,14.3307747368,18.276575388,27,5,15.662,70.197639713516,16.732284,0,15.8183732096,0,0,-11.1847,272.9, -0.3, 0.9,0,0,1024,1024,1684,1024,0,0,100,0,273.1,0,0,70,3.915,3.919,3.917,3.917,0,0,7.375,73.58,70.197639713516,16.732284,6,P-GPS,
14900,2023-06-06 16:32:23,52.2063920398741,0.0867261518801582,21.653544,21.6207356,53.498164113516,75.118899713516,19.68504,0,14.3050857596,18.3058732892,27,5,15.662,75.118899713516,21.653544,0,15.8183732096,0,0,-12.750558,273, -0.7, 1.2,0,0,1024,1024,1684,1024,0,0,100,0,273.1,0,0,70,3.915,3.919,3.917,3.917,0,0,7.375,73.58,75.118899713516,21.653544,6,P-GPS,
15100,2023-06-06 16:32:24,52.2063919509539,0.0867259736502048,26.902888,26.8700796,53.498164113516,80.368243713516,23.622048,0,14.2596461256,18.3572512436,26,5,15.497,80.368243713516,26.902888,0,15.8183732096,0,0,-13.197946,272.9, 1, 1.7,0,0,1024,1024,1653,1024,0,0,95,0,273.1,0,0,70,3.846,3.851,3.835,3.836,0,0,8.584,73.76,80.368243713516,26.902888,6,P-GPS,
15300,2023-06-06 16:32:24,52.206391853516,0.086725854799947,31.496064,31.4632556,53.498164113516,84.961419713516,27.559056,0,14.216535888,18.4016410088,26,5,15.497,84.961419713516,31.496064,0,15.8183732096,0,0,-13.42164,272.6, 0.4, 2.9,0,0,1024,1024,1024,1024,0,0,0,0,273.1,0,0,70,3.846,3.851,3.835,3.836,0,0,8.584,73.76,84.961419713516,31.496064,6,P-GPS,
15500,2023-06-06 16:32:24,52.2063917319129,0.0867256423027317,35.761156,35.7283476,53.498164113516,89.226511713516,31.824148,0,14.157152684,18.4666344492,27,5,15.497,89.226511713516,35.761156,0,15.8183732096,0,0,-12.526864,272.8, 1, 2.2,0,0,1024,1024,1024,1024,0,0,0,0,273.1,0,0,70,3.846,3.851,3.835,3.836,0,0,8.584,73.76,89.226511713516,35.761156,6,P-GPS,
15700,2023-06-06 16:32:24,52.2063915440641,0.0867253436952597,39.041996,39.0091876,53.498164113516,92.507351713516,35.433072,0,14.0681106864,18.562336552,27,5,15.497,92.507351713516,39.041996,0,15.8183732096,0,0,-10.513618,272.7, 1.7, 3.4,0,0,1024,1024,364,1007,0,0,-100,-3,273.1,0,0,70,3.846,3.851,3.835,3.836,0,0,8.584,73.76,92.507351713516,39.041996,6,P-GPS,
15900,2023-06-06 16:32:24,52.2063912987806,0.0867249694604122,41.338584,41.3057756,53.498164113516,94.803939713516,38.385828,0.3131716,13.9533140948,18.6848431176,27,5,15.497,94.803939713516,41.338584,0.3131716,15.8183732096,-0.223694,-0.223694,-8.276678,272.8, 2.6, 3.8,0,0,1024,1024,364,997,0,0,-100,-4,273.1,0,0,70,3.846,3.851,3.835,3.836,0,0,8.584,73.76,94.803939713516,41.338584,6,P-GPS,
16100,2023-06-06 16:32:25,52.206390994546,0.0867245205400586,42.979004,42.9461956,53.498164113516,96.444359713516,40.354332,0.3131716,13.8124020168,18.83448223,27,5,15.207,96.444359713516,42.979004,0.3131716,15.8183732096,-0.223694,-0.223694,-6.039738,273.2, 4.3, 5.5,0,0,1024,1024,364,1024,0,0,-100,0,273.1,0,0,70,3.826,3.832,3.827,3.83,0,0,14.929,73.58,96.444359713516,42.979004,6,P-GPS,
16300,2023-06-06 16:32:25,52.2063907120735,0.0867240906842551,43.635172,43.6023636,53.498164113516,97.100527713516,39.041996,0.3131716,13.6806434824,18.9754271164,27,5,15.207,97.100527713516,43.635172,0.3131716,15.8183732096,-0.223694,-0.223694,-3.579104,273.4, 6, 6.6,0,0,1024,1024,364,1024,0,0,-100,0,273.1,0,0,70,3.826,3.832,3.827,3.83,0,0,14.929,73.58,97.100527713516,43.635172,6,P-GPS,
16500,2023-06-06 16:32:25,52.2063904623137,0.086723704912821,43.635172,43.635172,53.465355713516,97.100527713516,39.37008,0,13.56381277,19.100886438,27,5,15.207,97.100527713516,43.635172,0.3131716,15.8183732096,0,0,-0.894776,273, 6.7, 7.5,0,0,1024,1024,364,1022,0,0,-100,-0,273.1,0,0,70,3.826,3.832,3.827,3.83,0,0,14.929,73.58,97.100527713516,43.635172,6,P-GPS,
16700,2023-06-06 16:32:25,52.2063903071327,0.0867234468039753,43.307088,43.307088,53.465355713516,96.772443713516,39.041996,0,13.4897642112,19.1817263356,27,5,15.207,97.100527713516,43.635172,0.3131716,15.8183732096,0,0,1.342164,272.9, 7.2, 8.6,0,0,1024,1024,364,1020,0,0,-100,-1,273.1,0,0,70,3.826,3.832,3.827,3.83,0,0,14.929,73.58,96.772443713516,43.307088,6,P-GPS,
16900,2023-06-06 16:32:25,52.20639024994,0.0867233489055008,42.65092,42.65092,53.465355713516,96.116275713516,37.72966,0,13.462270772,19.2119756804,27,5,15.207,97.100527713516,43.635172,0.3131716,15.8183732096,0,0,3.802798,272.9, 6.6, 8.8,0,0,1024,1024,364,1024,0,0,-100,0,273.1,0,0,70,3.826,3.832,3.827,3.83,0,0,14.929,73.58,96.116275713516,42.65092,6,P-GPS,
17100,2023-06-06 16:32:26,52.2063903371811,0.086723495076954,41.0105,41.0105,53.465355713516,94.475855713516,36.08924,0.223694,13.5039702484,19.2575793564,27,5,15.718,97.100527713516,43.635172,0.3131716,15.8183732096,0,0.223694,4.921268,273.2, 5.5, 7.2,0,0,1024,1024,990,1024,0,0,-5,0,273.1,0,0,70,3.942,3.947,3.944,3.946,0,0,8.176,73.94,94.475855713516,41.0105,6,P-GPS,
17300,2023-06-06 16:32:26,52.2063905250278,0.086723945881046,39.37008,39.3372716,53.498164113516,92.835435713516,34.44882,0.3131716,13.6052497792,19.3794953708,27,5,15.718,97.100527713516,43.635172,0.3131716,15.8183732096,0.223694,0.223694,5.144962,273.7, 3.4, 5.9,0,0,1024,1024,1024,1024,0,0,0,0,273.1,0,0,70,3.942,3.947,3.944,3.946,0,0,8.176,73.94,92.835435713516,39.37008,6,P-GPS,
17500,2023-06-06 16:32:26,52.2063907163891,0.0867245735084035,38.057744,38.0249356,53.498164113516,91.523099713516,33.136484,0.4921268,13.7231303604,19.5362210976,27,5,15.718,97.100527713516,43.635172,0.4921268,15.8183732096,0.223694,0.447388,4.250186,273.2, 0, 3.2,0,0,1024,1024,1024,1024,0,0,0,0,273.1,0,0,70,3.942,3.947,3.944,3.946,0,0,8.176,73.94,91.523099713516,38.057744,6,P-GPS,
17700,2023-06-06 16:32:26,52.2063908381313,0.0867249223687017,37.401576,37.3687676,53.498164113516,90.866931713516,32.480316,0.223694,13.7941605464,19.62598488,27,5,15.718,97.100527713516,43.635172,0.4921268,15.8183732096,0.223694,0,2.013246,272.1, 1.3, 3.5,0,0,1024,1024,1024,1024,0,0,0,0,273.1,0,0,70,3.942,3.947,3.944,3.946,0,0,8.176,73.94,90.866931713516,37.401576,6,P-GPS,
17900,2023-06-06 16:32:26,52.2063908440125,0.0867250326582601,37.073492,37.0406836,53.498164113516,90.538847713516,32.480316,0.223694,13.8057091032,19.6507224136,27,5,15.718,97.100527713516,43.635172,0.4921268,15.8183732096,0.223694,0,0.447388,272.8, 5.2, 6.1,0,0,1024,1024,1024,1024,0,0,0,0,273.1,0,0,70,3.942,3.947,3.944,3.946,0,0,8.176,73.94,90.538847713516,37.073492,6,P-GPS,
18100,2023-06-06 16:32:27,52.2063908731485,0.086725355493962,37.073492,37.0406836,53.498164113516,90.538847713516,32.480316,0.3131716,13.8437012304,19.7236882952,27,5,15.844,97.100527713516,43.635172,0.4921268,15.8183732096,0.223694,0.223694,0,273.6, 3.9, 5.3,0,0,1024,1024,1024,1024,0,0,0,0,273.1,0,0,70,3.937,3.94,3.933,3.932,0,0,3.686,74.12,90.538847713516,37.073492,6,P-GPS,
18300,2023-06-06 16:32:27,52.20639095843,0.0867258712747938,37.073492,37.0406836,53.498164113516,90.538847713516,32.152232,0.3131716,13.9179138312,19.8431436796,27,5,15.844,97.100527713516,43.635172,0.4921268,15.8183732096,0.223694,0.223694,0,272.4, 1.2, 4.1,0,0,1024,1024,1024,1024,0,0,0,0,273.1,0,0,70,3.937,3.94,3.933,3.932,0,0,3.686,74.12,90.538847713516,37.073492,6,P-GPS,
18500,2023-06-06 16:32:27,52.2063910582988,0.0867263510286935,37.073492,37.0406836,53.498164113516,90.538847713516,32.480316,0.223694,13.9943574032,19.9564310848,27,5,15.844,97.100527713516,43.635172,0.4921268,15.8183732096,0.223694,0,0,274.1, 0, 3.2,0,0,1024,1024,1024,1024,0,0,0,0,273.1,0,0,70,3.937,3.94,3.933,3.932,0,0,3.686,74.12,90.538847713516,37.073492,6,P-GPS,
18700,2023-06-06 16:32:27,52.2063911071088,0.0867266232690714,37.073492,37.0406836,53.498164113516,90.538847713516,32.480316,0,14.0353350948,20.019849722,27,5,15.844,97.100527713516,43.635172,0.4921268,15.8183732096,0,0,0,274.3, 1.2, 2.5,0,0,1024,1024,1024,1024,0,0,0,0,273.1,0,0,70,3.937,3.94,3.933,3.932,0,0,3.686,74.12,90.538847713516,37.073492,6,P-GPS,
18900,2023-06-06 16:32:27,52.2063910590827,0.0867267187665659,37.073492,37.0406836,53.498164113516,90.538847713516,32.8084,0,14.02805163,20.0474743948,27,5,15.844,97.100527713516,43.635172,0.4921268,15.8183732096,0,0,0,274.5, 2.4, 3.5,0,0,1024,1024,1103,1024,0,0,12,0,273.1,0,0,70,3.937,3.94,3.933,3.932,0,0,3.686,74.12,90.538847713516,37.073492,6,P-GPS,
19100,2023-06-06 16:32:28,52.2063909355242,0.0867267861949615,36.745408,36.7125996,53.498164113516,90.210763713516,32.8084,0,13.9931434924,20.0950137664,27,5,15.427,97.100527713516,43.635172,0.4921268,15.8183732096,0,0,0,274.8, 2.7, 4.2,0,0,1024,1024,1684,1024,0,0,100,0,273.1,0,0,70,3.871,3.887,3.889,3.891,0,0,9.317,73.94,90.210763713516,36.745408,6,P-GPS,
19300,2023-06-06 16:32:28,52.2063907867041,0.0867268765742097,36.745408,36.7125996,53.498164113516,90.210763713516,32.8084,0,13.9520345672,20.1529205924,27,5,15.427,97.100527713516,43.635172,0.4921268,15.8183732096,0,0,-0.223694,274.8, 2, 4.9,0,0,1024,1024,1483,1024,0,0,70,0,273.1,0,0,70,3.871,3.887,3.889,3.891,0,0,9.317,73.94,90.210763713516,36.745408,6,P-GPS,
19500,2023-06-06 16:32:28,52.2063906904891,0.0867269369779039,37.401576,37.3687676,53.498164113516,90.866931713516,33.136484,0,13.925689422,20.1905518272,27,5,15.427,97.100527713516,43.635172,0.4921268,15.8183732096,0,0,-2.23694,275.2, 2.9, 3.6,0,0,1024,1024,1024,1024,0,0,0,0,273.1,0,0,70,3.871,3.887,3.889,3.891,0,0,9.317,73.94,90.866931713516,37.401576,6,P-GPS,
19700,2023-06-06 16:32:28,52.2063905616449,0.0867270059021066,38.385828,38.3530196,53.498164113516,91.851183713516,34.120736,0,13.8893705232,20.2400268944,27,5,15.427,97.100527713516,43.635172,0.4921268,15.8183732096,0,0,-3.579104,275.1, 3.1, 5.7,0,0,1024,1024,1024,1024,0,0,0,0,273.1,0,0,70,3.871,3.887,3.889,3.891,0,0,9.317,73.94,91.851183713516,38.385828,6,P-GPS,
19900,2023-06-06 16:32:28,52.2063903804312,0.0867270641005339,39.041996,39.041996,53.465355713516,92.507351713516,35.104988,0,13.834810154,20.307415348,27,5,15.427,97.100527713516,43.635172,0.4921268,15.8183732096,0,0,-1.789552,275.4, 3.9, 8.3,0,0,1024,1024,1024,1024,0,0,0,0,273.1,0,0,70,3.871,3.887,3.889,3.891,0,0,9.317,73.94,92.507351713516,39.041996,6,P-GPS,
20100,2023-06-06 16:32:29,52.2063902709096,0.0867271497512145,39.37008,39.37008,53.465355713516,92.835435713516,35.104988,0,13.8066605468,20.351706688,27,5,15.604,97.100527713516,43.635172,0.4921268,15.8183732096,0,0,-0.447388,275.3, 2.2, 7,0,0,1024,1024,1024,1024,0,0,0,0,273.1,0,0,70,3.896,3.905,3.897,3.901,0,0,7.386,74.12,92.835435713516,39.37008,6,P-GPS,
20300,2023-06-06 16:32:29,52.2063902813506,0.0867271994728194,39.37008,39.37008,53.465355713516,92.835435713516,35.104988,0,13.81479703,20.3634520952,27,5,15.604,97.100527713516,43.635172,0.4921268,15.8183732096,0,0,0,275.1, 1.9, 5.6,0,0,1024,1024,1024,815,0,0,0,-32,273.1,0,0,70,3.896,3.905,3.897,3.901,0,0,7.386,74.12,92.835435713516,39.37008,6,P-GPS,
20500,2023-06-06 16:32:29,52.2063903500443,0.0867272440849151,39.37008,39.37008,53.465355713516,92.835435713516,35.104988,0,13.8417327264,20.3904534084,27,5,15.604,97.100527713516,43.635172,0.4921268,15.8183732096,0,0,0,275.1, 2.8, 4.5,0,0,1024,1024,1024,364,0,0,0,-100,273,0,0,70,3.896,3.905,3.897,3.901,0,0,7.386,74.12,92.835435713516,39.37008,6,P-GPS,
20700,2023-06-06 16:32:29,52.2063903902574,0.0867272709884728,39.37008,39.37008,53.465355713516,92.835435713516,35.104988,0,13.8575791836,20.4062998656,27,5,15.604,97.100527713516,43.635172,0.4921268,15.8183732096,0,0,0,271.8, 2.8, 4.7,0,0,1024,1024,1024,364,0,0,0,-100,265.8,0,0,70,3.896,3.905,3.897,3.901,0,0,7.386,74.12,92.835435713516,39.37008,6,P-GPS,
20900,2023-06-06 16:32:29,52.2063904543636,0.0867272847757597,39.37008,39.37008,53.465355713516,92.835435713516,35.104988,0,13.880085746,20.4298891052,27,5,15.604,97.100527713516,43.635172,0.4921268,15.8183732096,0,0,0,259.2, 2.2, 4.1,0,0,1024,1024,1024,364,0,0,0,-100,254,0,0,70,3.896,3.905,3.897,3.901,0,0,7.386,74.12,92.835435713516,39.37008,6,P-GPS,
21100,2023-06-06 16:32:30,52.2063905366724,0.0867271588903159,39.37008,39.3372716,53.498164113516,92.835435713516,35.433072,0.223694,13.8954400772,20.4710308388,27,5,15.685,97.100527713516,43.635172,0.4921268,15.8183732096,0,-0.223694,0,247.1, 3.6, 3.3,0,0,1024,1024,1024,1024,0,0,0,0,242,0,0,69,3.918,3.922,3.913,3.912,0,0,8.576,74.3,92.835435713516,39.37008,6,P-GPS,
21300,2023-06-06 16:32:30,52.2063906320264,0.0867269000300718,39.37008,39.3372716,53.498164113516,92.835435713516,35.433072,0.223694,13.9028547756,20.5385833344,27,5,15.685,97.100527713516,43.635172,0.4921268,15.8183732096,0,-0.223694,0,237.6, 4.5, 1.8,0,0,1024,1024,1024,1024,0,0,0,0,236,0,0,69,3.918,3.922,3.913,3.912,0,0,8.576,74.3,92.835435713516,39.37008,6,P-GPS,
21500,2023-06-06 16:32:30,52.2063907023822,0.0867266623033447,39.37008,39.3372716,53.498164113516,92.835435713516,35.433072,0.223694,13.90419992,20.597605646,27,5,15.685,97.100527713516,43.635172,0.4921268,15.8183732096,0,-0.223694,0,237.7, 4.9, 1.7,0,0,1024,1024,1011,1684,0,0,-2,100,235.9,0,0,69,3.918,3.922,3.913,3.912,0,0,8.576,74.3,92.835435713516,39.37008,6,P-GPS,
21700,2023-06-06 16:32:30,52.206390743664,0.0867264268972153,39.37008,39.3372716,53.498164113516,92.835435713516,35.433072,0.223694,13.8963587124,20.6523628656,27,5,15.685,97.100527713516,43.635172,0.4921268,15.8183732096,0,-0.223694,0,237.9, 6, 0.9,0,0,1024,1024,1022,1684,0,0,-0,100,237.4,0,0,69,3.918,3.922,3.913,3.912,0,0,8.576,74.3,92.835435713516,39.37008,6,P-GPS,
21900,2023-06-06 16:32:30,52.2063907665183,0.0867262651875422,39.37008,39.3372716,53.498164113516,92.835435713516,35.433072,0,13.8892392896,20.689469166,27,5,15.685,97.100527713516,43.635172,0.4921268,15.8183732096,0,0,0,246.2, 7.4, 1,0,0,1024,1024,1022,1684,0,0,-0,100,247.9,0,0,69,3.918,3.922,3.913,3.912,0,0,8.576,74.3,92.835435713516,39.37008,6,P-GPS,
22100,2023-06-06 16:32:31,52.2063907364699,0.0867263229648369,39.37008,39.3372716,53.498164113516,92.835435713516,35.104988,0,13.8844820716,20.7063983004,27,5,15.569,97.100527713516,43.635172,0.4921268,15.8183732096,0,0,0,259, 5.5, 2,0,0,1024,1024,1024,1024,0,0,0,0,259.9,0,0,69,3.892,3.9,3.893,3.897,0,0,7.421,74.3,92.835435713516,39.37008,6,P-GPS,
22300,2023-06-06 16:32:31,52.2063906130271,0.0867265202121595,39.37008,39.3372716,53.498164113516,92.835435713516,35.104988,0,13.8614177664,20.7694232368,27,5,15.569,97.100527713516,43.635172,0.4921268,15.8183732096,0,0,0,270.9, 5.8, 4.1,0,0,1024,1024,1024,1024,0,0,0,0,271.1,0,0,69,3.892,3.9,3.893,3.897,0,0,7.421,74.3,92.835435713516,39.37008,6,P-GPS,
22500,2023-06-06 16:32:31,52.2063904436186,0.0867268271968501,39.37008,39.37008,53.465355713516,92.835435713516,35.104988,0,13.8335634348,20.8618116912,27,5,15.569,97.100527713516,43.635172,0.4921268,15.8183732096,0,0,0,276.5, 4.4, 4.4,0,0,1024,1024,1024,1024,0,0,0,0,273.2,0,0,69,3.892,3.9,3.893,3.897,0,0,7.421,74.3,92.835435713516,39.37008,6,P-GPS,
22700,2023-06-06 16:32:31,52.2063902899582,0.0867271619570699,39.37008,39.37008,53.465355713516,92.835435713516,34.776904,0,13.8141080536,20.9553156312,27,5,15.569,97.100527713516,43.635172,0.4921268,15.8183732096,0,0,0,275.2, 2.6, 5.2,0,0,1024,1024,1024,1024,0,0,0,0,273.2,0,0,69,3.892,3.9,3.893,3.897,0,0,7.421,74.3,92.835435713516,39.37008,6,P-GPS,
22900,2023-06-06 16:32:31,52.206390197367,0.0867273454485595,39.37008,39.37008,53.465355713516,92.835435713516,35.104988,0,13.8009190768,21.0084652392,27,5,15.569,97.100527713516,43.635172,0.4921268,15.8183732096,0,0,0,275.5, 2.6, 4.8,0,0,1024,1024,1024,1024,0,0,0,0,273.2,0,0,69,3.892,3.9,3.893,3.897,0,0,7.421,74.3,92.835435713516,39.37008,6,P-GPS,
23100,2023-06-06 16:32:32,52.2063901684836,0.0867273968966332,39.37008,39.37008,53.465355713516,92.835435713516,35.104988,0,13.7962930924,21.0240492292,27,5,15.571,97.100527713516,43.635172,0.4921268,15.8183732096,0,0,0,275.2, 2.8, 4.8,0,0,1024,1024,1024,1024,0,0,0,0,273.2,0,0,69,3.884,3.895,3.89,3.892,0,0,7.677,74.3,92.835435713516,39.37008,6,P-GPS,
23300,2023-06-06 16:32:32,52.2063901487069,0.0867273508953241,39.37008,39.37008,53.465355713516,92.835435713516,35.104988,0,13.7854007036,21.0366148464,27,5,15.571,97.100527713516,43.635172,0.4921268,15.8183732096,0,0,0,275.5, 3.4, 4.8,0,0,1425,1024,1024,1024,61,0,0,0,273.2,0,0,69,3.884,3.895,3.89,3.892,0,0,7.677,74.3,92.835435713516,39.37008,6,P-GPS,
23500,2023-06-06 16:32:32,52.2063901326204,0.0867272794390836,39.37008,39.37008,53.465355713516,92.835435713516,35.104988,0,13.7732615956,21.053642406,27,5,15.571,97.100527713516,43.635172,0.4921268,15.8183732096,0,0,0,275.9, -1.3, -0.1,0,0,1684,1024,1024,1024,100,0,0,0,273.2,0,0,69,3.884,3.895,3.89,3.892,0,0,7.677,74.3,92.835435713516,39.37008,6,P-GPS,
23700,2023-06-06 16:32:32,52.2063899884307,0.0867266813748845,39.37008,39.37008,53.465355713516,92.835435713516,35.433072,0.671082,13.6690621172,21.197343198,27,5,15.571,97.100527713516,43.635172,0.671082,15.8183732096,0,-0.671082,0,274.6, -20.8, 1.9,0,0,1684,1024,1024,1024,100,0,0,0,273.2,0,0,69,3.884,3.895,3.89,3.892,0,0,7.677,74.3,92.835435713516,39.37008,6,P-GPS,
23900,2023-06-06 16:32:32,52.2063897816854,0.0867239760767771,39.041996,39.041996,53.465355713516,92.507351713516,35.104988,2.908022,13.356955808,21.8068904616,27,5,15.571,97.100527713516,43.635172,2.908022,15.8183732096,0,-2.908022,0,274.1, -24.9, 2.9,0,0,1684,1024,1024,1024,100,0,0,0,273.2,0,0,69,3.884,3.895,3.89,3.892,0,0,7.677,74.3,92.507351713516,39.041996,6,P-GPS,
24100,2023-06-06 16:32:33,52.2063896306893,0.086718414463463,39.041996,39.041996,53.465355713516,92.507351713516,35.104988,4.921268,12.87811721,23.0516083492,27,5,15.533,97.100527713516,43.635172,4.921268,15.8183732096,0,-4.921268,0,274.4, -25.1, 3,0,0,1684,1024,1024,1024,100,0,0,0,273.2,0,0,69,3.886,3.895,3.891,3.893,0,0,8.024,74.3,92.507351713516,39.041996,6,P-GPS,
24300,2023-06-06 16:32:33,52.2063903467782,0.0867101965038999,39.041996,39.041996,53.465355713516,92.507351713516,32.152232,7.0016222,12.7056106428,24.9075139204,27,5,15.533,97.100527713516,43.635172,7.0016222,15.8183732096,0.894776,-6.934514,0,280.2, -24.5, 4.1,0,0,1684,1024,1024,1024,100,0,0,0,273.2,0,0,69,3.886,3.895,3.891,3.893,0,0,8.024,74.3,92.507351713516,39.041996,6,P-GPS,
24500,2023-06-06 16:32:33,52.2063911416227,0.0866993636321395,39.041996,39.0091876,53.498164113516,92.507351713516,32.480316,8.835913,12.835138206,27.3469168856,27,5,15.533,97.100527713516,43.635172,8.835913,15.8183732096,1.342164,-8.724066,0,280.8, -16.6, 4.4,0,0,1684,1024,1024,1024,100,0,0,0,273.2,0,0,69,3.886,3.895,3.891,3.893,0,0,8.024,74.3,92.507351713516,39.041996,6,P-GPS,
24700,2023-06-06 16:32:33,52.20639227262,0.0866868887676783,39.041996,39.0091876,53.498164113516,92.507351713516,33.136484,9.7754278,13.615157916,30.1664707816,27,5,15.533,97.100527713516,43.635172,9.7754278,15.8183732096,1.789552,-9.618842,0,280.7, -12.3, 3.7,0,0,1684,1024,1024,1024,100,0,0,0,273.2,0,0,69,3.886,3.895,3.891,3.893,0,0,8.024,74.3,92.507351713516,39.041996,6,P-GPS,
24900,2023-06-06 16:32:33,52.206393609371,0.086673307980743,39.041996,38.9763792,53.530972513516,92.507351713516,37.401576,10.8938978,15.0653548128,33.241798964,27,5,15.533,97.100527713516,43.635172,10.8938978,15.8183732096,1.789552,-10.737312,0,280.1, -19.1, 3.2,0,0,1684,1024,1024,1024,100,0,0,0,273.2,0,0,69,3.886,3.895,3.891,3.893,0,0,8.024,74.3,92.507351713516,39.041996,6,P-GPS,
25100,2023-06-06 16:32:34,52.2063952034634,0.0866580798995979,39.041996,38.9763792,53.530972513516,92.507351713516,37.72966,12.0347372,17.236385066,36.695867316,27,5,15.481,97.100527713516,43.635172,12.0347372,17.236385066,2.013246,-11.855782,0,280.2, -12.9, 3.1,0,0,1680,1024,1024,1024,99,0,0,0,273.2,0,0,69,3.869,3.873,3.877,3.877,0,0,8.242,74.48,92.507351713516,39.041996,6,P-GPS,
25300,2023-06-06 16:32:34,52.2063969896345,0.0866416352764822,38.713912,38.6154868,53.563780913516,92.179267713516,38.057744,12.7281886,20.0081699316,40.430119404,27,5,15.481,97.100527713516,43.635172,12.7281886,20.0081699316,2.23694,-12.526864,0,280.7, -7.5, 3,0,0,1623,1024,1024,1024,91,0,0,0,273.2,0,0,69,3.869,3.873,3.877,3.877,0,0,8.242,74.48,92.179267713516,38.713912,6,P-GPS,
25500,2023-06-06 16:32:34,52.2063988662594,0.086624587123181,38.713912,38.5826784,53.596589313516,92.179267713516,38.057744,13.3769012,23.174869508,44.30282294,27,5,15.481,97.100527713516,43.635172,13.3769012,23.174869508,2.23694,-13.197946,0,280.3, -12.6, 3.7,0,0,1024,1024,1024,1024,0,0,0,0,273.2,0,0,69,3.869,3.873,3.877,3.877,0,0,8.242,74.48,92.179267713516,38.713912,6,P-GPS,
25700,2023-06-06 16:32:34,52.2064008577794,0.0866067642466742,38.713912,38.5826784,53.596589313516,92.179267713516,37.72966,13.869028,26.6919956048,48.353348004,27,5,15.481,97.100527713516,43.635172,13.869028,26.6919956048,2.460634,-13.645334,0,280, 6.9, 2.2,0,0,1024,1024,1024,1024,0,0,0,0,273.2,0,0,69,3.869,3.873,3.877,3.877,0,0,8.242,74.48,92.179267713516,38.713912,6,P-GPS,
25900,2023-06-06 16:32:34,52.2064027269511,0.0865897460864013,38.713912,38.54987,53.629397713516,92.179267713516,37.72966,12.2136924,30.1687673696,52.219161776,27,5,15.481,97.100527713516,43.635172,13.869028,30.1687673696,1.789552,-12.079476,0,281.8, 29, 3.5,0,0,1024,1024,1024,1024,0,0,0,0,273.2,0,0,69,3.869,3.873,3.877,3.877,0,0,8.242,74.48,92.179267713516,38.713912,6,P-GPS,
26100,2023-06-06 16:32:35,52.2064042239675,0.086575699933972,38.713912,38.54987,53.629397713516,92.179267713516,37.72966,9.7083196,33.094489248,55.40682592,27,5,15.539,97.100527713516,43.635172,13.869028,33.094489248,1.342164,-9.618842,0,282, 29.3, 4,0,0,1024,1024,1024,1024,0,0,0,0,273.2,0,0,69,3.889,3.898,3.887,3.89,0,0,8.353,74.48,92.179267713516,38.713912,6,P-GPS,
26300,2023-06-06 16:32:35,52.2064054289123,0.0865649745221216,38.713912,38.5170616,53.662206113516,92.179267713516,31.824148,7.0016222,35.37073604,57.844818124,27,5,15.539,97.100527713516,43.635172,13.869028,35.37073604,0.894776,-6.934514,0,281.8, 28.2, 4.3,0,0,1024,1024,1024,1024,0,0,0,0,273.2,0,0,69,3.889,3.898,3.887,3.89,0,0,8.353,74.48,92.179267713516,38.713912,6,P-GPS,
26500,2023-06-06 16:32:35,52.2064063247285,0.0865575874440573,38.713912,38.5170616,53.662206113516,92.179267713516,35.761156,4.7423128,36.962271524,59.528545212,27,5,15.539,97.100527713516,43.635172,13.869028,36.962271524,0.671082,-4.697574,0,282.2, 28.3, 5.4,0,0,1024,1024,1024,1024,0,0,0,0,273.2,0,0,69,3.889,3.898,3.887,3.89,0,0,8.353,74.48,92.179267713516,38.713912,6,P-GPS,
26700,2023-06-06 16:32:35,52.2064069689946,0.0865532644638268,38.713912,38.4842532,53.695014513516,92.179267713516,36.417324,2.5053728,37.918636384,60.5232959,27,5,15.539,97.100527713516,43.635172,13.869028,37.918636384,0.447388,-2.460634,0,281.3, 21.8, 5.3,0,0,1024,1024,1024,1024,0,0,0,0,273.2,0,0,69,3.889,3.898,3.887,3.89,0,0,8.353,74.48,92.179267713516,38.713912,6,P-GPS,
26900,2023-06-06 16:32:35,52.2064074790728,0.0865512731951558,38.713912,38.4842532,53.695014513516,92.179267713516,43.307088,1.1408394,38.397967108,61.005907464,27,5,15.539,97.100527713516,43.635172,13.869028,38.397967108,0.223694,-1.11847,0,280.1, 11.9, 4,0,0,1024,1024,1024,1024,0,0,0,0,273.2,0,0,69,3.889,3.898,3.887,3.89,0,0,8.353,74.48,92.179267713516,38.713912,6,P-GPS,
27100,2023-06-06 16:32:36,52.2064079249506,0.0865502983763035,38.713912,38.4842532,53.695014513516,92.179267713516,42.65092,0.7158208,38.667652156,61.2778891,27,5,15.534,97.100527713516,43.635172,13.869028,38.667652156,0.223694,-0.671082,0,280.3, 7.7, 3,0,0,990,1024,1024,1024,-5,0,0,0,273.2,0,0,69,3.86,3.87,3.863,3.865,0,0,7.782,74.66,92.179267713516,38.713912,6,P-GPS,
27300,2023-06-06 16:32:36,52.2064082839813,0.0865498093172957,38.713912,38.4842532,53.695014513516,92.179267713516,38.385828,0.3131716,38.827429064,61.44849278,27,5,15.534,97.100527713516,43.635172,13.869028,38.827429064,0.223694,-0.223694,0,280.8, 5.1, 0.5,0,0,1024,1024,1024,1024,0,0,0,0,273.2,0,0,69,3.86,3.87,3.863,3.865,0,0,7.782,74.66,92.179267713516,38.713912,6,P-GPS,
27500,2023-06-06 16:32:36,52.2064084331955,0.0865494665118707,38.713912,38.4842532,53.695014513516,92.179267713516,38.057744,0.223694,38.920933004,61.542324804,27,5,15.534,97.100527713516,43.635172,13.869028,38.920933004,0,-0.223694,0,280.7, 4.9, 2.6,0,0,1684,1024,1024,1024,100,0,0,0,273.2,0,0,69,3.86,3.87,3.863,3.865,0,0,7.782,74.66,92.179267713516,38.713912,6,P-GPS,
27700,2023-06-06 16:32:36,52.2064083879536,0.0865491011714834,38.713912,38.4842532,53.695014513516,92.179267713516,37.72966,0.447388,38.983925132,61.62565814,27,5,15.534,97.100527713516,43.635172,13.869028,38.983925132,0,-0.447388,0,280.7, -7.2, 1.9,0,0,1684,1024,1024,1024,100,0,0,0,273.2,0,0,69,3.86,3.87,3.863,3.865,0,0,7.782,74.66,92.179267713516,38.713912,6,P-GPS,
27900,2023-06-06 16:32:36,52.2064083406171,0.0865477650942593,38.713912,38.4842532,53.695014513516,92.179267713516,37.401576,1.789552,39.236221728,61.924870748,27,5,15.534,97.100527713516,43.635172,13.869028,39.236221728,0,-1.789552,0,279.7, -24, 3.4,0,0,1165,1024,1024,1024,21,0,0,0,273.2,0,0,69,3.86,3.87,3.863,3.865,0,0,7.782,74.66,92.179267713516,38.713912,6,P-GPS,
28100,2023-06-06 16:32:37,52.2064085237606,0.0865439125663152,38.713912,38.4842532,53.695014513516,92.179267713516,37.401576,3.802798,40.022639076,62.789044004,27,5,15.523,97.100527713516,43.635172,13.869028,40.022639076,0.223694,-3.802798,0,279.5, -24.5, 3.5,0,0,1024,1024,1024,1024,0,0,0,0,273.2,0,0,69,3.872,3.879,3.877,3.88,0,0,8.751,74.66,92.179267713516,38.713912,6,P-GPS,
28300,2023-06-06 16:32:37,52.2064089183311,0.0865372627673519,38.713912,38.4842532,53.695014513516,92.179267713516,32.8084,5.3910254,41.40091996,64.282810456,26,5,15.523,97.100527713516,43.635172,13.869028,41.40091996,0.447388,-5.368656,0,279.8, 2.8, 3.6,0,0,1024,1024,1024,1024,0,0,0,0,273.2,0,0,69,3.872,3.879,3.877,3.88,0,0,8.751,74.66,92.179267713516,38.713912,6,P-GPS,
28500,2023-06-06 16:32:37,52.2064092600695,0.0865306183784571,38.713912,38.4842532,53.695014513516,92.179267713516,33.136484,4.250186,42.776904256,65.773624152,26,5,15.523,97.100527713516,43.635172,13.869028,42.776904256,0.223694,-4.250186,0,282, 28.5, 5.3,0,0,1024,1024,1024,1024,0,0,0,0,273.2,0,0,69,3.872,3.879,3.877,3.88,0,0,8.751,74.66,92.179267713516,38.713912,6,P-GPS,
28700,2023-06-06 16:32:37,52.2064093674515,0.0865266225046673,38.713912,38.4842532,53.695014513516,92.179267713516,32.8084,2.013246,43.592192996,66.667981136,27,5,15.523,97.100527713516,43.635172,13.869028,43.592192996,0,-2.013246,0,282.6, 25, 7.7,0,0,1024,1024,1024,1024,0,0,0,0,273.2,0,0,69,3.872,3.879,3.877,3.88,0,0,8.751,74.66,92.179267713516,38.713912,6,P-GPS,
28900,2023-06-06 16:32:37,52.206409368895,0.0865251748290537,38.713912,38.4842532,53.695014513516,92.179267713516,33.136484,0.671082,43.882219252,66.99147196,27,5,15.523,97.100527713516,43.635172,13.869028,43.882219252,0,-0.671082,0,280.9, 14.1, 7.5,0,0,1024,1024,1024,1024,0,0,0,0,273.2,0,0,69,3.872,3.879,3.877,3.88,0,0,8.751,74.66,92.179267713516,38.713912,6,P-GPS,
29100,2023-06-06 16:32:38,52.2064093918672,0.0865250905605967,39.041996,38.8123372,53.695014513516,92.507351713516,33.792652,0,43.902888544,67.012141252,27,5,15.519,97.100527713516,43.635172,13.869028,43.902888544,0,0,0,279.2, 7.4, 6.7,0,0,1024,1024,1024,1024,0,0,0,0,273.2,0,0,69,3.871,3.878,3.864,3.872,0,0,8.223,74.66,92.507351713516,39.041996,6,P-GPS,
29300,2023-06-06 16:32:38,52.2064094442753,0.086525454461095,39.041996,38.8123372,53.695014513516,92.507351713516,37.401576,0,43.83858408,67.095802672,27,5,15.519,97.100527713516,43.635172,13.869028,43.902888544,0,0,0,280.8, 3.9, 5.7,0,0,1024,1024,1024,1024,0,0,0,0,273.2,0,0,69,3.871,3.878,3.864,3.872,0,0,8.223,74.66,92.507351713516,39.041996,6,P-GPS,
29500,2023-06-06 16:32:38,52.2064095367936,0.0865258880214673,39.041996,38.7795288,53.727822913516,92.507351713516,37.401576,0,43.766733684,67.198492964,27,5,15.519,97.100527713516,43.635172,13.869028,43.902888544,0,0,0,281.4, 2.7, 4.3,0,0,1024,1024,1024,1024,0,0,0,0,273.2,0,0,69,3.871,3.878,3.864,3.872,0,0,8.223,74.66,92.507351713516,39.041996,6,P-GPS,
29700,2023-06-06 16:32:38,52.2064096121268,0.0865261568193921,39.041996,38.7795288,53.727822913516,92.507351713516,37.72966,0,43.7253951,67.264437848,27,5,15.519,97.100527713516,43.635172,13.869028,43.902888544,0,0,0,280.9, 2.5, 4,0,0,1024,1024,1024,1024,0,0,0,0,273.2,0,0,69,3.871,3.878,3.864,3.872,0,0,8.223,74.66,92.507351713516,39.041996,6,P-GPS,
29900,2023-06-06 16:32:38,52.2064096684842,0.0865262196293087,39.041996,38.7795288,53.727822913516,92.507351713516,37.72966,0,43.721786176,67.289372232,27,5,15.519,97.100527713516,43.635172,13.869028,43.902888544,0,0,0,280.9, 3.3, 4.3,0,0,1684,1024,1024,1024,100,0,0,0,273.2,0,0,69,3.871,3.878,3.864,3.872,0,0,8.223,74.66,92.507351713516,39.041996,6,P-GPS,
30100,2023-06-06 16:32:39,52.2064097182622,0.0865260879982883,39.041996,38.7795288,53.727822913516,92.507351713516,37.72966,0,43.756234996,67.323821052,27,5,15.491,97.100527713516,43.635172,13.869028,43.902888544,0,0,0,281.2, 5.2, 3.7,0,0,1684,1024,1024,1024,100,0,0,0,273.2,0,0,69,3.875,3.885,3.877,3.882,0,0,8.921,74.66,92.507351713516,39.041996,6,P-GPS,
30300,2023-06-06 16:32:39,52.2064097237879,0.0865256469728602,39.041996,38.7795288,53.727822913516,92.507351713516,37.72966,0.671082,43.845473844,67.422574336,27,5,15.491,97.100527713516,43.635172,13.869028,43.902888544,0,-0.671082,0,280.5, -18.3, 1,0,0,1670,1024,1024,1024,98,0,0,0,273.2,0,0,69,3.875,3.885,3.877,3.882,0,0,8.921,74.66,92.507351713516,39.041996,6,P-GPS,
30500,2023-06-06 16:32:39,52.2064097882282,0.0865232804942714,39.041996,38.7795288,53.727822913516,92.507351713516,37.401576,2.684328,44.329725828,67.952101912,27,5,15.491,97.100527713516,43.635172,13.869028,44.329725828,0.223694,-2.684328,0,279.9, -23.8, 2.3,0,0,1684,1024,1024,1024,100,0,0,0,273.2,0,0,69,3.875,3.885,3.877,3.882,0,0,8.921,74.66,92.507351713516,39.041996,6,P-GPS,
30700,2023-06-06 16:32:39,52.2064100493091,0.0865180549412711,39.041996,38.7795288,53.727822913516,92.507351713516,32.8084,4.7199434,45.42158938,69.124346044,27,5,15.491,97.100527713516,43.635172,13.869028,45.42158938,0.447388,-4.697574,0,279.7, -23.3, 3.4,0,0,1203,1024,1024,1024,27,0,0,0,273.2,0,0,69,3.875,3.885,3.877,3.882,0,0,8.921,74.66,92.507351713516,39.041996,6,P-GPS,
30900,2023-06-06 16:32:39,52.2064104898412,0.086510035947636,39.041996,38.7795288,53.727822913516,92.507351713516,33.136484,6.7331894,47.110565812,70.924542952,27,5,15.491,97.100527713516,43.635172,13.869028,47.110565812,0.671082,-6.71082,0,279.6, -16.5, 4.9,0,0,1108,1024,1024,1024,13,0,0,0,273.2,0,0,69,3.875,3.885,3.877,3.882,0,0,8.921,74.66,92.507351713516,39.041996,6,P-GPS,
31100,2023-06-06 16:32:40,52.2064111700454,0.0865001379966742,39.041996,38.7795288,53.727822913516,92.507351713516,33.792652,7.6503348,49.226707612,73.151577144,27,5,15.524,97.100527713516,43.635172,13.869028,49.226707612,0.894776,-7.605596,0,280.6, 0.5, 6.2,0,0,919,1024,1024,1024,-16,0,0,0,273.2,0,0,69,3.868,3.894,3.875,3.87,0,0,7.729,74.84,92.507351713516,39.041996,6,P-GPS,
31300,2023-06-06 16:32:40,52.2064119417057,0.0864902680466613,39.041996,38.7795288,53.727822913516,92.507351713516,34.776904,7.0016222,51.359581696,75.375986664,27,5,15.524,97.100527713516,43.635172,13.869028,51.359581696,0.894776,-6.934514,0,281.2, 25.9, 3.6,0,0,364,1108,1024,1024,-100,13,0,0,273.2,0,0,69,3.868,3.894,3.875,3.87,0,0,7.729,74.84,92.507351713516,39.041996,6,P-GPS,
31500,2023-06-06 16:32:40,52.2064124333308,0.0864824693979862,39.37008,39.1076128,53.727822913516,92.835435713516,34.776904,5.1673314,53.033466264,77.128939476,27,5,15.524,97.100527713516,43.635172,13.869028,53.033466264,0.447388,-5.144962,0,281.5, 28, 3.7,0,0,364,1221,1024,1024,-100,30,0,0,273.2,0,0,69,3.868,3.894,3.875,3.87,0,0,7.729,74.84,92.835435713516,39.37008,6,P-GPS,
31700,2023-06-06 16:32:40,52.2064126600584,0.0864773392271495,39.37008,39.0748044,53.760631313516,92.835435713516,35.104988,3.131716,54.123689396,78.278873896,27,5,15.524,97.100527713516,43.635172,13.869028,54.123689396,0,-3.131716,0,282, 28.9, 5.6,0,0,364,1218,1024,1024,-100,29,0,0,273.2,0,0,69,3.868,3.894,3.875,3.87,0,0,7.729,74.84,92.835435713516,39.37008,6,P-GPS,
31900,2023-06-06 16:32:40,52.2064127156962,0.0864750505864452,39.37008,39.0748044,53.760631313516,92.835435713516,35.433072,0.894776,54.60466054,78.79101302,27,5,15.524,97.100527713516,43.635172,13.869028,54.60466054,0,-0.894776,0,282.2, 29.2, 6.1,0,0,364,1218,1024,1024,-100,29,0,0,273.2,0,0,69,3.868,3.894,3.875,3.87,0,0,7.729,74.84,92.835435713516,39.37008,6,P-GPS,
32100,2023-06-06 16:32:41,52.2064125820781,0.0864754790023597,39.37008,39.0748044,53.760631313516,92.835435713516,35.433072,0.9171454,54.497705156,78.898624572,27,5,15.44,97.100527713516,43.635172,13.869028,54.60466054,-0.223694,0.894776,0,282.4, 29.7, 6.2,0,0,818,1024,1024,1024,-31,0,0,0,273.2,0,0,69,3.855,3.863,3.858,3.845,0,0,8.861,74.84,92.835435713516,39.37008,6,P-GPS,
32300,2023-06-06 16:32:41,52.2064122301236,0.0864785762036616,39.37008,39.1076128,53.727822913516,92.835435713516,35.104988,2.9527608,53.808400672,79.60302092,27,5,15.44,97.100527713516,43.635172,13.869028,54.60466054,-0.447388,2.908022,0,282.7, 29.8, 6.2,0,0,1024,1024,1024,1024,0,0,0,0,273.2,0,0,69,3.855,3.863,3.858,3.845,0,0,8.861,74.84,92.835435713516,39.37008,6,P-GPS,
32500,2023-06-06 16:32:41,52.2064115711739,0.0864842846087694,39.37008,39.1076128,53.727822913516,92.835435713516,35.104988,5.0107456,52.537403256,80.901577392,27,5,15.44,97.100527713516,43.635172,13.869028,54.60466054,-0.894776,4.921268,0.223694,282.4, 19.6, 6.4,0,0,1024,1684,1024,1024,0,100,0,0,273.2,0,0,69,3.855,3.863,3.858,3.845,0,0,8.861,74.84,92.835435713516,39.37008,6,P-GPS,
32700,2023-06-06 16:32:41,52.2064108497757,0.0864910230377953,39.698164,39.4356968,53.727822913516,93.163519713516,35.104988,4.5186188,51.047245728,82.431105,27,5,15.44,97.100527713516,43.635172,13.869028,54.60466054,-0.671082,4.47388,-0.671082,280.1, -25.7, 3.3,0,0,1024,1684,1024,1024,0,100,0,0,273.2,0,0,69,3.855,3.863,3.858,3.845,0,0,8.861,74.84,93.163519713516,39.698164,6,P-GPS,
32900,2023-06-06 16:32:41,52.2064103670602,0.0864954399882594,40.026248,39.7637808,53.727822913516,93.491603713516,35.761156,2.0356154,50.070211576,83.434385872,27,5,15.44,97.100527713516,43.635172,13.869028,54.60466054,-0.223694,2.013246,-0.447388,278.3, -19.9, 18.3,0,0,1021,1684,1024,1024,-0,100,0,0,273.2,0,0,69,3.855,3.863,3.858,3.845,0,0,8.861,74.84,93.491603713516,40.026248,6,P-GPS,
