time(millisecond),datetime(utc),latitude,longitude,height_above_takeoff(feet),height_above_ground_at_drone_location(feet),ground_elevation_at_drone_location(feet),altitude_above_seaLevel(feet),height_sonar(feet),speed(mph),distance(feet),mileage(feet),satellites,gpslevel,voltage(v),max_altitude(feet),max_ascent(feet),max_speed(mph),max_distance(feet), xSpeed(mph), ySpeed(mph), zSpeed(mph), compass_heading(degrees), pitch(degrees), roll(degrees),isPhoto,isVideo,rc_elevator,rc_aileron,rc_throttle,rc_rudder,rc_elevator(percent),rc_aileron(percent),rc_throttle(percent),rc_rudder(percent),gimbal_heading(degrees),gimbal_pitch(degrees),gimbal_roll(degrees),battery_percent,voltageCell1,voltageCell2,voltageCell3,voltageCell4,voltageCell5,voltageCell6,current(A),battery_temperature(f),altitude(feet),ascent(feet),flycStateRaw,flycState,message
0,2023-06-08 17:44:02,52.206358309477,0.0867180190498606,0,0,53.564152304604,53.564152304604,0.328084,0,0,0,21,5,0,53.564152304604,0,0,0,0,0,0,270, 4.5, 0.7,0,0,1024,1024,1024,1024,0,0,0,0,270,0,0,85,4.143,4.141,4.141,4.137,0,0,0,73.94,53.564152304604,0,6,P-GPS,"Setting new Return-To-Home altitude to 26m (85 ft). Data Recorder File Index is 34. Setting new Maximum Flight Altitude to 120m (394 ft) Home Point updated (Code: 3000001). Aircraft not in flight. Vision systems and obstacle avoidance disabled (Code: 180059)"
200,2023-06-08 17:44:02,52.2063588411047,0.0867181932791974,0,0,53.564152304604,53.564152304604,0.328084,0,0.197837276672,0.197837276672,21,5,0,53.564152304604,0,0,0.197837276672,0,0,0,270, 4.5, 0.7,0,0,1024,1024,1024,1024,0,0,0,0,270,0,0,85,4.143,4.141,4.141,4.137,0,0,0,73.94,53.564152304604,0,41,Motors_Started,
400,2023-06-08 17:44:02,52.2063593197679,0.0867183919814255,0,0,53.564152304604,53.564152304604,0.328084,0,0.37791667876,0.37803806984,21,5,0,53.564152304604,0,0,0.37791667876,0,0,0,270, 4.5, 0.7,0,0,1024,1024,1001,1024,0,0,-3,0,270,0,0,85,4.143,4.141,4.141,4.137,0,0,0,73.94,53.564152304604,0,41,Motors_Started,
600,2023-06-08 17:44:03,52.2063597604894,0.0867186086187181,0,0,53.564152304604,53.564152304604,0,0,0.54556432192,0.54597442692,21,5,0,53.564152304604,0,0,0.54556432192,0,0,0,270, 4.5, 0.7,0,0,1024,1024,1024,1024,0,0,0,0,270,0,0,85,4.143,4.141,4.141,4.137,0,0,0,73.94,53.564152304604,0,41,Motors_Started,
800,2023-06-08 17:44:03,52.2063601696867,0.0867187775976542,0,0,53.564152304604,53.564152304604,0,0,0.69956695152,0.69997705652,21,5,0,53.564152304604,0,0,0.69956695152,0,0,0,270, 4.5, 0.7,0,0,1024,1024,1024,1024,0,0,0,0,270,0,0,85,4.143,4.141,4.141,4.137,0,0,0,73.94,53.564152304604,0,41,Motors_Started,
1000,2023-06-08 17:44:03,52.2063605260636,0.0867189276872054,0,0,53.564152304604,53.564152304604,0,0,0.83384845188,0.83425855688,21,5,16.604,53.564152304604,0,0,0.83384845188,0,0,0,269.9, 4.5, 0.7,0,0,1024,1024,1024,1024,0,0,0,0,270,0,0,85,4.143,4.141,4.141,4.137,0,0,2.471,73.94,53.564152304604,0,41,Motors_Started,
1200,2023-06-08 17:44:03,52.206360862229,0.0867190673762146,0,0,53.564152304604,53.564152304604,0,0,0.96041013572,0.96082352156,21,5,16.604,53.564152304604,0,0,0.96041013572,0,0,0,270, 4.5, 0.7,0,0,1024,1024,1024,1024,0,0,0,0,270,0,0,85,4.143,4.141,4.141,4.137,0,0,2.471,73.94,53.564152304604,0,41,Motors_Started,
1400,2023-06-08 17:44:03,52.2063611595809,0.0867191983848177,0,0,53.564152304604,53.564152304604,0,0,1.0727690632,1.07319885324,21,5,16.604,53.564152304604,0,0,1.0727690632,0,0,0,270, 4.5, 0.7,0,0,1024,1024,1024,1024,0,0,0,0,270,0,0,85,4.143,4.141,4.141,4.137,0,0,2.471,73.94,53.564152304604,0,41,Motors_Started,
1600,2023-06-08 17:44:04,52.2063614124399,0.0867193205317179,0,0,53.564152304604,53.564152304604,0,0,1.1689140794,1.16940948624,21,5,16.604,53.564152304604,0,0,1.1689140794,0,0,0,270.3, 4.5, 0.7,0,0,1024,1024,1024,1024,0,0,0,0,270,0,0,85,4.143,4.141,4.141,4.137,0,0,2.471,73.94,53.564152304604,0,11,AutoTakeoff,
1800,2023-06-08 17:44:04,52.2063616220275,0.0867194695503071,0,0,53.564152304604,53.564152304604,0,0,1.25133862272,1.2528215624,21,5,16.604,53.564152304604,0,0,1.25133862272,0,0,0,271, 4.5, 0.7,0,0,1024,1024,1024,1024,0,0,0,0,270,0,0,85,4.143,4.141,4.141,4.137,0,0,2.471,73.94,53.564152304604,0,11,AutoTakeoff,
2000,2023-06-08 17:44:04,52.2063617931474,0.0867196089522993,0,0,53.564152304604,53.564152304604,0,0,1.31979006848,1.32260174836,21,5,16.634,53.564152304604,0,0,1.31979006848,0,0,0,271.3, 3.8, 0.7,0,0,1024,1024,1024,1024,0,0,0,0,270.1,0,0,85,4.169,4.169,4.167,4.165,0,0,4.034,73.94,53.564152304604,0,11,AutoTakeoff,
2200,2023-06-08 17:44:04,52.20636193419,0.0867198586277767,0,0,53.564152304604,53.564152304604,0,0,1.3849573934,1.39852694764,21,5,16.634,53.564152304604,0,0,1.3849573934,0,0,-0.447388,272.1, -1.7, 0,0,0,1024,1024,1024,1024,0,0,0,0,270.2,0,0,85,4.169,4.169,4.167,4.165,0,0,4.034,73.94,53.564152304604,0,11,AutoTakeoff,
2400,2023-06-08 17:44:04,52.2063620399668,0.086719979424343,0.328084,0.328084,53.564152304604,53.892236304604,0.328084,0,1.42990162056,1.44562996752,21,5,16.634,53.892236304604,0.328084,0,1.42990162056,0,0,-0.894776,271.9, -0.1, 0.4,0,0,1024,1024,1024,1024,0,0,0,0,270.4,0,0,85,4.169,4.169,4.167,4.165,0,0,4.034,73.94,53.892236304604,0.328084,11,AutoTakeoff,
2600,2023-06-08 17:44:05,52.2063620835724,0.0867199723231854,0.656168,0.656168,53.564152304604,54.220320304604,0.328084,0,1.44457353704,1.46162078168,21,5,16.634,54.220320304604,0.656168,0,1.44457353704,0,0,-0.894776,272, 0.5, 0.2,0,0,1024,1024,1032,1024,0,0,1,0,270.5,0,0,85,4.169,4.169,4.167,4.165,0,0,4.034,73.94,54.220320304604,0.656168,11,AutoTakeoff,
2800,2023-06-08 17:44:05,52.2063620594854,0.0867199200577045,0.984252,0.984252,53.564152304604,54.548404304604,0.984252,0,1.43269033456,1.47624020472,21,5,16.634,54.548404304604,0.984252,0,1.44457353704,0,0,-0.894776,271.8, 0.8, 2,0,0,1024,1024,1024,1024,0,0,0,0,270.6,0,0,85,4.169,4.169,4.167,4.165,0,0,4.034,73.94,54.548404304604,0.984252,11,AutoTakeoff,
3000,2023-06-08 17:44:05,52.2063621005328,0.0867197685013962,1.312336,1.312336,53.564152304604,54.876488304604,1.312336,0,1.43740818248,1.51328745,21,5,16.413,54.876488304604,1.312336,0,1.44457353704,0,0,-0.894776,271.8, 0.8, 2.2,0,0,1024,1024,1637,1024,0,0,93,0,270.7,0,0,85,4.102,4.102,4.101,4.098,0,0,5.404,73.76,54.876488304604,1.312336,11,AutoTakeoff,
3200,2023-06-08 17:44:05,52.2063622427029,0.0867195545047033,1.64042,1.64042,53.564152304604,55.204572304604,1.64042,0,1.47552826244,1.5838583184,21,5,16.413,55.204572304604,1.64042,0,1.47552826244,0,0,-0.894776,271.8, 0.8, 1,0,0,1024,1024,1684,1205,0,0,100,27,270.8,0,0,85,4.102,4.102,4.101,4.098,0,0,5.404,73.76,55.204572304604,1.64042,11,AutoTakeoff,
3400,2023-06-08 17:44:05,52.2063623928104,0.0867193716500047,1.968504,1.968504,53.564152304604,55.532656304604,1.968504,0,1.52018705652,1.65220149644,21,5,16.413,55.532656304604,1.968504,0,1.52018705652,0,0,-1.565858,272.3, 1.1, 0.1,0,0,1024,1024,1684,1044,0,0,100,3,270.8,0,0,85,4.102,4.102,4.101,4.098,0,0,5.404,73.76,55.532656304604,1.968504,11,AutoTakeoff,
3600,2023-06-08 17:44:06,52.2063625806465,0.0867191213430464,2.624672,2.624672,53.564152304604,56.188824304604,2.624672,0,1.57770346256,1.7406824704,19,5,16.413,56.188824304604,2.624672,0,1.57770346256,0,0,-3.579104,274.4, 1.7, 0.1,0,0,1024,1024,1684,1024,0,0,100,0,271.3,0,0,85,4.102,4.102,4.101,4.098,0,0,5.404,73.76,56.188824304604,2.624672,11,AutoTakeoff,
3800,2023-06-08 17:44:06,52.2063627633457,0.0867189850412303,4.265092,4.265092,53.564152304604,57.829244304604,4.265092,0,1.63928154852,1.813976436,20,5,16.413,57.829244304604,4.265092,0,1.63928154852,0,0,-5.59235,274.4, 3.2, -1.1,0,0,1024,1024,1684,1024,0,0,100,0,271.8,0,0,85,4.102,4.102,4.101,4.098,0,0,5.404,73.76,57.829244304604,4.265092,11,AutoTakeoff,
4000,2023-06-08 17:44:06,52.2063629412838,0.0867192086453461,6.233596,6.233596,53.564152304604,59.797748304604,6.233596,0.223694,1.71071527784,1.895915415,21,5,16.269,59.797748304604,6.233596,0.223694,1.71071527784,0,0.223694,-7.82929,274.1, -0.5, -2.3,0,0,1024,1024,1684,1024,0,0,100,0,271.8,0,0,85,4.043,4.037,4.032,4.025,0,0,8.195,73.76,59.797748304604,6.233596,6,P-GPS,"Home Point updated (Code: 3000001)"
4200,2023-06-08 17:44:06,52.2063629284784,0.0867194325303627,9.186352,9.186352,53.564152304604,62.750504304604,8.858268,0.223694,1.7146161966,1.94619100716,21,5,16.269,62.750504304604,9.186352,0.223694,1.7146161966,0,0.223694,-9.842536,273, -0.2, -0.5,0,0,1024,1024,1684,1024,0,0,100,0,271.8,0,0,85,4.043,4.037,4.032,4.025,0,0,8.195,73.76,62.750504304604,9.186352,6,P-GPS,
4400,2023-06-08 17:44:06,52.2063627547295,0.086719575352968,13.451444,13.451444,53.564152304604,67.015596304604,12.467192,0,1.65875661476,2.01717198056,21,5,16.269,67.015596304604,13.451444,0.223694,1.7146161966,0,0,-12.079476,272, -1.8, -0.3,0,0,1024,1024,1684,1024,0,0,100,0,271.8,0,0,85,4.043,4.037,4.032,4.025,0,0,8.195,73.76,67.015596304604,13.451444,6,P-GPS,
4600,2023-06-08 17:44:06,52.2063624148734,0.0867194335967378,18.372704,18.372704,53.564152304604,71.936856304604,16.076116,0.223694,1.53087931408,2.14515426812,21,5,16.269,71.936856304604,18.372704,0.223694,1.7146161966,-0.223694,0,-13.197946,270.9, -0.3, -0.4,0,0,1024,1024,1684,1024,0,0,100,0,271.8,0,0,85,4.043,4.037,4.032,4.025,0,0,8.195,73.76,71.936856304604,18.372704,6,P-GPS,
4800,2023-06-08 17:44:07,52.206361961316,0.0867190731611133,23.293964,23.293964,53.564152304604,76.858116304604,20.341208,0.3131716,1.35305778608,2.3292159538,21,5,16.269,76.858116304604,23.293964,0.3131716,1.7146161966,-0.223694,-0.223694,-13.645334,270.4, 1, 2.4,0,0,1024,1024,1024,1024,0,0,0,0,271.8,0,0,85,4.043,4.037,4.032,4.025,0,0,8.195,73.76,76.858116304604,23.293964,6,P-GPS,
5000,2023-06-08 17:44:07,52.2063616724363,0.0867186229896612,27.230972,27.230972,53.564152304604,80.795124304604,24.278216,0.223694,1.2343832416,2.47495414744,21,5,15.878,80.795124304604,27.230972,0.3131716,1.7146161966,0,-0.223694,-12.750558,270.5, 2.4, 4,0,0,1024,1024,1024,1024,0,0,0,0,271.8,0,0,85,3.991,4.004,4.009,4.011,0,0,14.856,73.76,80.795124304604,27.230972,6,P-GPS,
5200,2023-06-08 17:44:07,52.206361462943,0.0867180286542254,30.511812,30.511812,53.564152304604,84.075964304604,27.88714,0.4921268,1.1505413754,2.62825139644,21,5,15.878,84.075964304604,30.511812,0.4921268,1.7146161966,-0.223694,-0.447388,-10.289924,270.8, 7.3, 6,0,0,1024,1024,1024,1024,0,0,0,0,271.8,0,0,85,3.991,4.004,4.009,4.011,0,0,14.856,73.76,84.075964304604,30.511812,6,P-GPS,
5400,2023-06-08 17:44:07,52.2063612593325,0.0867172872925001,33.136484,33.136484,53.564152304604,86.700636304604,30.511812,0.6263432,1.08861880124,2.80989510304,21,5,15.878,86.700636304604,33.136484,0.6263432,1.7146161966,-0.447388,-0.447388,-7.605596,270.8, 11, 11.6,0,0,1024,1024,1024,1024,0,0,0,0,271.8,0,0,85,3.991,4.004,4.009,4.011,0,0,14.856,73.76,86.700636304604,33.136484,6,P-GPS,
5600,2023-06-08 17:44:08,52.2063611356513,0.086716637249892,35.104988,35.104988,53.564152304604,88.669140304604,32.480316,0.6263432,1.07641735728,2.96208014728,21,5,15.878,88.669140304604,35.104988,0.6263432,1.7146161966,-0.447388,-0.447388,-4.921268,273.1, 13.2, 14.7,0,0,1024,1024,1024,1024,0,0,0,0,271.8,0,0,85,3.991,4.004,4.009,4.011,0,0,14.856,73.76,88.669140304604,35.104988,6,P-GPS,
5800,2023-06-08 17:44:08,52.2063612254535,0.0867162807363411,35.761156,35.761156,53.564152304604,89.325308304604,33.464568,0.223694,1.13266407824,3.04826453324,22,5,15.878,89.325308304604,35.761156,0.6263432,1.7146161966,0,-0.223694,-2.460634,275.4, 12.5, 14,0,0,1024,1024,1024,1024,0,0,0,0,271.8,0,0,85,3.991,4.004,4.009,4.011,0,0,14.856,73.76,89.325308304604,35.761156,6,P-GPS,
6000,2023-06-08 17:44:08,52.2063615018839,0.086716204024945,35.761156,35.761156,53.564152304604,89.325308304604,34.120736,0,1.23341867464,3.15056768612,21,5,16.466,89.325308304604,35.761156,0.6263432,1.7146161966,0,0,-0.671082,275.3, 10.4, 10.8,0,0,1024,1024,1024,1024,0,0,0,0,271.8,0,0,85,4.123,4.116,4.116,4.116,0,0,6.8,74.12,89.325308304604,35.761156,6,P-GPS,
6200,2023-06-08 17:44:08,52.2063619469793,0.0867165141787055,35.761156,35.761156,53.564152304604,89.325308304604,29.855644,0.4921268,1.3691273404,3.3271326524,21,5,16.466,89.325308304604,35.761156,0.6263432,1.7146161966,0.447388,0.223694,0,273.9, 7.7, 5.2,0,0,1024,1024,1024,1024,0,0,0,0,271.8,0,0,85,4.123,4.116,4.116,4.116,0,0,6.8,74.12,89.325308304604,35.761156,6,P-GPS,
6400,2023-06-08 17:44:08,52.2063623149414,0.0867171092266597,35.761156,35.761156,53.564152304604,89.325308304604,30.511812,0.6263432,1.47548233068,3.5161418448,22,5,16.466,89.325308304604,35.761156,0.6263432,1.7146161966,0.447388,0.447388,0,274.3, 4, 0.7,0,0,1024,1024,1024,1024,0,0,0,0,271.8,0,0,85,4.123,4.116,4.116,4.116,0,0,6.8,74.12,89.325308304604,35.761156,6,P-GPS,
6600,2023-06-08 17:44:09,52.2063622781604,0.0867175658120889,35.761156,35.761156,53.564152304604,89.325308304604,31.16798,0.223694,1.45151251364,3.6191274124,22,5,16.466,89.325308304604,35.761156,0.6263432,1.7146161966,0,0.223694,0,274.9, 5.1, 2.9,0,0,1024,1024,1024,1024,0,0,0,0,271.8,0,0,85,4.123,4.116,4.116,4.116,0,0,6.8,74.12,89.325308304604,35.761156,6,P-GPS,
6800,2023-06-08 17:44:09,52.2063619634021,0.0867177858643152,35.761156,35.761156,53.564152304604,89.325308304604,31.824148,0.223694,1.33415030516,3.7440617996,23,5,16.466,89.325308304604,35.761156,0.6263432,1.7146161966,-0.223694,0,0,275.5, 6.3, 7.7,0,0,1024,1024,1024,1024,0,0,0,0,271.8,-1.6,0,85,4.123,4.116,4.116,4.116,0,0,6.8,74.12,89.325308304604,35.761156,6,P-GPS,
7000,2023-06-08 17:44:09,52.2063616738841,0.0867180419821655,36.08924,36.08924,53.564152304604,89.653392304604,32.152232,0.223694,1.22751316264,3.8642061604,23,5,16.353,89.653392304604,36.08924,0.6263432,1.7146161966,0,0.223694,0,274.7, 5.3, 9.6,0,0,1024,1024,1024,1024,0,0,0,0,271.8,-4.3,0,85,4.084,4.084,4.084,4.074,0,0,5.918,74.12,89.653392304604,36.08924,6,P-GPS,
7200,2023-06-08 17:44:09,52.2063616144886,0.0867182207443605,36.08924,36.08924,53.564152304604,89.653392304604,32.152232,0,1.20667326696,3.9096786028,23,5,16.353,89.653392304604,36.08924,0.6263432,1.7146161966,0,0,0,275.5, 4.9, 8.6,0,0,1024,1024,1024,1024,0,0,0,0,271.8,-7.1,0,85,4.084,4.084,4.084,4.074,0,0,5.918,74.12,89.653392304604,36.08924,6,P-GPS,
7400,2023-06-08 17:44:09,52.2063618304981,0.0867182020423885,36.08924,36.08924,53.564152304604,89.653392304604,32.480316,0,1.28529531672,3.9885828048,24,5,16.353,89.653392304604,36.08924,0.6263432,1.7146161966,0,0,0,275.6, 6, 6.6,0,0,1024,1024,1024,1024,0,0,0,0,271.8,-10.1,0,85,4.084,4.084,4.084,4.074,0,0,5.918,74.12,89.653392304604,36.08924,6,P-GPS,
7600,2023-06-08 17:44:10,52.2063621162413,0.0867181909540106,36.08924,36.08924,53.564152304604,89.653392304604,32.480316,0,1.38942589748,4.0928807084,24,5,16.353,89.653392304604,36.08924,0.6263432,1.7146161966,0,0,0,275.3, 5.8, 5.4,0,0,1024,1024,1024,1024,0,0,0,0,271.8,-13,0,85,4.084,4.084,4.084,4.074,0,0,5.918,74.12,89.653392304604,36.08924,6,P-GPS,
7800,2023-06-08 17:44:10,52.2063624366955,0.086718261648863,36.417324,36.417324,53.564152304604,89.981476304604,32.8084,0,1.5067913868,4.2108597148,24,5,16.353,89.981476304604,36.417324,0.6263432,1.7146161966,0,0,0,275.7, 5.7, 5,0,0,1024,1024,1024,1024,0,0,0,0,271.8,-15.9,0,85,4.084,4.084,4.084,4.074,0,0,5.918,74.12,89.981476304604,36.417324,6,P-GPS,
8000,2023-06-08 17:44:10,52.2063628013678,0.0867184931221361,36.417324,36.417324,53.564152304604,89.981476304604,32.8084,0,1.64228679796,4.3536090632,24,5,16.318,89.981476304604,36.417324,0.6263432,1.7146161966,0,0,0,276.6, 4.9, 5,0,0,1024,1024,1024,1024,0,0,0,0,271.8,-18.8,0,85,4.084,4.081,4.082,4.083,0,0,7.615,74.3,89.981476304604,36.417324,6,P-GPS,
8200,2023-06-08 17:44:10,52.2063632730249,0.0867187217322293,36.417324,36.417324,53.564152304604,89.981476304604,32.8084,0,1.817749402,4.533136628,24,5,16.318,89.981476304604,36.417324,0.6263432,1.817749402,0,0,0,277.1, 5.3, 5.2,0,0,1024,1024,1024,1024,0,0,0,0,271.8,-21.7,0,85,4.084,4.081,4.082,4.083,0,0,7.615,74.3,89.981476304604,36.417324,6,P-GPS,
8400,2023-06-08 17:44:10,52.2063638419487,0.0867190594389072,36.08924,36.08924,53.564152304604,89.653392304604,32.8084,0,2.03187998628,4.7540027768,24,5,16.318,89.981476304604,36.417324,0.6263432,2.03187998628,0,0,0,277.1, 4.8, 6,0,0,1024,1024,1024,1024,0,0,0,0,271.8,-24.6,0,85,4.084,4.081,4.082,4.083,0,0,7.615,74.3,89.653392304604,36.08924,6,P-GPS,
8600,2023-06-08 17:44:11,52.2063645161268,0.0867195183204719,36.08924,36.08924,53.564152304604,89.653392304604,32.8084,0,2.28917002076,5.0205382184,24,5,16.318,89.981476304604,36.417324,0.6263432,2.28917002076,0,0,0,277.1, 3.9, 6.2,0,0,1024,1024,1024,1024,0,0,0,0,271.8,-27.6,0,85,4.084,4.081,4.082,4.083,0,0,7.615,74.3,89.653392304604,36.08924,6,P-GPS,
8800,2023-06-08 17:44:11,52.2063652599731,0.086720005195145,36.08924,36.08924,53.564152304604,89.653392304604,32.8084,0,2.57447186716,5.3129266792,24,5,16.318,89.981476304604,36.417324,0.6263432,2.57447186716,0,0,0.223694,277.1, 4.2, 5.6,0,0,1024,1024,1024,1024,0,0,0,0,271.8,-30.5,0,85,4.084,4.081,4.082,4.083,0,0,7.615,74.3,89.653392304604,36.08924,6,P-GPS,
9000,2023-06-08 17:44:11,52.2063660120212,0.0867205105249643,36.08924,36.08924,53.564152304604,89.653392304604,32.8084,0,2.86494759824,5.6096786572,24,5,16.36,89.981476304604,36.417324,0.6263432,2.86494759824,0,0,0,277, 3.1, 6.3,0,0,1024,1024,1024,1024,0,0,0,0,271.8,-33.4,0,85,4.084,4.085,4.088,4.081,0,0,6.813,74.3,89.653392304604,36.08924,6,P-GPS,
9200,2023-06-08 17:44:11,52.2063667863401,0.0867209230766635,36.08924,36.08924,53.564152304604,89.653392304604,32.8084,0,3.16020023236,5.9068571444,24,5,16.36,89.981476304604,36.417324,0.6263432,3.16020023236,0,0,0,277, 2.8, 7.1,0,0,1024,1024,1024,1024,0,0,0,0,271.8,-36.3,0,85,4.084,4.085,4.088,4.081,0,0,6.813,74.3,89.653392304604,36.08924,6,P-GPS,
9400,2023-06-08 17:44:11,52.2063675975385,0.0867211776060912,35.761156,35.761156,53.564152304604,89.325308304604,32.8084,0,3.4615486672,6.2082351068,24,5,16.36,89.981476304604,36.417324,0.6263432,3.4615486672,0,0,0,277.1, 2.9, 7.2,0,0,1024,1024,1024,1024,0,0,0,0,271.8,-39.2,0,85,4.084,4.085,4.088,4.081,0,0,6.813,74.3,89.325308304604,35.761156,6,P-GPS,
9600,2023-06-08 17:44:12,52.2063684287857,0.0867213119108022,35.761156,35.761156,53.564152304604,89.325308304604,32.480316,0,3.7647310916,6.5130251428,25,5,16.36,89.981476304604,36.417324,0.6263432,3.7647310916,0,0,0,277.1, 3.5, 6.7,0,0,1024,1024,1024,1024,0,0,0,0,271.8,-42.2,0,85,4.084,4.085,4.088,4.081,0,0,6.813,74.3,89.325308304604,35.761156,6,P-GPS,
9800,2023-06-08 17:44:12,52.2063692565825,0.0867213706789427,35.761156,35.761156,53.564152304604,89.325308304604,32.480316,0,4.0637468492,6.8153217404,25,5,16.36,89.981476304604,36.417324,0.6263432,4.0637468492,0,0,0,277.1, 3.6, 6.3,0,0,1024,1024,1024,1024,0,0,0,0,271.8,-45.1,0,85,4.084,4.085,4.088,4.081,0,0,6.813,74.3,89.325308304604,35.761156,6,P-GPS,
10000,2023-06-08 17:44:12,52.2063700878971,0.0867213708423283,35.761156,35.761156,53.564152304604,89.325308304604,32.480316,0,4.362204864,7.1186353984,25,5,16.287,89.981476304604,36.417324,0.6263432,4.362204864,0,0,0,277.1, 4.2, 6.4,0,0,1024,1024,1024,1024,0,0,0,0,271.8,-48,0,85,4.071,4.069,4.071,4.067,0,0,7.51,74.3,89.325308304604,35.761156,6,P-GPS,
10200,2023-06-08 17:44:12,52.2063708765688,0.08672134284922,35.761156,35.761156,53.564152304604,89.325308304604,32.480316,0,4.6449476552,7.4064306832,25,5,16.287,89.981476304604,36.417324,0.6263432,4.6449476552,0,0,0,277.1, 4.3, 6.4,0,0,1024,1024,1024,1024,0,0,0,0,271.8,-50.9,0,85,4.071,4.069,4.071,4.067,0,0,7.51,74.3,89.325308304604,35.761156,6,P-GPS,
10400,2023-06-08 17:44:12,52.2063716643763,0.0867212763272533,35.761156,35.761156,53.564152304604,89.325308304604,32.480316,0,4.9266405776,7.6942587764,25,5,16.287,89.981476304604,36.417324,0.6263432,4.9266405776,0,0,0,277.2, 4.9, 6.5,0,0,1023,1024,1024,1024,-0,0,0,0,271.8,-53.8,0,85,4.071,4.069,4.071,4.067,0,0,7.51,74.3,89.325308304604,35.761156,6,P-GPS,
10600,2023-06-08 17:44:13,52.2063724573518,0.0867211902081886,35.761156,35.761156,53.564152304604,89.325308304604,32.480316,0,5.210302004,7.9842194156,25,5,16.287,89.981476304604,36.417324,0.6263432,5.210302004,0,0,0,277.3, 5.2, 6,0,0,1023,1024,1024,1024,-0,0,0,0,271.8,-56.7,0,85,4.071,4.069,4.071,4.067,0,0,7.51,74.3,89.325308304604,35.761156,6,P-GPS,
10800,2023-06-08 17:44:13,52.2063732672234,0.0867211299669566,35.761156,35.761156,53.564152304604,89.325308304604,32.480316,0,5.501476554,8.2799871416,25,5,16.287,89.981476304604,36.417324,0.6263432,5.501476554,0,0,0,277.2, 4.8, 5.8,0,0,1021,1024,1024,1024,-0,0,0,0,271.8,-59.7,0,85,4.071,4.069,4.071,4.067,0,0,7.51,74.3,89.325308304604,35.761156,6,P-GPS,
11000,2023-06-08 17:44:13,52.2063741487359,0.0867211006252618,35.761156,35.761156,53.564152304604,89.325308304604,32.480316,0,5.819882076,8.6016735036,25,5,16.272,89.981476304604,36.417324,0.6263432,5.819882076,0,0,0,277.1, 4.9, 5.4,0,0,1023,1024,1024,1024,-0,0,0,0,271.8,-62.6,0,85,4.071,4.068,4.067,4.066,0,0,7.536,74.3,89.325308304604,35.761156,6,P-GPS,
11200,2023-06-08 17:44:13,52.2063750373824,0.0867211974805952,35.761156,35.761156,53.564152304604,89.325308304604,32.480316,0,6.1443899604,8.9266407056,25,5,16.272,89.981476304604,36.417324,0.6263432,6.1443899604,0,0,0,277, 4, 5.2,0,0,1021,1024,1024,1024,-0,0,0,0,271.8,-65.5,0,85,4.071,4.068,4.067,4.066,0,0,7.536,74.3,89.325308304604,35.761156,6,P-GPS,
11400,2023-06-08 17:44:13,52.2063759429979,0.0867213521289978,35.761156,35.761156,53.564152304604,89.325308304604,32.480316,0,6.4766078188,9.258858564,25,5,16.272,89.981476304604,36.417324,0.6263432,6.4766078188,0,0,0,277.1, 2.7, 4.9,0,0,1017,1024,1024,1024,-1,0,0,0,271.8,-68.4,0,85,4.071,4.068,4.067,4.066,0,0,7.536,74.3,89.325308304604,35.761156,6,P-GPS,
11600,2023-06-08 17:44:13,52.2063768800754,0.0867215466561559,35.761156,35.761156,53.564152304604,89.325308304604,32.480316,0,6.8212272524,9.603510806,25,5,16.272,89.981476304604,36.417324,0.6263432,6.8212272524,0,0,0,277.3, 3, 4.1,0,0,1017,1024,1024,1024,-1,0,0,0,271.8,-71.3,0,85,4.071,4.068,4.067,4.066,0,0,7.536,74.3,89.325308304604,35.761156,6,P-GPS,
11800,2023-06-08 17:44:14,52.2063778196952,0.0867217521685928,35.761156,35.761156,53.564152304604,89.325308304604,32.480316,0,7.1670605968,9.9493769588,25,5,16.272,89.981476304604,36.417324,0.6263432,7.1670605968,0,0,0,277.2, 1.9, 4.6,0,0,1017,1024,1024,1024,-1,0,0,0,271.8,-74.2,0,85,4.071,4.068,4.067,4.066,0,0,7.536,74.3,89.325308304604,35.761156,6,P-GPS,
12000,2023-06-08 17:44:14,52.2063787700579,0.0867218956626517,35.761156,35.761156,53.564152304604,89.325308304604,32.480316,0,7.5151905292,10.2976053164,25,5,16.285,89.981476304604,36.417324,0.6263432,7.5151905292,0,0,0,277.2, 2.2, 4.8,0,0,1019,1024,1024,1024,-1,0,0,0,271.8,-77.1,0,85,4.074,4.08,4.077,4.076,0,0,7.32,74.48,89.325308304604,35.761156,6,P-GPS,
12200,2023-06-08 17:44:14,52.2063797546839,0.0867219403175964,35.433072,35.433072,53.564152304604,88.997224304604,32.480316,0,7.8732285984,10.65698853,25,5,16.285,89.981476304604,36.417324,0.6263432,7.8732285984,0,0,0,277, 1.8, 3.3,0,0,1015,1024,1024,1024,-1,0,0,0,271.8,-80.1,0,85,4.074,4.08,4.077,4.076,0,0,7.32,74.48,88.997224304604,35.433072,6,P-GPS,
12400,2023-06-08 17:44:14,52.2063806953809,0.0867219279540245,35.433072,35.433072,53.564152304604,88.997224304604,32.480316,0,8.2141078744,11.0001972024,25,5,16.285,89.981476304604,36.417324,0.6263432,8.2141078744,0,0,0,277.1, 3.1, 2.1,0,0,1016,1024,1024,1024,-1,0,0,0,271.8,-83,0,85,4.074,4.08,4.077,4.076,0,0,7.32,74.48,88.997224304604,35.433072,6,P-GPS,
12600,2023-06-08 17:44:15,52.206381490299,0.0867219492186168,35.433072,35.433072,53.564152304604,88.997224304604,32.480316,0,8.5030514532,11.2902562668,25,5,16.285,89.981476304604,36.417324,0.6263432,8.5030514532,0,0,0,277.3, 2.8, 2.9,0,0,1019,1024,1024,1024,-1,0,0,0,271.8,-85.9,0,85,4.074,4.08,4.077,4.076,0,0,7.32,74.48,88.997224304604,35.433072,6,P-GPS,
12800,2023-06-08 17:44:15,52.2063822546031,0.0867219587474048,35.433072,35.433072,53.564152304604,88.997224304604,32.480316,0,8.780676134,11.5691276668,25,5,16.285,89.981476304604,36.417324,0.6263432,8.780676134,0,0,0,276.9, 2.1, 3.6,0,0,1021,1024,1024,1024,-0,0,0,0,271.8,-88.8,0,85,4.074,4.08,4.077,4.076,0,0,7.32,74.48,88.997224304604,35.433072,6,P-GPS,
13000,2023-06-08 17:44:15,52.2063828975269,0.0867217660327784,35.433072,35.433072,53.564152304604,88.997224304604,32.480316,0.223694,9.0099740416,11.8076119264,25,5,16.31,89.981476304604,36.417324,0.6263432,9.0099740416,0,-0.223694,0,277, 4.7, 4.1,0,0,1005,1024,1024,1024,-3,0,0,0,271.8,-89.9,0,84,4.082,4.082,4.082,4.074,0,0,6.583,74.48,88.997224304604,35.433072,6,P-GPS,
13200,2023-06-08 17:44:15,52.2063834412158,0.0867214746428603,35.433072,35.433072,53.564152304604,88.997224304604,32.480316,0.223694,9.2018047564,12.016404584,25,5,16.31,89.981476304604,36.417324,0.6263432,9.2018047564,0,-0.223694,0,277.2, 5.4, 4.3,0,0,1005,1024,1024,1024,-3,0,0,0,271.8,-89.9,0,84,4.082,4.082,4.082,4.074,0,0,6.583,74.48,88.997224304604,35.433072,6,P-GPS,
13400,2023-06-08 17:44:15,52.2063839104367,0.0867211938913543,35.433072,35.433072,53.564152304604,88.997224304604,32.480316,0.223694,9.3674215596,12.1987536712,25,5,16.31,89.981476304604,36.417324,0.6263432,9.3674215596,0,-0.223694,0,277.4, 6.8, 4.8,0,0,998,1024,1024,1024,-4,0,0,0,271.8,-89.9,0,84,4.082,4.082,4.082,4.074,0,0,6.583,74.48,88.997224304604,35.433072,6,P-GPS,
13600,2023-06-08 17:44:16,52.2063842844983,0.0867209719333267,35.433072,35.433072,53.564152304604,88.997224304604,32.152232,0,9.4999346872,12.3439636496,25,5,16.31,89.981476304604,36.417324,0.6263432,9.4999346872,0,0,0,277.3, 6.5, 5.4,0,0,1024,1024,1024,1024,0,0,0,0,271.8,-90,0,84,4.082,4.082,4.082,4.074,0,0,6.583,74.48,88.997224304604,35.433072,6,P-GPS,
13800,2023-06-08 17:44:16,52.2063845384625,0.08672067215133,35.433072,35.433072,53.564152304604,88.997224304604,32.152232,0.3131716,9.5879924328,12.458333732,25,5,16.31,89.981476304604,36.417324,0.6263432,9.5879924328,-0.223694,-0.223694,0,276.9, 1.1, 2.2,0,0,1024,1024,1024,1024,0,0,0,0,271.8,-89.9,0,84,4.082,4.082,4.082,4.074,0,0,6.583,74.48,88.997224304604,35.433072,6,P-GPS,
14000,2023-06-08 17:44:16,52.2063846257402,0.0867199541214179,35.433072,35.433072,53.564152304604,88.997224304604,32.152232,0.6263432,9.61122078,12.6220148396,25,5,16.267,89.981476304604,36.417324,0.6263432,9.61122078,-0.447388,-0.447388,0,277.4, 8.3, 7.5,0,0,1024,1024,1024,1024,0,0,0,0,271.8,-89.9,0,84,4.068,4.065,4.049,4.034,0,0,6.845,74.48,88.997224304604,35.433072,6,P-GPS,
14200,2023-06-08 17:44:16,52.2063846635396,0.0867192983042865,35.433072,35.433072,53.564152304604,88.997224304604,32.152232,0.3131716,9.6195213052,12.7692917472,25,5,16.267,89.981476304604,36.417324,0.6263432,9.6195213052,-0.223694,-0.223694,0,277.5, 8.5, 8.7,0,0,1024,1024,1024,1024,0,0,0,0,271.8,-89.9,0,84,4.068,4.065,4.049,4.034,0,0,6.845,74.48,88.997224304604,35.433072,6,P-GPS,
14400,2023-06-08 17:44:16,52.2063847889871,0.0867189264115745,35.433072,35.433072,53.564152304604,88.997224304604,31.824148,0.223694,9.6631564772,12.8642064484,25,5,16.267,89.981476304604,36.417324,0.6263432,9.6631564772,-0.223694,0,0,277.5, 7.9, 8.5,0,0,1024,1024,1024,1024,0,0,0,0,271.8,-89.9,0,84,4.068,4.065,4.049,4.034,0,0,6.845,74.48,88.997224304604,35.433072,6,P-GPS,
14600,2023-06-08 17:44:17,52.2063850308248,0.0867187434856678,35.433072,35.433072,53.564152304604,88.997224304604,31.496064,0,9.7506236716,12.961450546,25,5,16.267,89.981476304604,36.417324,0.6263432,9.7506236716,0,0,0,277.4, 6.5, 7.6,0,0,1024,1024,1024,1024,0,0,0,0,271.8,-90,0,84,4.068,4.065,4.049,4.034,0,0,6.845,74.48,88.997224304604,35.433072,6,P-GPS,
14800,2023-06-08 17:44:17,52.2063853410244,0.0867186035607542,35.761156,35.761156,53.564152304604,89.325308304604,31.496064,0,9.8633205256,13.0788718096,25,5,16.267,89.981476304604,36.417324,0.6263432,9.8633205256,0,0,0,277.6, 8.2, 7,0,0,1024,1024,1024,1024,0,0,0,0,271.8,-89.9,0,84,4.068,4.065,4.049,4.034,0,0,6.845,74.48,89.325308304604,35.761156,6,P-GPS,
15000,2023-06-08 17:44:17,52.2063856454456,0.0867185845068915,35.761156,35.761156,53.564152304604,89.325308304604,31.496064,0,9.9743113428,13.1900266688,25,5,16.212,89.981476304604,36.417324,0.6263432,9.9743113428,0,0,0,277.2, 6.1, 7.1,0,0,1024,1024,1024,1024,0,0,0,0,271.8,-90,0,84,4.068,4.071,4.073,4.069,0,0,7.83,74.66,89.325308304604,35.761156,6,P-GPS,
15200,2023-06-08 17:44:17,52.2063860122297,0.0867185960240473,35.761156,35.761156,53.564152304604,89.325308304604,31.496064,0,10.1081696148,13.3238521324,25,5,16.212,89.981476304604,36.417324,0.6263432,10.1081696148,0,0,0,277.3, 6.4, 6.9,0,0,1024,1024,1024,1024,0,0,0,0,271.8,-90,0,84,4.068,4.071,4.073,4.069,0,0,7.83,74.66,89.325308304604,35.761156,6,P-GPS,
15400,2023-06-08 17:44:17,52.2063864106129,0.0867186125037131,35.761156,35.761156,53.564152304604,89.325308304604,31.824148,0,10.2535436352,13.4692589612,25,5,16.212,89.981476304604,36.417324,0.6263432,10.2535436352,0,0,0,277.6, 7.4, 5.8,0,0,1024,1024,1024,1024,0,0,0,0,271.8,-90,0,84,4.068,4.071,4.073,4.069,0,0,7.83,74.66,89.325308304604,35.761156,6,P-GPS,
15600,2023-06-08 17:44:18,52.2063867749511,0.0867187782913877,35.761156,35.761156,53.564152304604,89.325308304604,31.824148,0,10.3870082064,13.6072510916,25,5,16.212,89.981476304604,36.417324,0.6263432,10.3870082064,0,0,0,277.1, 6.1, 5.3,0,0,1024,1024,1024,1024,0,0,0,0,271.8,-90,0,84,4.068,4.071,4.073,4.069,0,0,7.83,74.66,89.325308304604,35.761156,6,P-GPS,
15800,2023-06-08 17:44:18,52.2063871254602,0.0867189587514387,36.08924,36.08924,53.564152304604,89.653392304604,31.824148,0,10.515584326,13.7413718308,25,5,16.212,89.981476304604,36.417324,0.6263432,10.515584326,0,0,0,277.2, 6.1, 4.5,0,0,1024,1024,1024,1024,0,0,0,0,271.8,-90,0,84,4.068,4.071,4.073,4.069,0,0,7.83,74.66,89.653392304604,36.08924,6,P-GPS,
16000,2023-06-08 17:44:18,52.2063873963719,0.0867191699780031,36.08924,36.08924,53.564152304604,89.653392304604,31.824148,0,10.6154530956,13.8509190784,25,5,16.278,89.981476304604,36.417324,0.6263432,10.6154530956,0,0,0,277.3, 6.1, 5.2,0,0,1024,1024,1024,1024,0,0,0,0,271.8,-90,0,84,4.07,4.069,4.066,4.062,0,0,7.164,74.66,89.653392304604,36.08924,6,P-GPS,
16200,2023-06-08 17:44:18,52.2063876219411,0.0867194246131509,36.08924,36.08924,53.564152304604,89.653392304604,31.824148,0,10.6992457492,13.9509846984,25,5,16.278,89.981476304604,36.417324,0.6263432,10.6992457492,0,0,0,277.3, 5.5, 4.9,0,0,1024,1024,1024,1024,0,0,0,0,271.8,-90,0,84,4.07,4.069,4.066,4.062,0,0,7.164,74.66,89.653392304604,36.08924,6,P-GPS,
16400,2023-06-08 17:44:18,52.2063878126793,0.0867197152879293,36.08924,36.08924,53.564152304604,89.653392304604,31.824148,0,10.7708992948,14.0461946752,25,5,16.278,89.981476304604,36.417324,0.6263432,10.7708992948,0,0,0,277.2, 5.2, 4.5,0,0,1024,1024,1024,1024,0,0,0,0,271.8,-89.9,0,84,4.07,4.069,4.066,4.062,0,0,7.164,74.66,89.653392304604,36.08924,6,P-GPS,
16600,2023-06-08 17:44:19,52.2063879487434,0.086719957516693,36.08924,36.08924,53.564152304604,89.653392304604,32.152232,0,10.8225397164,14.1196526828,25,5,16.278,89.981476304604,36.417324,0.6263432,10.8225397164,0,0,0,277.4, 4.9, 5.2,0,0,1024,1024,1024,1024,0,0,0,0,271.8,-90,0,84,4.07,4.069,4.066,4.062,0,0,7.164,74.66,89.653392304604,36.08924,6,P-GPS,
16800,2023-06-08 17:44:19,52.2063879940624,0.0867201738186956,36.08924,36.08924,53.564152304604,89.653392304604,32.152232,0,10.8411092708,14.17076817,25,5,16.278,89.981476304604,36.417324,0.6263432,10.8411092708,0,0,0,276.9, 4.2, 5.9,0,0,1024,1024,1024,1024,0,0,0,0,271.8,-89.9,0,84,4.07,4.069,4.066,4.062,0,0,7.164,74.66,89.653392304604,36.08924,6,P-GPS,
17000,2023-06-08 17:44:19,52.2063880269593,0.0867203431844712,36.08924,36.08924,53.564152304604,89.653392304604,32.152232,0,10.8548559904,14.2104991424,25,5,16.239,89.981476304604,36.417324,0.6263432,10.8548559904,0,0,0,277.2, 5.2, 6.2,0,0,1024,1024,1024,1024,0,0,0,0,271.8,-89.9,0,84,4.068,4.066,4.064,4.056,0,0,7.162,74.66,89.653392304604,36.08924,6,P-GPS,
17200,2023-06-08 17:44:19,52.2063881408887,0.0867204748671491,36.08924,36.08924,53.564152304604,89.653392304604,32.152232,0,10.897802186,14.2614505876,25,5,16.239,89.981476304604,36.417324,0.6263432,10.897802186,0,0,0,277, 4.1, 6.5,0,0,1024,1024,1024,1024,0,0,0,0,271.8,-89.9,0,84,4.068,4.066,4.064,4.056,0,0,7.162,74.66,89.653392304604,36.08924,6,P-GPS,
17400,2023-06-08 17:44:19,52.2063883209782,0.0867204994855147,36.08924,36.08924,53.564152304604,89.653392304604,32.152232,0,10.9637142616,14.3273626632,25,5,16.239,89.981476304604,36.417324,0.6263432,10.9637142616,0,0,0,277.3, 5.6, 5.9,0,0,1024,1024,1024,1024,0,0,0,0,271.8,-90,0,84,4.068,4.066,4.064,4.056,0,0,7.162,74.66,89.653392304604,36.08924,6,P-GPS,
17600,2023-06-08 17:44:20,52.2063884948481,0.0867205493045802,36.08924,36.08924,53.564152304604,89.653392304604,32.152232,0,11.0276250248,14.3917983608,25,5,16.239,89.981476304604,36.417324,0.6263432,11.0276250248,0,0,0,277.1, 4.6, 4.1,0,0,1024,1024,1024,1024,0,0,0,0,271.8,-89.9,0,84,4.068,4.066,4.064,4.056,0,0,7.162,74.66,89.653392304604,36.08924,6,P-GPS,
17800,2023-06-08 17:44:20,52.2063886837315,0.0867206620476343,36.08924,36.08924,53.564152304604,89.653392304604,32.152232,0,11.097769384,14.4651579432,25,5,16.239,89.981476304604,36.417324,0.6263432,11.097769384,0,0,0,277, 4.4, 5.5,0,0,1024,1024,1024,1024,0,0,0,0,271.8,-90,0,84,4.068,4.066,4.064,4.056,0,0,7.162,74.66,89.653392304604,36.08924,6,P-GPS,
18000,2023-06-08 17:44:20,52.2063888971421,0.0867207363295433,36.08924,36.08924,53.564152304604,89.653392304604,32.152232,0,11.1764111188,14.54478393,25,5,16.265,89.981476304604,36.417324,0.6263432,11.1764111188,0,0,0,277.3, 4.6, 4.5,0,0,1024,1024,1024,1024,0,0,0,0,271.8,-90,0,84,4.055,4.062,4.072,4.075,0,0,7.185,74.84,89.653392304604,36.08924,6,P-GPS,
18200,2023-06-08 17:44:20,52.2063890823203,0.0867208139158606,36.08924,36.08924,53.564152304604,89.653392304604,32.152232,0,11.2448166328,14.6145345884,25,5,16.265,89.981476304604,36.417324,0.6263432,11.2448166328,0,0,0,277, 4.3, 4.2,0,0,1024,1024,1024,1024,0,0,0,0,271.8,-89.9,0,84,4.055,4.062,4.072,4.075,0,0,7.185,74.84,89.653392304604,36.08924,6,P-GPS,
18400,2023-06-08 17:44:20,52.2063891940843,0.0867208184670669,36.08924,36.08924,53.564152304604,89.653392304604,32.152232,0,11.285597474,14.6553154296,25,5,16.265,89.981476304604,36.417324,0.6263432,11.285597474,0,0,0,277.2, 5, 5,0,0,1024,1024,1024,1024,0,0,0,0,271.8,-90,0,84,4.055,4.062,4.072,4.075,0,0,7.185,74.84,89.653392304604,36.08924,6,P-GPS,
18600,2023-06-08 17:44:21,52.2063892315518,0.0867207866483765,36.08924,36.08924,53.564152304604,89.653392304604,32.152232,0,11.2988520676,14.6707353776,25,5,16.265,89.981476304604,36.417324,0.6263432,11.2988520676,0,0,0,277.2, 5.3, 5.9,0,0,1024,1024,1024,1024,0,0,0,0,271.8,-89.9,0,84,4.055,4.062,4.072,4.075,0,0,7.185,74.84,89.653392304604,36.08924,6,P-GPS,
18800,2023-06-08 17:44:21,52.2063892616902,0.0867207689948682,36.08924,36.08924,53.564152304604,89.653392304604,32.152232,0,11.3096132228,14.682415168,25,5,16.265,89.981476304604,36.417324,0.6263432,11.3096132228,0,0,0,277.1, 5, 6.6,0,0,1024,1024,1024,1024,0,0,0,0,271.8,-90,0,84,4.055,4.062,4.072,4.075,0,0,7.185,74.84,89.653392304604,36.08924,6,P-GPS,
19000,2023-06-08 17:44:21,52.2063893337037,0.0867208062817339,36.08924,36.08924,53.564152304604,89.653392304604,32.152232,0,11.3363192604,14.709974224,25,5,16.237,89.981476304604,36.417324,0.6263432,11.3363192604,0,0,0,277, 4.5, 6.5,0,0,1024,1024,1024,1024,0,0,0,0,271.8,-89.9,0,84,4.059,4.058,4.061,4.056,0,0,7.07,74.84,89.653392304604,36.08924,6,P-GPS,
19200,2023-06-08 17:44:21,52.2063895518903,0.0867208092200536,36.08924,36.08924,53.564152304604,89.653392304604,32.152232,0,11.415846822,14.7896002108,25,5,16.237,89.981476304604,36.417324,0.6263432,11.415846822,0,0,0,277.2, 5.2, 4.8,0,0,1024,1024,1024,1024,0,0,0,0,271.8,-90,0,84,4.059,4.058,4.061,4.056,0,0,7.07,74.84,89.653392304604,36.08924,6,P-GPS,
19400,2023-06-08 17:44:21,52.2063898310477,0.0867207466355051,36.08924,36.08924,53.564152304604,89.653392304604,32.152232,0,11.5167982688,14.892388928,25,5,16.237,89.981476304604,36.417324,0.6263432,11.5167982688,0,0,0,277.1, 5.7, 3.9,0,0,1024,1024,1024,1024,0,0,0,0,271.8,-90,0,84,4.059,4.058,4.061,4.056,0,0,7.07,74.84,89.653392304604,36.08924,6,P-GPS,
19600,2023-06-08 17:44:22,52.2063900494656,0.0867206336351405,36.08924,36.08924,53.564152304604,89.653392304604,32.152232,0,11.5950463028,14.9759847312,25,5,16.237,89.981476304604,36.417324,0.6263432,11.5950463028,0,0,0,277.2, 6.3, 4,0,0,1024,1024,1024,1024,0,0,0,0,271.8,-90,0,84,4.059,4.058,4.061,4.056,0,0,7.07,74.84,89.653392304604,36.08924,6,P-GPS,
19800,2023-06-08 17:44:22,52.2063902204827,0.0867206151004858,36.08924,36.08924,53.564152304604,89.653392304604,32.152232,0,11.6571854124,15.0385175416,25,5,16.237,89.981476304604,36.417324,0.6263432,11.6571854124,0,0,0,277.3, 6.5, 3.6,0,0,1024,1024,1106,1024,0,0,12,0,271.8,-89.9,0,84,4.059,4.058,4.061,4.056,0,0,7.07,74.84,89.653392304604,36.08924,6,P-GPS,
20000,2023-06-08 17:44:22,52.2063903091846,0.0867207662326031,36.08924,36.08924,53.564152304604,89.653392304604,32.152232,0,11.6912077232,15.08530232,25,5,16.239,89.981476304604,36.417324,0.6263432,11.6912077232,0,0,0,277.2, 5, 4.3,0,0,1024,1024,1684,818,0,0,100,-31,271.8,-90,0,84,4.061,4.059,4.06,4.057,0,0,7.232,74.84,89.653392304604,36.08924,6,P-GPS,
20200,2023-06-08 17:44:22,52.2063903688061,0.0867209415077825,36.08924,36.08924,53.564152304604,89.653392304604,32.152232,0,11.71505943,15.1301514028,25,5,16.239,89.981476304604,36.417324,0.6263432,11.71505943,0,0,-0.447388,277.1, 3.8, 4.5,0,0,1024,1024,1588,1020,0,0,85,-1,271.7,-89.9,0,84,4.061,4.059,4.06,4.057,0,0,7.232,74.84,89.653392304604,36.08924,6,P-GPS,
20400,2023-06-08 17:44:22,52.2063904427214,0.0867210029499423,36.745408,36.745408,53.564152304604,90.309560304604,32.480316,0,11.7427497196,15.1604007476,25,5,16.239,90.309560304604,36.745408,0.6263432,11.7427497196,0,0,-2.460634,276.8, 5.2, 4.4,0,0,1024,1024,1115,1024,0,0,14,0,271.2,-90,0,84,4.061,4.059,4.06,4.057,0,0,7.232,74.84,90.309560304604,36.745408,6,P-GPS,
20600,2023-06-08 17:44:23,52.2063905075902,0.0867210771820493,37.72966,37.6968516,53.596960704604,91.293812304604,33.792652,0,11.7673560196,15.189304948,25,5,16.239,91.293812304604,37.72966,0.6263432,11.7673560196,0,0,-4.921268,276.6, 6.5, 4.9,0,0,1024,1024,1024,1024,0,0,0,0,271.1,-90,0,84,4.061,4.059,4.06,4.057,0,0,7.232,74.84,91.293812304604,37.72966,6,P-GPS,
20800,2023-06-08 17:44:23,52.2063905650699,0.086721290091398,39.041996,39.0091876,53.596960704604,92.606148304604,35.104988,0,11.7911421096,15.2413390704,25,5,16.239,92.606148304604,39.041996,0.6263432,11.7911421096,0,0,-3.802798,276.7, 7, 7.7,0,0,1024,1024,1024,1024,0,0,0,0,271.1,-89.9,0,84,4.061,4.059,4.06,4.057,0,0,7.232,74.84,92.606148304604,39.041996,6,P-GPS,
21000,2023-06-08 17:44:23,52.2063905379556,0.0867214979838476,39.698164,39.6653556,53.596960704604,93.262316304604,35.761156,0,11.7842523456,15.2888456336,25,5,15.951,93.262316304604,39.698164,0.6263432,11.7911421096,0,0,-1.565858,276.5, 6, 7.3,0,0,1024,1024,1024,1024,0,0,0,0,271.1,-89.9,0,84,4.044,4.08,4.084,4.077,0,0,10.021,74.84,93.262316304604,39.698164,6,P-GPS,
21200,2023-06-08 17:44:23,52.2063905484758,0.0867216460845941,40.026248,39.9934396,53.596960704604,93.590400304604,35.761156,0,11.7902890912,15.322178968,25,5,15.951,93.590400304604,40.026248,0.6263432,11.7911421096,0,0,-0.223694,276.6, 4.8, 6.3,0,0,1024,1024,1024,1024,0,0,0,0,271.1,-89.9,0,84,4.044,4.08,4.084,4.077,0,0,10.021,74.84,93.590400304604,40.026248,6,P-GPS,
21400,2023-06-08 17:44:23,52.2063905911305,0.0867217554987758,40.026248,39.9934396,53.596960704604,93.590400304604,35.761156,0,11.8075463096,15.3511815936,25,5,15.951,93.590400304604,40.026248,0.6263432,11.8075463096,0,0,0,276.6, 5.2, 5.8,0,0,1024,1024,1024,1024,0,0,0,0,271.1,-90,0,84,4.044,4.08,4.084,4.077,0,0,10.021,74.84,93.590400304604,40.026248,6,P-GPS,
21600,2023-06-08 17:44:24,52.2063906443825,0.0867218865423277,40.026248,39.9934396,53.596960704604,93.590400304604,35.761156,0,11.8290358116,15.38631939,25,5,15.951,93.590400304604,40.026248,0.6263432,11.8290358116,0,0,0,276.8, 5.9, 5.7,0,0,1024,1024,1024,1024,0,0,0,0,271.1,-89.9,0,84,4.044,4.08,4.084,4.077,0,0,10.021,74.84,93.590400304604,40.026248,6,P-GPS,
21800,2023-06-08 17:44:24,52.2063907510406,0.0867220955378486,39.698164,39.6653556,53.596960704604,93.262316304604,35.761156,0,11.8713258392,15.4471461636,25,5,15.951,93.590400304604,40.026248,0.6263432,11.8713258392,0,0,0,276.7, 5.2, 5.6,0,0,1024,1024,1024,1024,0,0,0,0,271.1,-89.9,0,84,4.044,4.08,4.084,4.077,0,0,10.021,74.84,93.262316304604,39.698164,6,P-GPS,
22000,2023-06-08 17:44:24,52.2063909123043,0.0867223166461838,39.698164,39.6653556,53.596960704604,93.262316304604,35.761156,0,11.9338586496,15.5239834364,25,5,16.247,93.590400304604,40.026248,0.6263432,11.9338586496,0,0,0,276.6, 5.2, 5.1,0,0,1024,1024,1024,1024,0,0,0,0,271.1,-90,0,84,4.055,4.057,4.054,4.054,0,0,5.455,75.02,93.262316304604,39.698164,6,P-GPS,
22200,2023-06-08 17:44:24,52.2063910985191,0.0867224988372921,39.698164,39.6653556,53.596960704604,93.262316304604,35.761156,0,12.004921644,15.6032157224,25,5,16.247,93.590400304604,40.026248,0.6263432,12.004921644,0,0,0,276.7, 5.6, 4.3,0,0,1024,1024,1024,1024,0,0,0,0,271.1,-90,0,84,4.055,4.057,4.054,4.054,0,0,5.455,75.02,93.262316304604,39.698164,6,P-GPS,
22400,2023-06-08 17:44:24,52.2063912364337,0.0867226571077001,39.698164,39.6653556,53.596960704604,93.262316304604,35.761156,0,12.058071252,15.6647314724,25,5,16.247,93.590400304604,40.026248,0.6263432,12.058071252,0,0,0,276.8, 5.6, 4.1,0,0,1024,1024,1024,1024,0,0,0,0,271.1,-89.9,0,84,4.055,4.057,4.054,4.054,0,0,5.455,75.02,93.262316304604,39.698164,6,P-GPS,
22600,2023-06-08 17:44:25,52.2063913418968,0.0867228570685215,39.698164,39.6653556,53.596960704604,93.262316304604,35.761156,0,12.1002956628,15.7237209756,25,5,16.247,93.590400304604,40.026248,0.6263432,12.1002956628,0,0,0,276.8, 5.1, 4.1,0,0,1024,1024,1024,1024,0,0,0,0,271.1,-89.9,0,84,4.055,4.057,4.054,4.054,0,0,5.455,75.02,93.262316304604,39.698164,6,P-GPS,
22800,2023-06-08 17:44:25,52.2063913959069,0.0867230913259027,39.698164,39.6653556,53.596960704604,93.262316304604,35.761156,0,12.1247051124,15.7796592976,25,5,16.247,93.590400304604,40.026248,0.6263432,12.1247051124,0,0,0,276.8, 4.6, 4,0,0,1024,1024,1024,1024,0,0,0,0,271.1,-90,0,84,4.055,4.057,4.054,4.054,0,0,5.455,75.02,93.262316304604,39.698164,6,P-GPS,
23000,2023-06-08 17:44:25,52.2063913895888,0.0867233437190855,39.698164,39.6653556,53.596960704604,93.262316304604,35.761156,0,12.1278219104,15.8361553624,25,5,16.232,93.590400304604,40.026248,0.6263432,12.1278219104,0,0,0,276.5, 3.8, 4.5,0,0,1024,1024,1024,1024,0,0,0,0,271.1,-90,0,84,4.058,4.059,4.058,4.054,0,0,7.119,75.02,93.262316304604,39.698164,6,P-GPS,
23200,2023-06-08 17:44:25,52.2063913641108,0.0867235033136158,39.698164,39.6653556,53.596960704604,93.262316304604,36.08924,0,12.1221460572,15.873032004,25,5,16.232,93.590400304604,40.026248,0.6263432,12.1278219104,0,0,0,276.7, 3.9, 5.3,0,0,1024,1024,1024,1024,0,0,0,0,271.1,-90,0,84,4.058,4.059,4.058,4.054,0,0,7.119,75.02,93.262316304604,39.698164,6,P-GPS,
23400,2023-06-08 17:44:25,52.2063913541946,0.0867235488335431,39.698164,39.6653556,53.596960704604,93.262316304604,36.08924,0,12.119587002,15.8838259676,25,5,16.232,93.590400304604,40.026248,0.6263432,12.1278219104,0,0,0,276.5, 4.1, 5.9,0,0,1024,1024,1024,1024,0,0,0,0,271.1,-90,0,84,4.058,4.059,4.058,4.054,0,0,7.119,75.02,93.262316304604,39.698164,6,P-GPS,
23600,2023-06-08 17:44:26,52.2063914181766,0.0867234556294846,39.698164,39.6653556,53.596960704604,93.262316304604,36.08924,0,12.1406828032,15.9151251812,25,5,16.232,93.590400304604,40.026248,0.6263432,12.1406828032,0,0,0,276.7, 4.6, 6,0,0,1024,1024,1024,1024,0,0,0,0,271.1,-90,0,84,4.058,4.059,4.058,4.054,0,0,7.119,75.02,93.262316304604,39.698164,6,P-GPS,
23800,2023-06-08 17:44:26,52.2063915744501,0.0867232520728694,39.698164,39.6653556,53.596960704604,93.262316304604,36.08924,0,12.1929793928,15.9880910628,25,5,16.232,93.590400304604,40.026248,0.6263432,12.1929793928,0,0,0,276.8, 5, 6.2,0,0,1024,1024,1024,1024,0,0,0,0,271.1,-89.9,0,84,4.058,4.059,4.058,4.054,0,0,7.119,75.02,93.262316304604,39.698164,6,P-GPS,
24000,2023-06-08 17:44:26,52.2063917636805,0.0867230223212612,39.698164,39.6653556,53.596960704604,93.262316304604,36.08924,0,12.256890156,16.0741146876,25,5,16.205,93.590400304604,40.026248,0.6263432,12.256890156,0,0,0,276.9, 6.1, 5.8,0,0,1024,1024,1024,1024,0,0,0,0,271.1,-90,0,84,4.053,4.052,4.053,4.052,0,0,7.353,75.02,93.262316304604,39.698164,6,P-GPS,
24200,2023-06-08 17:44:26,52.2063919352159,0.0867228692036157,39.698164,39.6653556,53.596960704604,93.262316304604,35.761156,0,12.3161749348,16.1454729576,25,5,16.205,93.590400304604,40.026248,0.6263432,12.3161749348,0,0,0,276.9, 5.9, 5.8,0,0,1024,1024,1024,1024,0,0,0,0,271.1,-90,0,84,4.053,4.052,4.053,4.052,0,0,7.353,75.02,93.262316304604,39.698164,6,P-GPS,
24400,2023-06-08 17:44:26,52.2063920937553,0.0867227517739287,39.698164,39.6653556,53.596960704604,93.262316304604,35.761156,0,12.3715227056,16.20899002,25,5,16.205,93.590400304604,40.026248,0.6263432,12.3715227056,0,0,0,276.9, 6, 6.1,0,0,1024,1024,1024,1024,0,0,0,0,271.1,-90,0,84,4.053,4.052,4.053,4.052,0,0,7.353,75.02,93.262316304604,39.698164,6,P-GPS,
24600,2023-06-08 17:44:27,52.2063922219636,0.0867226775453166,39.698164,39.6653556,53.596960704604,93.262316304604,35.761156,0,12.4166998724,16.2586291292,25,5,16.205,93.590400304604,40.026248,0.6263432,12.4166998724,0,0,0,276.8, 5.4, 6.3,0,0,1024,1024,1024,1024,0,0,0,0,271.1,-90,0,84,4.053,4.052,4.053,4.052,0,0,7.353,75.02,93.262316304604,39.698164,6,P-GPS,
24800,2023-06-08 17:44:27,52.2063923357794,0.086722586661421,39.698164,39.6653556,53.596960704604,93.262316304604,35.761156,0,12.4563980364,16.3048561648,25,5,16.205,93.590400304604,40.026248,0.6263432,12.4563980364,0,0,0,276.9, 5.3, 6.9,0,0,1024,1024,1024,1024,0,0,0,0,271.1,-90,0,84,4.053,4.052,4.053,4.052,0,0,7.353,75.02,93.262316304604,39.698164,6,P-GPS,
25000,2023-06-08 17:44:27,52.2063924282164,0.0867225113480858,39.698164,39.6653556,53.596960704604,93.262316304604,35.433072,0,12.4886486936,16.3425530164,25,5,16.203,93.590400304604,40.026248,0.6263432,12.4886486936,0,0,0,276.8, 5, 7.4,0,0,1024,1024,1024,1024,0,0,0,0,271.1,-89.9,0,84,4.053,4.053,4.049,4.048,0,0,7.181,75.2,93.262316304604,39.698164,6,P-GPS,
25200,2023-06-08 17:44:27,52.2063925630041,0.0867223888154383,39.698164,39.6653556,53.596960704604,93.262316304604,35.104988,0,12.5354990888,16.3988522308,25,5,16.203,93.590400304604,40.026248,0.6263432,12.5354990888,0,0,0,276.7, 5.3, 7.5,0,0,1024,1024,1024,1024,0,0,0,0,271.1,-89.9,0,84,4.053,4.053,4.049,4.048,0,0,7.181,75.2,93.262316304604,39.698164,6,P-GPS,
25400,2023-06-08 17:44:27,52.2063927395383,0.0867222306808938,39.698164,39.6653556,53.596960704604,93.262316304604,34.776904,0,12.5970476472,16.4723102384,25,5,16.203,93.590400304604,40.026248,0.6263432,12.5970476472,0,0,0,276.9, 5.5, 6.6,0,0,1024,1024,1024,1024,0,0,0,0,271.1,-90,0,84,4.053,4.053,4.049,4.048,0,0,7.181,75.2,93.262316304604,39.698164,6,P-GPS,
25600,2023-06-08 17:44:28,52.2063929438636,0.0867220272859167,39.698164,39.6653556,53.596960704604,93.262316304604,34.776904,0,12.6680778332,16.5596461992,25,5,16.203,93.590400304604,40.026248,0.6263432,12.6680778332,0,0,0,276.9, 6, 5.5,0,0,1024,1024,1024,1024,0,0,0,0,271.1,-89.9,0,84,4.053,4.053,4.049,4.048,0,0,7.181,75.2,93.262316304604,39.698164,6,P-GPS,
25800,2023-06-08 17:44:28,52.2063930901909,0.0867218044668382,39.698164,39.6653556,53.596960704604,93.262316304604,34.776904,0,12.7179137928,16.6326776976,25,5,16.203,93.590400304604,40.026248,0.6263432,12.7179137928,0,0,0,276.9, 6.1, 4.9,0,0,1024,1024,1024,1024,0,0,0,0,271.1,-90,0,84,4.053,4.053,4.049,4.048,0,0,7.181,75.2,93.262316304604,39.698164,6,P-GPS,
26000,2023-06-08 17:44:28,52.2063931882821,0.0867216324598077,39.698164,39.6653556,53.596960704604,93.262316304604,34.776904,0,12.7511158936,16.685203946,25,5,16.205,93.590400304604,40.026248,0.6263432,12.7511158936,0,0,0,276.9, 5.8, 5.2,0,0,1024,1024,1024,1024,0,0,0,0,271.1,-89.9,0,84,4.053,4.051,4.052,4.047,0,0,7.297,75.2,93.262316304604,39.698164,6,P-GPS,
26200,2023-06-08 17:44:28,52.2063932164073,0.0867214970074657,39.698164,39.6653556,53.596960704604,93.262316304604,34.776904,0,12.7594820356,16.7171593276,25,5,16.205,93.590400304604,40.026248,0.6263432,12.7594820356,0,0,0,276.7, 5.5, 5,0,0,1024,1024,1024,1024,0,0,0,0,271.1,-89.9,0,84,4.053,4.051,4.052,4.047,0,0,7.297,75.2,93.262316304604,39.698164,6,P-GPS,
26400,2023-06-08 17:44:28,52.2063931848425,0.0867214344561186,40.026248,39.9934396,53.596960704604,93.590400304604,34.776904,0,12.7471460772,16.7353023728,25,5,16.205,93.590400304604,40.026248,0.6263432,12.7594820356,0,0,0,276.7, 4.6, 6.6,0,0,1024,1024,1024,1024,0,0,0,0,271.1,-90,0,84,4.053,4.051,4.052,4.047,0,0,7.297,75.2,93.590400304604,40.026248,6,P-GPS,
26600,2023-06-08 17:44:29,52.2063931721378,0.0867212929938951,40.026248,39.9934396,53.596960704604,93.590400304604,34.776904,0,12.7406828224,16.7672577544,25,5,16.205,93.590400304604,40.026248,0.6263432,12.7594820356,0,0,0,276.9, 4.9, 6.7,0,0,1024,1024,1024,1024,0,0,0,0,271.1,-90,0,84,4.053,4.051,4.052,4.047,0,0,7.297,75.2,93.590400304604,40.026248,6,P-GPS,
26800,2023-06-08 17:44:29,52.2063931600841,0.0867210695898612,39.698164,39.6653556,53.596960704604,93.262316304604,34.776904,0,12.7334977828,16.8173889896,25,5,16.205,93.590400304604,40.026248,0.6263432,12.7594820356,0,0,0,276.9, 5.4, 6.4,0,0,1024,1024,1024,1024,0,0,0,0,271.1,-90,0,84,4.053,4.051,4.052,4.047,0,0,7.297,75.2,93.262316304604,39.698164,6,P-GPS,
27000,2023-06-08 17:44:29,52.2063931419008,0.086720794208237,39.698164,39.6653556,53.596960704604,93.262316304604,34.776904,0,12.7237208796,16.8793312488,25,5,16.23,93.590400304604,40.026248,0.6263432,12.7594820356,0,0,0,276.9, 6.3, 6.4,0,0,1024,1024,1024,1024,0,0,0,0,271.1,-89.9,0,84,4.054,4.051,4.052,4.047,0,0,7.05,75.2,93.262316304604,39.698164,6,P-GPS,
27200,2023-06-08 17:44:29,52.2063931361953,0.0867205068924743,39.698164,39.6653556,53.596960704604,93.262316304604,34.776904,0,12.718668386,16.9436029044,25,5,16.23,93.590400304604,40.026248,0.6263432,12.7594820356,0,0,0,276.8, 6.1, 6.8,0,0,1024,1024,1024,1024,0,0,0,0,271.1,-89.9,0,84,4.054,4.051,4.052,4.047,0,0,7.05,75.2,93.262316304604,39.698164,6,P-GPS,
27400,2023-06-08 17:44:29,52.2063931258164,0.0867202404905052,39.698164,39.6653556,53.596960704604,93.262316304604,34.44882,0,12.71243479,17.003281384,25,5,16.23,93.590400304604,40.026248,0.6263432,12.7594820356,0,0,0,276.9, 6.2, 7.1,0,0,1024,1024,1024,1024,0,0,0,0,271.1,-89.9,0,84,4.054,4.051,4.052,4.047,0,0,7.05,75.2,93.262316304604,39.698164,6,P-GPS,
27600,2023-06-08 17:44:29,52.2063931543014,0.0867199827427307,39.698164,39.6653556,53.596960704604,93.262316304604,34.44882,0,12.7207025068,17.061844378,25,5,16.23,93.590400304604,40.026248,0.6263432,12.7594820356,0,0,0,276.9, 6.3, 7.1,0,0,1024,1024,1024,1024,0,0,0,0,271.1,-90,0,84,4.054,4.051,4.052,4.047,0,0,7.05,75.2,93.262316304604,39.698164,6,P-GPS,
27800,2023-06-08 17:44:30,52.2063931993377,0.0867197638933981,39.698164,39.6653556,53.596960704604,93.262316304604,34.44882,0,12.7355319036,17.1134519912,25,5,16.23,93.590400304604,40.026248,0.6263432,12.7594820356,0,0,0,276.9, 6.4, 6.1,0,0,1024,1024,1024,1024,0,0,0,0,271.1,-89.9,0,84,4.054,4.051,4.052,4.047,0,0,7.05,75.2,93.262316304604,39.698164,6,P-GPS,
28000,2023-06-08 17:44:30,52.2063932428577,0.0867195796355055,39.698164,39.6653556,53.596960704604,93.262316304604,34.44882,0,12.7501972584,17.1576120976,25,5,16.189,93.590400304604,40.026248,0.6263432,12.7594820356,0,0,0,276.8, 6.4, 6.2,0,0,1024,1024,1024,1024,0,0,0,0,271.1,-90,0,84,4.049,4.049,4.047,4.042,0,0,7.356,75.38,93.262316304604,39.698164,6,P-GPS,
28200,2023-06-08 17:44:30,52.206393274808,0.0867194060120934,39.698164,39.6653556,53.596960704604,93.262316304604,34.44882,0,12.7608599884,17.19816328,25,5,16.189,93.590400304604,40.026248,0.6263432,12.7608599884,0,0,0,276.9, 6.9, 6.1,0,0,1024,1024,1024,1024,0,0,0,0,271.1,-90,0,84,4.049,4.049,4.047,4.042,0,0,7.356,75.38,93.262316304604,39.698164,6,P-GPS,
28400,2023-06-08 17:44:30,52.2063932966965,0.0867192965786899,39.698164,39.6653556,53.596960704604,93.262316304604,34.120736,0,12.7682746868,17.2238850656,25,5,16.189,93.590400304604,40.026248,0.6263432,12.7682746868,0,0,0,276.8, 6.2, 5.8,0,0,1024,1024,1024,1024,0,0,0,0,271.1,-89.9,0,84,4.049,4.049,4.047,4.042,0,0,7.356,75.38,93.262316304604,39.698164,6,P-GPS,
28600,2023-06-08 17:44:31,52.2063933002732,0.0867192121109556,39.698164,39.6653556,53.596960704604,93.262316304604,34.120736,0,12.7691605136,17.2428155124,25,5,16.189,93.590400304604,40.026248,0.6263432,12.7691605136,0,0,0,276.8, 5.9, 6.2,0,0,1024,1024,1024,1024,0,0,0,0,271.1,-89.9,0,84,4.049,4.049,4.047,4.042,0,0,7.356,75.38,93.262316304604,39.698164,6,P-GPS,
28800,2023-06-08 17:44:31,52.2063932707259,0.0867191146970968,39.698164,39.6653556,53.596960704604,93.262316304604,34.44882,0,12.7579400408,17.2671265368,25,5,16.189,93.590400304604,40.026248,0.6263432,12.7691605136,0,0,0,276.7, 5.6, 6.6,0,0,1024,1024,1024,1024,0,0,0,0,271.1,-89.9,0,84,4.049,4.049,4.047,4.042,0,0,7.356,75.38,93.262316304604,39.698164,6,P-GPS,
29000,2023-06-08 17:44:31,52.2063932782519,0.0867189782327689,39.698164,39.6653556,53.596960704604,93.262316304604,34.44882,0,12.7601382036,17.2977695824,25,5,16.188,93.590400304604,40.026248,0.6263432,12.7691605136,0,0,0,276.9, 6.3, 6.4,0,0,1024,1024,1024,1024,0,0,0,0,271.1,-89.9,0,84,4.047,4.045,4.05,4.047,0,0,7.347,75.38,93.262316304604,39.698164,6,P-GPS,
29200,2023-06-08 17:44:31,52.2063932943749,0.08671886813927,39.698164,39.6653556,53.596960704604,93.262316304604,34.44882,0,12.7656172064,17.3230648588,25,5,16.188,93.590400304604,40.026248,0.6263432,12.7691605136,0,0,0,276.8, 5.9, 5.8,0,0,1024,1024,1024,1024,0,0,0,0,271.1,-89.9,0,84,4.047,4.045,4.05,4.047,0,0,7.347,75.38,93.262316304604,39.698164,6,P-GPS,
29400,2023-06-08 17:44:31,52.2063932849298,0.0867188763714579,39.698164,39.6653556,53.596960704604,93.262316304604,34.44882,0,12.7622051328,17.3269690584,25,5,16.188,93.590400304604,40.026248,0.6263432,12.7691605136,0,0,0,276.7, 5.3, 5.9,0,0,1024,1024,1024,1024,0,0,0,0,271.1,-89.9,0,84,4.047,4.045,4.05,4.047,0,0,7.347,75.38,93.262316304604,39.698164,6,P-GPS,
29600,2023-06-08 17:44:32,52.2063932614179,0.0867189551462525,39.698164,39.6653556,53.596960704604,93.262316304604,34.44882,0,12.7539046076,17.3465556732,25,5,16.188,93.590400304604,40.026248,0.6263432,12.7691605136,0,0,0,276.6, 3.4, 6.2,0,0,1024,1024,1024,1024,0,0,0,0,271.1,-89.9,0,84,4.047,4.045,4.05,4.047,0,0,7.347,75.38,93.262316304604,39.698164,6,P-GPS,
29800,2023-06-08 17:44:32,52.2063932594946,0.0867190147937919,39.698164,39.6653556,53.596960704604,93.262316304604,34.776904,0,12.75344529,17.359908692,25,5,16.188,93.590400304604,40.026248,0.6263432,12.7691605136,0,0,0,276.6, 3.3, 6,0,0,1024,1024,1171,1024,0,0,22,0,271.1,-90,0,84,4.047,4.045,4.05,4.047,0,0,7.347,75.38,93.262316304604,39.698164,6,P-GPS,
30000,2023-06-08 17:44:32,52.2063932853582,0.0867189628911231,39.698164,39.6653556,53.596960704604,93.262316304604,34.776904,0,12.7626644504,17.3748693224,25,5,16.152,93.590400304604,40.026248,0.6263432,12.7691605136,0,0,0,276.7, 3.7, 6.1,0,0,1024,1024,1650,927,0,0,95,-15,271.1,-90,0,84,4.043,4.041,4.044,4.038,0,0,7.438,75.38,93.262316304604,39.698164,6,P-GPS,
30200,2023-06-08 17:44:32,52.2063933092128,0.0867188325915436,39.698164,39.6653556,53.596960704604,93.262316304604,35.104988,0,12.7709321672,17.4052827092,25,5,16.152,93.590400304604,40.026248,0.6263432,12.7709321672,0,0,-0.671082,276.8, 3.4, 5.2,0,0,1024,1024,1653,1024,0,0,95,0,271.1,-89.9,0,84,4.043,4.041,4.044,4.038,0,0,7.438,75.38,93.262316304604,39.698164,6,P-GPS,
30400,2023-06-08 17:44:32,52.2063933407861,0.0867186882722563,40.354332,40.3215236,53.596960704604,93.918484304604,35.761156,0,12.7820214064,17.4395346788,25,5,16.152,93.918484304604,40.354332,0.6263432,12.7820214064,0,0,-2.908022,276.8, 3.9, 5.4,0,0,1024,1024,1663,1020,0,0,97,-1,271,-89.9,0,84,4.043,4.041,4.044,4.038,0,0,7.438,75.38,93.918484304604,40.354332,6,P-GPS,
30600,2023-06-08 17:44:33,52.2063933738116,0.0867185504368436,41.666668,41.6338596,53.596960704604,95.230820304604,37.073492,0,12.7937668136,17.4726383544,25,5,16.152,95.230820304604,41.666668,0.6263432,12.7937668136,0,0,-5.144962,276.8, 4.4, 6.5,0,0,1024,1024,1684,1024,0,0,100,0,271,-89.9,0,84,4.043,4.041,4.044,4.038,0,0,7.438,75.38,95.230820304604,41.666668,6,P-GPS,
30800,2023-06-08 17:44:33,52.2063935012745,0.0867185522782081,43.307088,43.2414712,53.629769104604,96.871240304604,39.041996,0,12.8402563164,17.5191278572,25,5,16.152,96.871240304604,43.307088,0.6263432,12.8402563164,0,0,-7.605596,276.9, 3.8, 6,0,0,1024,1024,1679,1024,0,0,99,0,271,-89.9,0,84,4.043,4.041,4.044,4.038,0,0,7.438,75.38,96.871240304604,43.307088,6,P-GPS,
31000,2023-06-08 17:44:33,52.2063936242869,0.0867186784086152,45.93176,45.8661432,53.629769104604,99.495912304604,41.666668,0,12.8854334832,17.5721462316,25,5,15.825,99.495912304604,45.93176,0.6263432,12.8854334832,0,0,-9.842536,277.3, 2.6, 6.1,0,0,1024,1024,1670,1024,0,0,98,0,271,-90,0,84,3.938,3.935,3.936,3.929,0,0,11.392,75.2,99.495912304604,45.93176,6,P-GPS,
31200,2023-06-08 17:44:33,52.2063937616018,0.0867187837401227,49.868768,49.8031512,53.629769104604,103.4329203046,44.947508,0.223694,12.9358271856,17.6274940024,25,5,15.825,103.4329203046,49.868768,0.6263432,12.9358271856,0.223694,0,-11.855782,277.4, 1.9, 5.6,0,0,1024,1024,1665,1024,0,0,97,0,271,-90,0,84,3.938,3.935,3.936,3.929,0,0,11.392,75.2,103.4329203046,49.868768,6,P-GPS,
31400,2023-06-08 17:44:33,52.2063938844214,0.0867187319774676,53.805776,53.7401592,53.629769104604,107.3699283046,48.884516,0.223694,12.980479418,17.6737866548,25,5,15.825,107.3699283046,53.805776,0.6263432,12.980479418,0.223694,0,-12.750558,277.6, 2, 4.5,0,0,1024,1024,1638,1024,0,0,93,0,271,-90,0,84,3.938,3.935,3.936,3.929,0,0,11.392,75.2,107.3699283046,53.805776,6,P-GPS,
31600,2023-06-08 17:44:34,52.2063939019494,0.0867184719451343,57.4147,57.3490832,53.629769104604,110.9788523046,52.821524,0,12.9862865048,17.732284032,25,5,15.825,110.9788523046,57.4147,0.6263432,12.9862865048,0,0,-12.30317,277.6, 3.9, 5.7,0,0,1024,1024,1625,1024,0,0,91,0,271,-90,0,84,3.938,3.935,3.936,3.929,0,0,11.392,75.2,110.9788523046,57.4147,6,P-GPS,
31800,2023-06-08 17:44:34,52.2063939583283,0.0867181801308067,61.023624,60.9580072,53.629769104604,114.5877763046,56.430448,0,13.0064964792,17.800689546,25,5,15.825,114.5877763046,61.023624,0.6263432,13.0064964792,0,0,-11.632088,276.4, 4.8, 6,0,0,1024,1024,1616,1024,0,0,90,0,271,-90,0,84,3.938,3.935,3.936,3.929,0,0,11.392,75.2,114.5877763046,61.023624,6,P-GPS,
32000,2023-06-08 17:44:34,52.2063939957229,0.0867178006987667,64.304464,64.2388472,53.629769104604,117.8686163046,59.711288,0,13.0202103904,17.8866147456,25,5,15.872,117.8686163046,64.304464,0.6263432,13.0202103904,0,0,-11.1847,275.7, 5, 6.6,0,0,1024,1024,1613,1024,0,0,89,0,271,-90,0,84,3.98,3.98,3.979,3.975,0,0,15.297,75.38,117.8686163046,64.304464,6,P-GPS,
32200,2023-06-08 17:44:34,52.2063939527855,0.0867173934776319,67.585304,67.5196872,53.629769104604,121.1494563046,62.664044,0,13.0051841432,17.9790032,25,5,15.872,121.1494563046,67.585304,0.6263432,13.0202103904,0,0,-10.737312,275.6, 5.5, 7.1,0,0,1024,1024,1610,1024,0,0,89,0,271,-90,0,84,3.98,3.98,3.979,3.975,0,0,15.297,75.38,121.1494563046,67.585304,6,P-GPS,
32400,2023-06-08 17:44:34,52.2063938732502,0.0867170119864527,70.53806,70.4724432,53.629769104604,124.1022123046,65.6168,0,12.97736262,18.0690950664,25,5,15.872,124.1022123046,70.53806,0.6263432,13.0202103904,0,0,-10.513618,275.7, 5.4, 7,0,0,1024,1024,1609,1024,0,0,89,0,271,-89.9,0,84,3.98,3.98,3.979,3.975,0,0,15.297,75.38,124.1022123046,70.53806,6,P-GPS,
32600,2023-06-08 17:44:35,52.2063937921729,0.0867166073441019,73.490816,73.4251992,53.629769104604,127.0549683046,68.569556,0,12.9496723304,18.1642722348,25,5,15.872,127.0549683046,73.490816,0.6263432,13.0202103904,0,0,-10.513618,275.6, 5.2, 7.6,0,0,1024,1024,1597,1024,0,0,87,0,271,-89.9,0,84,3.98,3.98,3.979,3.975,0,0,15.297,75.38,127.0549683046,73.490816,6,P-GPS,
