time(millisecond),datetime(utc),latitude,longitude,height_above_takeoff(feet),height_above_ground_at_drone_location(feet),ground_elevation_at_drone_location(feet),altitude_above_seaLevel(feet),height_sonar(feet),speed(mph),distance(feet),mileage(feet),satellites,gpslevel,voltage(v),max_altitude(feet),max_ascent(feet),max_speed(mph),max_distance(feet), xSpeed(mph), ySpeed(mph), zSpeed(mph), compass_heading(degrees), pitch(degrees), roll(degrees),isPhoto,isVideo,rc_elevator,rc_aileron,rc_throttle,rc_rudder,rc_elevator(percent),rc_aileron(percent),rc_throttle(percent),rc_rudder(percent),gimbal_heading(degrees),gimbal_pitch(degrees),gimbal_roll(degrees),battery_percent,voltageCell1,voltageCell2,voltageCell3,voltageCell4,voltageCell5,voltageCell6,current(A),battery_temperature(f),altitude(feet),ascent(feet),flycStateRaw,flycState,message
0,2023-06-10 18:24:49,52.2063821475461,0.0867010282685261,0,0,53.688311429312,53.688311429312,0.328084,0,0,0,22,5,0,53.688311429312,0,0,0,0,0,0,286.9, 4.5, 0.6,0,0,1024,1024,1024,1024,0,0,0,0,290.5,0,0,100,4.31,4.308,4.307,4.305,0,0,0,78.8,53.688311429312,0,41,Motors_Started,
200,2023-06-10 18:24:49,52.2063822751204,0.0867010783851323,0,0,53.688311429312,53.688311429312,0.328084,0,0.047875329616,0.047875329616,22,5,0,53.688311429312,0,0,0.047875329616,0,0,0,286.9, 4.5, 0.6,0,0,1024,1024,1024,1024,0,0,0,0,290.5,0,0,100,4.31,4.308,4.307,4.305,0,0,0,78.8,53.688311429312,0,41,Motors_Started,
400,2023-06-10 18:24:50,52.2063823932262,0.086701141771805,0,0,53.688311429312,53.688311429312,0,0,0.0931594518,0.093236879624,22,5,0,53.688311429312,0,0,0.0931594518,0,0,0,286.9, 4.6, 0.5,0,0,1024,1024,1024,1024,0,0,0,0,290.5,0,0,100,4.31,4.308,4.307,4.305,0,0,0,78.8,53.688311429312,0,41,Motors_Started,
600,2023-06-10 18:24:50,52.206382501752,0.086701215187915,0,0,53.688311429312,53.688311429312,0,0,0.135821526656,0.136100069972,22,5,0,53.688311429312,0,0,0.135821526656,0,0,0,287.1, 4.6, 0.6,0,0,1024,1024,1024,1024,0,0,0,0,290.5,0,0,100,4.31,4.308,4.307,4.305,0,0,0,78.8,53.688311429312,0,41,Motors_Started,
800,2023-06-10 18:24:50,52.2063826344794,0.0867012635002884,0,0,53.688311429312,53.688311429312,0,0,0.185279205404,0.185715885208,22,5,0,53.688311429312,0,0,0.185279205404,0,0,0,287, 4.6, 0.6,0,0,1024,1024,1024,1024,0,0,0,0,290.5,0,0,100,4.31,4.308,4.307,4.305,0,0,0,78.8,53.688311429312,0,41,Motors_Started,"Setting new Return-To-Home altitude to 26m (85 ft). Data Recorder File Index is 37. Setting new Maximum Flight Altitude to 120m (394 ft)"
1000,2023-06-10 18:24:50,52.2063827586013,0.0867013206582079,0,0,53.688311429312,53.688311429312,0,0,0.232330388012,0.232770348656,22,5,0,53.688311429312,0,0,0.232330388012,0,0,0,287, 4.6, 0.6,0,0,1024,1024,1024,1024,0,0,0,0,290.5,0,0,100,4.31,4.308,4.307,4.305,0,0,0,78.8,53.688311429312,0,41,Motors_Started,
1200,2023-06-10 18:24:51,52.2063828754263,0.086701387841196,0,0,53.688311429312,53.688311429312,0,0,0.277469168984,0.277963263488,22,5,0,53.688311429312,0,0,0.277469168984,0,0,0,287, 4.6, 0.6,0,0,1024,1024,1024,1024,0,0,0,0,290.5,0,0,100,4.31,4.308,4.307,4.305,0,0,0,78.8,53.688311429312,0,41,Motors_Started,
1400,2023-06-10 18:24:51,52.2063829855177,0.0867014343938964,0,0,53.688311429312,53.688311429312,0,0,0.318933081072,0.319456703136,22,5,17.269,53.688311429312,0,0,0.318933081072,0,0,0,287.1, 4.6, 0.6,0,0,1024,1024,1024,1024,0,0,0,0,290.5,0,0,100,4.31,4.308,4.307,4.305,0,0,2.369,78.8,53.688311429312,0,41,Motors_Started,
1600,2023-06-10 18:24:51,52.2063830883015,0.086701494633428,0,0,53.688311429312,53.688311429312,0,0,0.35872376476,0.3593011926,22,5,17.269,53.688311429312,0,0,0.35872376476,0,0,0,287.2, 4.6, 0.6,0,0,1024,1024,1024,1024,0,0,0,0,290.5,0,0,100,4.31,4.308,4.307,4.305,0,0,2.369,78.8,53.688311429312,0,11,AutoTakeoff,
1800,2023-06-10 18:24:51,52.20638318493,0.0867015686419205,0,0,53.688311429312,53.688311429312,0,0,0.39730644316,0.39824804424,22,5,17.269,53.688311429312,0,0,0.39730644316,0,0,0,287.3, 4.6, 0.5,0,0,1024,1024,1024,1024,0,0,0,0,290.5,0,0,100,4.31,4.308,4.307,4.305,0,0,2.369,78.8,53.688311429312,0,11,AutoTakeoff,
2000,2023-06-10 18:24:51,52.2063832555258,0.0867017053206349,0,0,53.688311429312,53.688311429312,0,0,0.4316601188,0.43821523712,22,5,17.269,53.688311429312,0,0,0.4316601188,0,0,-0.223694,287.5, 0, 0.5,0,0,1024,1024,1024,1024,0,0,0,0,290.5,0,0,100,4.31,4.308,4.307,4.305,0,0,2.369,78.8,53.688311429312,0,11,AutoTakeoff,
2200,2023-06-10 18:24:51,52.206383318966,0.0867018601771037,0,0,53.688311429312,53.688311429312,0.328084,0,0.46611221964,0.47986222008,22,5,17.269,53.688311429312,0,0,0.46611221964,0,0,-0.894776,287.6, -1.2, 0.4,0,0,1024,1024,1024,1024,0,0,0,0,290.5,0,0,100,4.31,4.308,4.307,4.305,0,0,2.369,78.8,53.688311429312,0,11,AutoTakeoff,
2400,2023-06-10 18:24:52,52.2063833968543,0.0867018768013831,0.328084,0.328084,53.688311429312,54.016395429312,0.328084,0,0.4937172074,0.50852035748,22,5,17.291,54.016395429312,0.328084,0,0.4937172074,0,0,-1.11847,287.6, 0.5, 0.1,0,0,1024,1024,1053,1024,0,0,4,0,290.6,0,0,100,4.334,4.331,4.332,4.329,0,0,4.021,78.98,54.016395429312,0.328084,11,AutoTakeoff,
2600,2023-06-10 18:24:52,52.2063834642439,0.0867018695329025,0.656168,0.656168,53.688311429312,54.344479429312,0.984252,0,0.51590880916,0.53316274672,22,5,17.291,54.344479429312,0.656168,0,0.51590880916,0,0,-0.894776,287.5, 0.4, 0.4,0,0,1024,1024,1684,1024,0,0,100,0,290.6,0,0,100,4.334,4.331,4.332,4.329,0,0,4.021,78.98,54.344479429312,0.656168,11,AutoTakeoff,
2800,2023-06-10 18:24:52,52.2063835396757,0.0867019777702681,0.984252,0.984252,53.688311429312,54.672563429312,1.312336,0,0.55049870528,0.56980972952,22,5,17.291,54.672563429312,0.984252,0,0.55049870528,0,0,-1.11847,287.6, 0, 0.2,0,0,1024,1024,1684,1024,0,0,100,0,290.6,0,0,100,4.334,4.331,4.332,4.329,0,0,4.021,78.98,54.672563429312,0.984252,11,AutoTakeoff,
3000,2023-06-10 18:24:52,52.2063836583918,0.0867020770956849,1.64042,1.64042,53.688311429312,55.328731429312,1.64042,0,0.59903873308,0.61848427176,22,5,17.291,55.328731429312,1.64042,0,0.59903873308,0,0,-2.460634,287.6, -0.4, 0.4,0,0,1024,1024,1684,1024,0,0,100,0,290.6,0,0,100,4.334,4.331,4.332,4.329,0,0,4.021,78.98,55.328731429312,1.64042,11,AutoTakeoff,
3200,2023-06-10 18:24:52,52.2063837373725,0.0867021627255334,2.624672,2.624672,53.688311429312,56.312983429312,2.952756,0,0.63308072892,0.65308072956,23,5,17.291,56.312983429312,2.624672,0,0.63308072892,0,0,-4.47388,287.7, -0.6, -0.3,0,0,1024,1024,1684,1024,0,0,100,0,290.6,0,0,100,4.334,4.331,4.332,4.329,0,0,4.021,78.98,56.312983429312,2.624672,11,AutoTakeoff,
3400,2023-06-10 18:24:53,52.2063838321226,0.0867022310557165,4.265092,4.265092,53.688311429312,57.953403429312,4.593176,0,0.67087600572,0.69087600636,23,5,17.11,57.953403429312,4.265092,0,0.67087600572,0,0,-6.487126,287.7, -0.6, 0.1,0,0,1024,1024,1684,1024,0,0,100,0,290.6,0,0,100,4.276,4.275,4.274,4.271,0,0,5.27,78.8,57.953403429312,4.265092,6,P-GPS,
3600,2023-06-10 18:24:53,52.206383845637,0.0867022153261269,7.217848,7.217848,53.688311429312,60.906159429312,6.889764,0,0.67400264624,0.696932437,23,5,17.11,60.906159429312,7.217848,0,0.67400264624,0,0,-8.724066,287.5, 0.1, 0.7,0,0,1024,1024,1684,1024,0,0,100,0,290.6,0,0,100,4.276,4.275,4.274,4.271,0,0,5.27,78.8,60.906159429312,7.217848,6,P-GPS,
3800,2023-06-10 18:24:53,52.2063838141771,0.0867022390869551,11.154856,11.154856,53.688311429312,64.843167429312,9.84252,0,0.66561353836,0.7095800752,23,5,17.11,64.843167429312,11.154856,0,0.67400264624,0,0,-10.961006,287.2, 0.3, 0.9,0,0,1024,1024,1684,1024,0,0,100,0,290.6,0,0,100,4.276,4.275,4.274,4.271,0,0,5.27,78.8,64.843167429312,11.154856,6,P-GPS,"Home Point updated (Code: 3000001)"
4000,2023-06-10 18:24:53,52.206383800273,0.086702150849051,15.748032,15.748032,53.688311429312,69.436343429312,13.451444,0,0.6531496272,0.72995081076,23,5,17.11,69.436343429312,15.748032,0,0.67400264624,0,0,-12.750558,287.2, 1.4, 0.7,0,0,1024,1024,1024,1024,0,0,0,0,290.6,0,0,100,4.276,4.275,4.274,4.271,0,0,5.27,78.8,69.436343429312,15.748032,6,P-GPS,
4200,2023-06-10 18:24:53,52.2063838382608,0.0867020830317418,20.013124,20.013124,53.688311429312,73.701435429312,17.388452,0,0.6604002836,0.75049543084,23,5,17.11,73.701435429312,20.013124,0,0.67400264624,0,0,-13.42164,287.1, 2, 0.7,0,0,1024,1024,1024,1024,0,0,0,0,290.6,0,0,100,4.276,4.275,4.274,4.271,0,0,5.27,78.8,73.701435429312,20.013124,6,P-GPS,
4400,2023-06-10 18:24:54,52.20638394862,0.0867020795176381,23.293964,23.293964,53.688311429312,76.982275429312,21.32546,0,0.69789372312,0.79076774184,23,5,16.808,76.982275429312,23.293964,0,0.69789372312,0,0,-12.30317,287.3, 1, 0.7,0,0,1024,1024,1024,1024,0,0,0,0,290.6,0,0,100,4.184,4.186,4.184,4.177,0,0,10.56,78.62,76.982275429312,23.293964,6,P-GPS,
4600,2023-06-10 18:24:54,52.2063841014604,0.0867019414933942,26.574804,26.574804,53.688311429312,80.263115429312,24.6063,0.223694,0.74154858016,0.85450133968,23,5,16.808,80.263115429312,26.574804,0.223694,0.74154858016,0,-0.223694,-10.289924,287.2, 2.2, 1.6,0,0,1684,1024,1024,1024,100,0,0,0,290.6,0,0,100,4.184,4.186,4.184,4.177,0,0,10.56,78.62,80.263115429312,26.574804,6,P-GPS,
4800,2023-06-10 18:24:54,52.2063842276147,0.0867015270633107,28.871392,28.871392,53.688311429312,82.559703429312,27.559056,0.223694,0.76706367284,0.95796262908,23,5,16.808,82.559703429312,28.871392,0.223694,0.76706367284,0,-0.223694,-8.052984,287.3, 2.5, 1.3,0,0,1684,1024,1024,1024,100,0,0,0,290.6,0,0,100,4.184,4.186,4.184,4.177,0,0,10.56,78.62,82.559703429312,28.871392,6,P-GPS,
5000,2023-06-10 18:24:54,52.2063843885252,0.0867007491987128,30.511812,30.511812,53.688311429312,84.200123429312,29.52756,0.671082,0.8199967454,1.14152562708,23,5,16.808,84.200123429312,30.511812,0.671082,0.8199967454,0,-0.671082,-5.816044,288.4, -18.5, 1.8,0,0,1684,1024,1024,1024,100,0,0,0,290.6,0,0,100,4.184,4.186,4.184,4.177,0,0,10.56,78.62,84.200123429312,30.511812,6,P-GPS,
5200,2023-06-10 18:24:55,52.2063847771916,0.086698720672285,31.496064,31.496064,53.688311429312,85.184375429312,31.16798,2.0579848,1.08935699024,1.61672905436,23,5,16.808,85.184375429312,31.496064,2.0579848,1.08935699024,0.447388,-2.013246,-3.579104,288.7, -30.4, 2.4,0,0,1684,1024,1024,1024,100,0,0,0,290.6,0,0,100,4.184,4.186,4.184,4.177,0,0,10.56,78.62,85.184375429312,31.496064,6,P-GPS,
5400,2023-06-10 18:24:55,52.2063855051317,0.0866950282714733,31.496064,31.496064,53.688311429312,85.184375429312,31.824148,3.4225182,1.81667984816,2.48396661492,23,5,16.879,85.184375429312,31.496064,3.4225182,1.81667984816,0.671082,-3.35541,-1.11847,289, -30.5, 1.9,0,0,1684,1024,1024,1024,100,0,0,0,290.6,0,0,100,4.259,4.267,4.271,4.272,0,0,13.22,78.98,85.184375429312,31.496064,6,P-GPS,
5600,2023-06-10 18:24:55,52.206386904903,0.086689492722489,31.824148,31.824148,53.688311429312,85.512459429312,31.824148,5.2344396,3.10885180552,3.8228675764,23,5,16.879,85.512459429312,31.824148,5.2344396,3.10885180552,1.789552,-4.921268,0,292.9, -31.1, 2.5,0,0,1684,1024,1024,1024,100,0,0,0,290.6,0,0,100,4.259,4.267,4.271,4.272,0,0,13.22,78.98,85.512459429312,31.824148,6,P-GPS,
5800,2023-06-10 18:24:55,52.206388762887,0.0866808551899564,31.496064,31.496064,53.688311429312,85.184375429312,25.918636,7.8516594,5.1156169616,5.8696196104,23,5,16.879,85.512459429312,31.824148,7.8516594,5.1156169616,2.684328,-7.381902,0,292.2, -26.7, 3.9,0,0,1684,1024,1024,1024,100,0,0,0,290.6,0,0,100,4.259,4.267,4.271,4.272,0,0,13.22,78.98,85.184375429312,31.496064,6,P-GPS,
6000,2023-06-10 18:24:55,52.2063910831102,0.0866694761673375,31.496064,31.4632556,53.721119829312,85.184375429312,32.480316,9.6859502,7.77148975,8.5509517172,24,5,16.879,85.512459429312,31.824148,9.6859502,7.77148975,3.131716,-9.171454,0,289.8, -17.8, 5.5,0,0,1684,1024,1024,1024,100,0,0,0,290.6,0,0,100,4.259,4.267,4.271,4.272,0,0,13.22,78.98,85.184375429312,31.496064,6,P-GPS,
6200,2023-06-10 18:24:55,52.2063936819576,0.086656191576099,31.496064,31.4304472,53.753928229312,85.184375429312,32.8084,11.1847,10.872375676,11.6688980112,24,5,16.879,85.512459429312,31.824148,11.1847,10.872375676,3.131716,-10.737312,0,286.7, -20.8, 4.7,0,0,1156,1024,1024,1024,20,0,0,0,290.6,0,0,100,4.259,4.267,4.271,4.272,0,0,13.22,78.98,85.184375429312,31.496064,6,P-GPS,
6400,2023-06-10 18:24:56,52.2063966551368,0.0866409699570615,31.496064,31.3976388,53.786736629312,85.184375429312,32.8084,12.750558,14.4337931128,15.2409453696,24,5,17.198,85.512459429312,31.824148,12.750558,14.4337931128,3.35541,-12.30317,0,285.2, -18.7, 3.6,0,0,1024,1024,1024,1024,0,0,0,0,290.6,0,0,100,4.286,4.269,4.264,4.255,0,0,4.2,78.98,85.184375429312,31.496064,6,P-GPS,
6600,2023-06-10 18:24:56,52.2063997302731,0.0866245977215566,31.496064,31.3648304,53.819545029312,85.184375429312,32.480316,13.4663788,18.2532486156,19.0696200328,24,5,17.198,85.512459429312,31.824148,13.4663788,18.2532486156,3.579104,-12.974252,0,284.8, 9.1, 0.7,0,0,1024,1024,1024,1024,0,0,0,0,290.6,0,0,100,4.286,4.269,4.264,4.255,0,0,4.2,78.98,85.184375429312,31.496064,6,P-GPS,
6800,2023-06-10 18:24:56,52.2064027010557,0.086608056438615,31.496064,31.332022,53.852353429312,85.184375429312,32.480316,11.7663044,22.0985243292,22.9235899724,24,5,17.198,85.512459429312,31.824148,13.4663788,22.0985243292,2.908022,-11.408394,0,285.2, 28.9, 1.2,0,0,1024,1024,1024,1024,0,0,0,0,290.6,0,0,100,4.286,4.269,4.264,4.255,0,0,4.2,78.98,85.184375429312,31.496064,6,P-GPS,
7000,2023-06-10 18:24:56,52.2064049259161,0.0865947261203419,31.496064,31.2992136,53.885161829312,85.184375429312,32.152232,9.4398868,25.17880658,26.012632066,24,5,17.198,85.512459429312,31.824148,13.4663788,25.17880658,2.23694,-9.171454,0,285.8, 26.9, 2.4,0,0,1024,1024,1024,1024,0,0,0,0,290.6,0,0,100,4.286,4.269,4.264,4.255,0,0,4.2,78.98,85.184375429312,31.496064,6,P-GPS,
7200,2023-06-10 18:24:56,52.2064065817914,0.0865843512489331,31.496064,31.2664052,53.917970229312,85.184375429312,32.152232,7.1134692,27.5686032444,28.4097121952,24,5,17.198,85.512459429312,31.824148,13.4663788,27.5686032444,1.565858,-6.934514,0,286.2, 27.9, 3.8,0,0,1024,1024,1024,1024,0,0,0,0,290.6,0,0,100,4.286,4.269,4.264,4.255,0,0,4.2,78.98,85.184375429312,31.496064,6,P-GPS,
7400,2023-06-10 18:24:57,52.2064076870489,0.0865767483990079,31.496064,31.2664052,53.917970229312,85.184375429312,27.88714,5.0554844,29.3080389956,30.1567594952,24,5,16.982,85.512459429312,31.824148,13.4663788,29.3080389956,1.11847,-4.921268,0,286.4, 28.8, 4.5,0,0,1024,1024,1024,1024,0,0,0,0,290.6,0,0,99,4.252,4.256,4.261,4.237,0,0,8.25,78.98,85.184375429312,31.496064,6,P-GPS,
7600,2023-06-10 18:24:57,52.2064083382509,0.0865720534375943,31.496064,31.2664052,53.917970229312,85.184375429312,31.16798,2.7738056,30.3790364052,31.2330390572,24,5,16.982,85.512459429312,31.824148,13.4663788,30.3790364052,0.671082,-2.684328,0,286.1, 26.5, 5.3,0,0,1024,1024,1024,1024,0,0,0,0,290.6,0,0,99,4.252,4.256,4.261,4.237,0,0,8.25,78.98,85.184375429312,31.496064,6,P-GPS,
7800,2023-06-10 18:24:57,52.2064087054678,0.0865695877564873,31.496064,31.2664052,53.917970229312,85.184375429312,31.16798,1.4092722,30.9445219876,31.8003947184,24,5,16.982,85.512459429312,31.824148,13.4663788,30.9445219876,0.447388,-1.342164,0,285, 16.6, 4.6,0,0,1024,1024,1024,1024,0,0,0,0,290.6,0,0,99,4.252,4.256,4.261,4.237,0,0,8.25,78.98,85.184375429312,31.496064,6,P-GPS,
8000,2023-06-10 18:24:57,52.2064089818111,0.0865684960532438,31.496064,31.2664052,53.917970229312,85.184375429312,31.496064,0.8052984,31.2079078228,32.06446953,24,5,16.982,85.512459429312,31.824148,13.4663788,31.2079078228,0.447388,-0.671082,0,284.1, 11, 2.7,0,0,1024,1024,1024,1024,0,0,0,0,290.6,0,0,99,4.252,4.256,4.261,4.237,0,0,8.25,78.98,85.184375429312,31.496064,6,P-GPS,
8200,2023-06-10 18:24:57,52.2064091875373,0.0865678881395095,31.496064,31.2664052,53.917970229312,85.184375429312,31.496064,0.3131716,31.3605324996,32.2197516872,24,5,16.982,85.512459429312,31.824148,13.4663788,31.3605324996,0.223694,-0.223694,0,285, 8.6, 1.7,0,0,1024,1024,1024,1024,0,0,0,0,290.6,0,0,99,4.252,4.256,4.261,4.237,0,0,8.25,78.98,85.184375429312,31.496064,6,P-GPS,
8400,2023-06-10 18:24:58,52.2064093155485,0.0865675672534345,31.496064,31.2664052,53.917970229312,85.184375429312,31.16798,0.3131716,31.4433409012,32.3053488028,24,5,16.943,85.512459429312,31.824148,13.4663788,31.4433409012,0.223694,-0.223694,0,285, 7.6, 1.6,0,0,1024,1024,1024,1024,0,0,0,0,290.6,0,0,99,4.24,4.24,4.241,4.24,0,0,8.149,78.98,85.184375429312,31.496064,6,P-GPS,
8600,2023-06-10 18:24:58,52.2064093873351,0.0865673562883846,31.496064,31.2664052,53.917970229312,85.184375429312,31.16798,0.223694,31.4963592756,32.3593186208,24,5,16.943,85.512459429312,31.824148,13.4663788,31.4963592756,0,-0.223694,0,285.1, 7.3, 2.3,0,0,1024,1024,1024,1024,0,0,0,0,290.6,0,0,99,4.24,4.24,4.241,4.24,0,0,8.149,78.98,85.184375429312,31.496064,6,P-GPS,
8800,2023-06-10 18:24:58,52.2064094138454,0.086567224489399,31.824148,31.5944892,53.917970229312,85.512459429312,31.16798,0,31.5273632136,32.3903225588,24,5,16.943,85.512459429312,31.824148,13.4663788,31.5273632136,0,0,0,285.1, 7.7, 2.4,0,0,1024,1024,1024,1024,0,0,0,0,290.6,0,0,99,4.24,4.24,4.241,4.24,0,0,8.149,78.98,85.512459429312,31.824148,6,P-GPS,
9000,2023-06-10 18:24:58,52.2064094491412,0.0865672568240462,31.824148,31.5944892,53.917970229312,85.512459429312,31.496064,0,31.5245744996,32.4050863388,24,5,16.943,85.512459429312,31.824148,13.4663788,31.5273632136,0,0,0,285.2, 7.3, 2.7,0,0,1024,1024,1024,1024,0,0,0,0,290.6,0,0,99,4.24,4.24,4.241,4.24,0,0,8.149,78.98,85.512459429312,31.824148,6,P-GPS,
9200,2023-06-10 18:24:58,52.2064094897141,0.0865673944664743,31.824148,31.5944892,53.917970229312,85.512459429312,31.496064,0,31.5000666248,32.4392398832,24,5,16.943,85.512459429312,31.824148,13.4663788,31.5273632136,0,0,0,285.2, 6.8, 2.6,0,0,1024,1024,1024,1024,0,0,0,0,290.6,0,0,99,4.24,4.24,4.241,4.24,0,0,8.149,78.98,85.512459429312,31.824148,6,P-GPS,
9400,2023-06-10 18:24:59,52.2064095052674,0.0865676673468517,31.824148,31.5616808,53.950778629312,85.512459429312,31.824148,0,31.4439970692,32.5005259744,24,5,17.027,85.512459429312,31.824148,13.4663788,31.5273632136,0,0,0,285.2, 5.8, 3,0,0,1024,1024,1024,1024,0,0,0,0,290.6,0,0,99,4.255,4.256,4.256,4.253,0,0,7.589,79.16,85.512459429312,31.824148,6,P-GPS,
9600,2023-06-10 18:24:59,52.2064095604341,0.086568012780977,31.496064,31.2335968,53.950778629312,85.184375429312,31.496064,0,31.3771991668,32.5803488116,24,5,17.027,85.512459429312,31.824148,13.4663788,31.5273632136,0,0,0,285.3, 5.1, 2.9,0,0,1024,1024,1024,1024,0,0,0,0,290.6,0,0,99,4.255,4.256,4.256,4.253,0,0,7.589,79.16,85.184375429312,31.496064,6,P-GPS,
9800,2023-06-10 18:24:59,52.2064096554713,0.0865683878097621,31.496064,31.2335968,53.950778629312,85.184375429312,31.496064,0,31.3088264612,32.6710640376,24,5,17.027,85.512459429312,31.824148,13.4663788,31.5273632136,0,0,0,285.3, 4.7, 2.5,0,0,1024,1024,1024,1024,0,0,0,0,290.6,0,0,99,4.255,4.256,4.256,4.253,0,0,7.589,79.16,85.184375429312,31.496064,6,P-GPS,
10000,2023-06-10 18:24:59,52.2064097959003,0.0865686965336481,31.496064,31.2335968,53.950778629312,85.184375429312,31.496064,0,31.2599419452,32.7570220456,24,5,17.027,85.512459429312,31.824148,13.4663788,31.5273632136,0,0,0,285.3, 5, 1.6,0,0,1024,1024,1024,1024,0,0,0,0,290.6,0,0,99,4.255,4.256,4.256,4.253,0,0,7.589,79.16,85.184375429312,31.496064,6,P-GPS,
10200,2023-06-10 18:24:59,52.2064099347145,0.0865689631791562,31.496064,31.2335968,53.950778629312,85.184375429312,31.496064,0,31.2199156972,32.835302888,24,5,17.027,85.512459429312,31.824148,13.4663788,31.5273632136,0,0,0,285.1, 5.3, 1.6,0,0,1024,1024,1024,1024,0,0,0,0,290.6,0,0,99,4.255,4.256,4.256,4.253,0,0,7.589,79.16,85.184375429312,31.496064,6,P-GPS,
10400,2023-06-10 18:25:00,52.2064100138943,0.0865691526436929,31.496064,31.2335968,53.950778629312,85.184375429312,31.496064,0,31.1892726516,32.886483992,24,5,17.023,85.512459429312,31.824148,13.4663788,31.5273632136,0,0,0,285.1, 5.7, 2.1,0,0,1024,1024,1024,1024,0,0,0,0,290.6,0,0,99,4.255,4.255,4.256,4.253,0,0,6.906,79.34,85.184375429312,31.496064,6,P-GPS,
10600,2023-06-10 18:25:00,52.2064100809091,0.086569301469743,31.496064,31.2335968,53.950778629312,85.184375429312,31.496064,0,31.1657818372,32.927822576,24,5,17.023,85.512459429312,31.824148,13.4663788,31.5273632136,0,0,0,285.1, 5.7, 2.7,0,0,1024,1024,1024,1024,0,0,0,0,290.6,0,0,99,4.255,4.255,4.256,4.253,0,0,6.906,79.34,85.184375429312,31.496064,6,P-GPS,
10800,2023-06-10 18:25:00,52.2064101503183,0.0865693972994042,31.496064,31.2335968,53.950778629312,85.184375429312,31.496064,0,31.1538395796,32.96095906,24,5,17.023,85.512459429312,31.824148,13.4663788,31.5273632136,0,0,0,285.3, 6, 3.2,0,0,1024,1024,1024,1024,0,0,0,0,290.6,0,0,99,4.255,4.255,4.256,4.253,0,0,6.906,79.34,85.184375429312,31.496064,6,P-GPS,
11000,2023-06-10 18:25:00,52.2064101972522,0.0865694805614702,31.496064,31.2335968,53.950778629312,85.184375429312,31.824148,0,31.1418645136,32.986221528,24,5,17.023,85.512459429312,31.824148,13.4663788,31.5273632136,0,0,0,285.4, 6.6, 3.5,0,0,1024,1024,1024,1024,0,0,0,0,290.6,0,0,99,4.255,4.255,4.256,4.253,0,0,6.906,79.34,85.184375429312,31.496064,6,P-GPS,
11200,2023-06-10 18:25:00,52.2064102723456,0.0865695582037661,31.824148,31.5616808,53.950778629312,85.512459429312,31.496064,0,31.134515432,33.018701844,24,5,17.023,85.512459429312,31.824148,13.4663788,31.5273632136,0,0,0,285.4, 6.4, 3.5,0,0,1024,1024,1024,1024,0,0,0,0,290.6,0,0,99,4.255,4.255,4.256,4.253,0,0,6.906,79.34,85.512459429312,31.824148,6,P-GPS,
11400,2023-06-10 18:25:01,52.2064103787382,0.0865696777566855,31.824148,31.5616808,53.950778629312,85.512459429312,31.496064,0,31.1220810484,33.06594594,24,5,17.013,85.512459429312,31.824148,13.4663788,31.5273632136,0,0,0,285.3, 6, 3.4,0,0,1024,1024,1024,1024,0,0,0,0,290.6,0,0,99,4.248,4.25,4.25,4.249,0,0,6.867,79.34,85.512459429312,31.824148,6,P-GPS,
11600,2023-06-10 18:25:01,52.206410492477,0.0865697908370837,31.824148,31.5616808,53.950778629312,85.512459429312,31.496064,0,31.1120088696,33.114502372,24,5,17.013,85.512459429312,31.824148,13.4663788,31.5273632136,0,0,0,285.4, 6.2, 3.2,0,0,1024,1024,1024,1024,0,0,0,0,290.6,0,0,99,4.248,4.25,4.25,4.249,0,0,6.867,79.34,85.512459429312,31.824148,6,P-GPS,
11800,2023-06-10 18:25:01,52.2064106313811,0.0865698990665859,31.824148,31.5616808,53.950778629312,85.512459429312,31.496064,0,31.1060705492,33.170604736,24,5,17.013,85.512459429312,31.824148,13.4663788,31.5273632136,0,0,0,285.6, 6.3, 2.7,0,0,1024,1024,1024,1024,0,0,0,0,290.6,0,0,99,4.248,4.25,4.25,4.249,0,0,6.867,79.34,85.512459429312,31.824148,6,P-GPS,
12000,2023-06-10 18:25:01,52.2064107431966,0.0865699949242062,31.824148,31.5616808,53.950778629312,85.512459429312,31.496064,0,31.0995416776,33.216536496,24,5,17.013,85.512459429312,31.824148,13.4663788,31.5273632136,0,0,0,285.3, 6.1, 3.1,0,0,1024,1024,1024,1024,0,0,0,0,290.6,0,0,99,4.248,4.25,4.25,4.249,0,0,6.867,79.34,85.512459429312,31.824148,6,P-GPS,
12200,2023-06-10 18:25:01,52.2064108560616,0.0865700036614109,31.824148,31.5616808,53.950778629312,85.512459429312,31.824148,0,31.111549552,33.25787508,24,5,17.013,85.512459429312,31.824148,13.4663788,31.5273632136,0,0,0,285.4, 6.6, 3.2,0,0,1024,1024,1024,1024,0,0,0,0,290.6,0,0,99,4.248,4.25,4.25,4.249,0,0,6.867,79.34,85.512459429312,31.824148,6,P-GPS,
12400,2023-06-10 18:25:02,52.2064109750005,0.0865700142019746,31.824148,31.5616808,53.950778629312,85.512459429312,31.496064,0,31.1239511272,33.301510252,24,5,16.997,85.512459429312,31.824148,13.4663788,31.5273632136,0,0,0,285.4, 6.7, 3.1,0,0,1024,1024,1024,1024,0,0,0,0,290.6,0,0,99,4.249,4.25,4.249,4.248,0,0,7.127,79.52,85.512459429312,31.824148,6,P-GPS,
12600,2023-06-10 18:25:02,52.2064111018595,0.0865700585310564,31.824148,31.5616808,53.950778629312,85.512459429312,31.496064,0,31.1303159568,33.348754348,24,5,16.997,85.512459429312,31.824148,13.4663788,31.5273632136,0,0,0,285.2, 6.5, 3.1,0,0,1024,1024,1024,1024,0,0,0,0,290.6,-1.3,0,99,4.249,4.25,4.249,4.248,0,0,7.127,79.52,85.512459429312,31.824148,6,P-GPS,
12800,2023-06-10 18:25:02,52.2064112293825,0.086570091830291,31.824148,31.5616808,53.950778629312,85.512459429312,31.824148,0,31.1391414164,33.39567036,24,5,16.997,85.512459429312,31.824148,13.4663788,31.5273632136,0,0,0,285.3, 7.1, 2.5,0,0,1024,1024,1024,1024,0,0,0,0,290.6,-3.8,0,99,4.249,4.25,4.249,4.248,0,0,7.127,79.52,85.512459429312,31.824148,6,P-GPS,
13000,2023-06-10 18:25:02,52.206411372236,0.0865701232422894,31.824148,31.5616808,53.950778629312,85.512459429312,31.824148,0,31.1503290808,33.448491884,24,5,16.997,85.512459429312,31.824148,13.4663788,31.5273632136,0,0,0,285.2, 7.2, 1.8,0,0,1024,1024,1024,1024,0,0,0,0,290.6,-6.7,0,99,4.249,4.25,4.249,4.248,0,0,7.127,79.52,85.512459429312,31.824148,6,P-GPS,
13200,2023-06-10 18:25:02,52.2064114857606,0.086570183494053,32.152232,31.8897648,53.950778629312,85.840543429312,31.496064,0,31.1518710756,33.492127056,24,5,16.997,85.840543429312,32.152232,13.4663788,31.5273632136,0,0,0,285.3, 7, 1.6,0,0,1024,1024,1024,1024,0,0,0,0,290.6,-9.6,0,99,4.249,4.25,4.249,4.248,0,0,7.127,79.52,85.840543429312,32.152232,6,P-GPS,
13400,2023-06-10 18:25:03,52.2064115785789,0.0865702800925883,32.152232,31.8897648,53.950778629312,85.840543429312,31.824148,0,31.1432424664,33.532153304,24,5,16.987,85.840543429312,32.152232,13.4663788,31.5273632136,0,0,0,285.3, 6.8, 1.6,0,0,1024,1024,1024,1024,0,0,0,0,290.6,-12.5,0,99,4.247,4.249,4.25,4.245,0,0,7.203,79.52,85.840543429312,32.152232,6,P-GPS,
13600,2023-06-10 18:25:03,52.2064116155923,0.0865703512064449,32.152232,31.8897648,53.950778629312,85.840543429312,31.824148,0,31.1330062456,33.55315068,24,5,16.987,85.840543429312,32.152232,13.4663788,31.5273632136,0,0,0,285.4, 6.7, 1.8,0,0,1024,1024,1024,1024,0,0,0,0,290.6,-15.3,0,99,4.247,4.249,4.25,4.245,0,0,7.203,79.52,85.840543429312,32.152232,6,P-GPS,
13800,2023-06-10 18:25:03,52.2064116086745,0.086570410703314,32.152232,31.8897648,53.950778629312,85.840543429312,31.496064,0,31.1196204184,33.566602124,24,5,16.987,85.840543429312,32.152232,13.4663788,31.5273632136,0,0,0,285.2, 6.7, 2.3,0,0,1024,1024,1024,1024,0,0,0,0,290.6,-17,0,99,4.247,4.249,4.25,4.245,0,0,7.203,79.52,85.840543429312,32.152232,6,P-GPS,
14000,2023-06-10 18:25:03,52.2064116082847,0.0865704640631706,32.152232,31.8897648,53.950778629312,85.840543429312,31.496064,0,31.1083999456,33.578413148,24,5,16.987,85.840543429312,32.152232,13.4663788,31.5273632136,0,0,0,285.5, 6.9, 2.3,0,0,1024,1024,1024,1024,0,0,0,0,290.6,-18.8,0,99,4.247,4.249,4.25,4.245,0,0,7.203,79.52,85.840543429312,32.152232,6,P-GPS,
14200,2023-06-10 18:25:03,52.2064116077579,0.0865705557828507,32.152232,31.8897648,53.950778629312,85.840543429312,31.496064,0,31.089075798,33.59908244,24,5,16.987,85.840543429312,32.152232,13.4663788,31.5273632136,0,0,0,285.2, 6.4, 2.6,0,0,1024,1024,1024,1024,0,0,0,0,290.6,-21.4,0,99,4.247,4.249,4.25,4.245,0,0,7.203,79.52,85.840543429312,32.152232,6,P-GPS,
14400,2023-06-10 18:25:04,52.2064115919604,0.0865706791801403,32.152232,31.8897648,53.950778629312,85.840543429312,31.824148,0,31.061188658,33.627297664,24,5,16.99,85.840543429312,32.152232,13.4663788,31.5273632136,0,0,0,285.3, 6, 2.7,0,0,1024,1024,1024,1024,0,0,0,0,290.6,-24.3,0,99,4.247,4.249,4.249,4.247,0,0,7.12,79.52,85.840543429312,32.152232,6,P-GPS,
14600,2023-06-10 18:25:04,52.2064115699434,0.086570829082614,32.152232,31.8897648,53.950778629312,85.840543429312,31.496064,0,31.0269694968,33.661746484,24,5,16.99,85.840543429312,32.152232,13.4663788,31.5273632136,0,0,0,285.2, 5.5, 3,0,0,1024,1024,1024,1024,0,0,0,0,290.6,-27.2,0,99,4.247,4.249,4.249,4.247,0,0,7.12,79.52,85.840543429312,32.152232,6,P-GPS,
14800,2023-06-10 18:25:04,52.2064115868503,0.0865708947304753,32.152232,31.8897648,53.950778629312,85.840543429312,31.496064,0,31.0153225148,33.677494516,24,5,16.99,85.840543429312,32.152232,13.4663788,31.5273632136,0,0,0,285.4, 6.1, 2.7,0,0,1024,1024,1024,1024,0,0,0,0,290.6,-30.1,0,99,4.247,4.249,4.249,4.247,0,0,7.12,79.52,85.840543429312,32.152232,6,P-GPS,
15000,2023-06-10 18:25:04,52.2064115888935,0.0865708981834186,32.152232,31.8897648,53.950778629312,85.840543429312,31.824148,0,31.0148631972,33.678478768,24,5,16.99,85.840543429312,32.152232,13.4663788,31.5273632136,0,0,0,285.3, 6.4, 2.7,0,0,1024,1024,1024,1024,0,0,0,0,290.6,-33,0,99,4.247,4.249,4.249,4.247,0,0,7.12,79.52,85.840543429312,32.152232,6,P-GPS,
15200,2023-06-10 18:25:04,52.2064115766556,0.0865709252897225,32.152232,31.8897648,53.950778629312,85.840543429312,31.824148,0,31.0076453492,33.6860247,24,5,16.99,85.840543429312,32.152232,13.4663788,31.5273632136,0,0,0,285.3, 6.3, 2.8,0,0,1024,1024,1024,1024,0,0,0,0,290.6,-36,0,99,4.247,4.249,4.249,4.247,0,0,7.12,79.52,85.840543429312,32.152232,6,P-GPS,
15400,2023-06-10 18:25:05,52.2064115287323,0.0865709635656688,32.152232,31.8897648,53.950778629312,85.840543429312,31.824148,0,30.9935705456,33.70570974,24,5,16.98,85.840543429312,32.152232,13.4663788,31.5273632136,0,0,0,285.4, 5.7, 3.3,0,0,1024,1024,1024,1024,0,0,0,0,290.6,-38.9,0,99,4.242,4.243,4.245,4.241,0,0,7.083,79.52,85.840543429312,32.152232,6,P-GPS,
15600,2023-06-10 18:25:05,52.2064114859662,0.086571007852812,32.152232,31.8897648,53.950778629312,85.840543429312,31.824148,0,30.9788723824,33.724082444,24,5,16.98,85.840543429312,32.152232,13.4663788,31.5273632136,0,0,0,285.2, 5.5, 3.9,0,0,1024,1024,1024,1024,0,0,0,0,290.6,-41.3,0,99,4.242,4.243,4.245,4.241,0,0,7.083,79.52,85.840543429312,32.152232,6,P-GPS,
15800,2023-06-10 18:25:05,52.2064114508846,0.0865710355043175,32.152232,31.8897648,53.950778629312,85.840543429312,31.496064,0,30.9686361616,33.738190056,24,5,16.98,85.840543429312,32.152232,13.4663788,31.5273632136,0,0,0,285.3, 5.4, 4,0,0,1024,1024,1024,1024,0,0,0,0,290.6,-42.3,0,99,4.242,4.243,4.245,4.241,0,0,7.083,79.52,85.840543429312,32.152232,6,P-GPS,
16000,2023-06-10 18:25:05,52.206411492734,0.0865709913290105,32.152232,31.8897648,53.950778629312,85.840543429312,31.496064,0,30.9832030912,33.75656276,24,5,16.98,85.840543429312,32.152232,13.4663788,31.5273632136,0,0,0,285.3, 5.9, 3.4,0,0,1024,1024,1024,1024,0,0,0,0,290.6,-42.4,0,99,4.242,4.243,4.245,4.241,0,0,7.083,79.52,85.840543429312,32.152232,6,P-GPS,
16200,2023-06-10 18:25:05,52.2064115382287,0.0865709030343146,32.152232,31.8897648,53.950778629312,85.840543429312,31.496064,0,31.0074484988,33.782153312,24,5,16.98,85.840543429312,32.152232,13.4663788,31.5273632136,0,0,0,285.3, 6.5, 3.3,0,0,1024,1024,1024,1024,0,0,0,0,290.6,-42.4,0,99,4.242,4.243,4.245,4.241,0,0,7.083,79.52,85.840543429312,32.152232,6,P-GPS,
16400,2023-06-10 18:25:06,52.2064115816673,0.0865708138868675,32.152232,31.8897648,53.950778629312,85.840543429312,31.496064,0,31.0316282896,33.807743864,24,5,16.963,85.840543429312,32.152232,13.4663788,31.5273632136,0,0,0,285.3, 6.8, 3.2,0,0,1024,1024,1024,1024,0,0,0,0,290.6,-42.4,0,99,4.242,4.244,4.242,4.24,0,0,7.309,79.7,85.840543429312,32.152232,6,P-GPS,
16600,2023-06-10 18:25:06,52.2064116315097,0.0865707926100266,32.152232,31.8897648,53.950778629312,85.840543429312,31.496064,0,31.0423894448,33.826444652,24,5,16.963,85.840543429312,32.152232,13.4663788,31.5273632136,0,0,0,285.4, 6.5, 3.2,0,0,1024,1024,1024,1024,0,0,0,0,290.6,-42.4,0,99,4.242,4.244,4.242,4.24,0,0,7.309,79.7,85.840543429312,32.152232,6,P-GPS,
16800,2023-06-10 18:25:06,52.2064116509823,0.0865708177172581,32.480316,32.2178488,53.950778629312,86.168627429312,31.496064,0,31.0396007308,33.835631004,24,5,16.963,86.168627429312,32.480316,13.4663788,31.5273632136,0,0,0,285.3, 6.2, 3.5,0,0,1024,1024,1024,1024,0,0,0,0,290.6,-43.6,0,99,4.242,4.244,4.242,4.24,0,0,7.309,79.7,86.168627429312,32.480316,6,P-GPS,
17000,2023-06-10 18:25:06,52.2064117008503,0.0865708551544328,32.480316,32.2178488,53.950778629312,86.168627429312,31.16798,0,31.038058736,33.855644128,24,5,16.963,86.168627429312,32.480316,13.4663788,31.5273632136,0,0,0,285.4, 5.8, 3.2,0,0,1024,1024,1024,1024,0,0,0,0,290.6,-46,0,99,4.242,4.244,4.242,4.24,0,0,7.309,79.7,86.168627429312,32.480316,6,P-GPS,
17200,2023-06-10 18:25:06,52.2064117429654,0.086570909297143,32.480316,32.2178488,53.950778629312,86.168627429312,31.496064,0,31.0320547988,33.875329168,24,5,16.963,86.168627429312,32.480316,13.4663788,31.5273632136,0,0,0,285.1, 5.5, 3,0,0,1024,1024,1024,1024,0,0,0,0,290.6,-48.8,0,99,4.242,4.244,4.242,4.24,0,0,7.309,79.7,86.168627429312,32.480316,6,P-GPS,
17400,2023-06-10 18:25:07,52.2064118064463,0.0865709567436594,32.480316,32.2178488,53.950778629312,86.168627429312,31.496064,0,31.03018472,33.900591636,24,5,16.965,86.168627429312,32.480316,13.4663788,31.5273632136,0,0,0,285.2, 5.8, 3,0,0,1024,1024,1024,1024,0,0,0,0,290.6,-51.7,0,99,4.24,4.241,4.241,4.238,0,0,7.21,79.7,86.168627429312,32.480316,6,P-GPS,
17600,2023-06-10 18:25:07,52.2064118543825,0.0865709521164358,32.480316,32.2178488,53.950778629312,86.168627429312,31.496064,0,31.037238526,33.918308172,24,5,16.965,86.168627429312,32.480316,13.4663788,31.5273632136,0,0,0,285.4, 5.7, 2.6,0,0,1024,1024,1024,1024,0,0,0,0,290.6,-54.7,0,99,4.24,4.241,4.241,4.238,0,0,7.21,79.7,86.168627429312,32.480316,6,P-GPS,
17800,2023-06-10 18:25:07,52.2064118742064,0.0865709525637807,32.480316,32.2178488,53.950778629312,86.168627429312,31.496064,0,31.039699156,33.92552602,24,5,16.965,86.168627429312,32.480316,13.4663788,31.5273632136,0,0,0,285.2, 5.7, 3,0,0,1024,1024,1024,1024,0,0,0,0,290.6,-57.6,0,99,4.24,4.241,4.241,4.238,0,0,7.21,79.7,86.168627429312,32.480316,6,P-GPS,
18000,2023-06-10 18:25:07,52.2064118889201,0.0865709111564201,32.480316,32.2178488,53.950778629312,86.168627429312,31.496064,0,31.0502306524,33.936024708,24,5,16.965,86.168627429312,32.480316,13.4663788,31.5273632136,0,0,0,285.2, 5.6, 3.3,0,0,1024,1024,1024,1024,0,0,0,0,290.6,-60.5,0,99,4.24,4.241,4.241,4.238,0,0,7.21,79.7,86.168627429312,32.480316,6,P-GPS,
18200,2023-06-10 18:25:07,52.2064118961548,0.0865708309838297,32.480316,32.2178488,53.950778629312,86.168627429312,31.496064,0,31.0679471884,33.954397412,24,5,16.965,86.168627429312,32.480316,13.4663788,31.5273632136,0,0,0,285.3, 6, 3.4,0,0,1024,1024,1024,1024,0,0,0,0,290.6,-63.4,0,99,4.24,4.241,4.241,4.238,0,0,7.21,79.7,86.168627429312,32.480316,6,P-GPS,
18400,2023-06-10 18:25:08,52.2064119168311,0.0865706830245103,32.480316,32.2178488,53.950778629312,86.168627429312,31.496064,0,31.1015757984,33.988190064,24,5,16.957,86.168627429312,32.480316,13.4663788,31.5273632136,0,0,0,285.2, 6.4, 3.4,0,0,1024,1024,1024,1024,0,0,0,0,290.6,-66.3,0,99,4.238,4.242,4.243,4.238,0,0,7.243,79.7,86.168627429312,32.480316,6,P-GPS,
18600,2023-06-10 18:25:08,52.206411973013,0.0865705543429594,32.480316,32.2178488,53.950778629312,86.168627429312,31.496064,0,31.1356965344,34.023623136,24,5,16.957,86.168627429312,32.480316,13.4663788,31.5273632136,0,0,0,285.3, 6.4, 2.8,0,0,1024,1024,1024,1024,0,0,0,0,290.6,-69.2,0,99,4.238,4.242,4.243,4.238,0,0,7.243,79.7,86.168627429312,32.480316,6,P-GPS,
18800,2023-06-10 18:25:08,52.2064120144127,0.0865704396968541,32.480316,32.2178488,53.950778629312,86.168627429312,31.496064,0,31.1649944356,34.053150696,24,5,16.957,86.168627429312,32.480316,13.4663788,31.5273632136,0,0,0,285.3, 6.3, 2.8,0,0,1024,1024,1024,1024,0,0,0,0,290.6,-72.2,0,99,4.238,4.242,4.243,4.238,0,0,7.243,79.7,86.168627429312,32.480316,6,P-GPS,
19000,2023-06-10 18:25:08,52.2064120570588,0.0865704041748747,32.480316,32.2178488,53.950778629312,86.168627429312,31.496064,0,31.1778881368,34.070867232,24,5,16.957,86.168627429312,32.480316,13.4663788,31.5273632136,0,0,0,285.2, 5.8, 3,0,0,1024,1024,1024,1024,0,0,0,0,290.6,-75.1,0,99,4.238,4.242,4.243,4.238,0,0,7.243,79.7,86.168627429312,32.480316,6,P-GPS,
19200,2023-06-10 18:25:08,52.2064121140546,0.0865703551486716,32.480316,32.2178488,53.950778629312,86.168627429312,31.496064,0,31.1954406308,34.094161196,24,5,16.957,86.168627429312,32.480316,13.4663788,31.5273632136,0,0,0,285.2, 5.9, 3.2,0,0,1024,1024,1024,1024,0,0,0,0,290.6,-78,0,99,4.238,4.242,4.243,4.238,0,0,7.243,79.7,86.168627429312,32.480316,6,P-GPS,
19400,2023-06-10 18:25:09,52.2064121926989,0.086570251490475,32.480316,32.2178488,53.950778629312,86.168627429312,31.496064,0,31.227199162,34.131234688,24,5,16.958,86.168627429312,32.480316,13.4663788,31.5273632136,0,0,0,285.3, 6.3, 2.5,0,0,1024,1024,1024,1024,0,0,0,0,290.6,-80.9,0,99,4.24,4.241,4.242,4.241,0,0,7.162,79.88,86.168627429312,32.480316,6,P-GPS,
19600,2023-06-10 18:25:09,52.2064122702553,0.0865701194398579,32.480316,32.2178488,53.950778629312,86.168627429312,31.496064,0,31.2647975884,34.171917104,24,5,16.958,86.168627429312,32.480316,13.4663788,31.5273632136,0,0,0,285.2, 6.7, 2.3,0,0,1024,1024,1024,1024,0,0,0,0,290.6,-83.8,0,99,4.24,4.241,4.242,4.241,0,0,7.162,79.88,86.168627429312,32.480316,6,P-GPS,
19800,2023-06-10 18:25:09,52.2064123593171,0.0865699660564818,32.480316,32.2178488,53.950778629312,86.168627429312,31.16798,0,31.3083343352,34.2191612,24,5,16.958,86.168627429312,32.480316,13.4663788,31.5273632136,0,0,0,285.3, 7.3, 2,0,0,1024,1024,1024,1024,0,0,0,0,290.6,-86.7,0,99,4.24,4.241,4.242,4.241,0,0,7.162,79.88,86.168627429312,32.480316,6,P-GPS,
20000,2023-06-10 18:25:09,52.2064124249911,0.0865697893272948,32.8084,32.5459328,53.950778629312,86.496711429312,31.16798,0,31.3537411608,34.265421044,24,5,16.958,86.496711429312,32.8084,13.4663788,31.5273632136,0,0,0,285.3, 7.1, 1.8,0,0,1024,1024,1024,1024,0,0,0,0,290.6,-89.7,0,99,4.24,4.241,4.242,4.241,0,0,7.162,79.88,86.496711429312,32.8084,6,P-GPS,
20200,2023-06-10 18:25:10,52.2064124374646,0.086569657416473,32.480316,32.2178488,53.950778629312,86.168627429312,31.16798,0,31.3829406368,34.295276688,24,5,16.958,86.496711429312,32.8084,13.4663788,31.5273632136,0,0,0,285.3, 7.2, 2.7,0,0,1024,1024,1024,1024,0,0,0,0,290.6,-90,0,99,4.24,4.241,4.242,4.241,0,0,7.162,79.88,86.168627429312,32.480316,6,P-GPS,
20400,2023-06-10 18:25:10,52.2064124086154,0.0865696252775392,32.480316,32.2178488,53.950778629312,86.168627429312,31.16798,0,31.3859590096,34.308071964,24,5,16.953,86.496711429312,32.8084,13.4663788,31.5273632136,0,0,0,285.3, 6.1, 3,0,0,1024,1024,1024,1024,0,0,0,0,290.6,-89.9,0,99,4.239,4.24,4.24,4.237,0,0,7.154,79.88,86.168627429312,32.480316,6,P-GPS,
20600,2023-06-10 18:25:10,52.2064123406069,0.0865696658321485,32.480316,32.2178488,53.950778629312,86.168627429312,31.16798,0,31.368767408,34.334318684,24,5,16.953,86.496711429312,32.8084,13.4663788,31.5273632136,0,0,0,285.2, 5.2, 3.1,0,0,1024,1024,1024,1024,0,0,0,0,290.6,-90,0,99,4.239,4.24,4.24,4.237,0,0,7.154,79.88,86.168627429312,32.480316,6,P-GPS,
20800,2023-06-10 18:25:10,52.2064122679679,0.0865697449143358,32.480316,32.2178488,53.950778629312,86.168627429312,31.16798,0,31.3429143888,34.366470916,25,5,16.953,86.496711429312,32.8084,13.4663788,31.5273632136,0,0,0,285.1, 4.4, 3.5,0,0,1024,1024,1024,1024,0,0,0,0,290.6,-90,0,99,4.239,4.24,4.24,4.237,0,0,7.154,79.88,86.168627429312,32.480316,6,P-GPS,
21000,2023-06-10 18:25:10,52.2064122624594,0.0865697876217924,32.480316,32.2178488,53.950778629312,86.168627429312,31.16798,0,31.3332687192,34.375985352,25,5,16.953,86.496711429312,32.8084,13.4663788,31.5273632136,0,0,0,285.2, 4.3, 3,0,0,1024,1024,1680,1024,0,0,99,0,290.6,-89.9,0,99,4.239,4.24,4.24,4.237,0,0,7.154,79.88,86.168627429312,32.480316,6,P-GPS,
21200,2023-06-10 18:25:10,52.2064122831014,0.0865697604176318,32.480316,32.2178488,53.950778629312,86.168627429312,31.496064,0,31.3416020528,34.385827872,25,5,16.953,86.496711429312,32.8084,13.4663788,31.5273632136,0,0,-0.223694,285.4, 4.6, 1.7,0,0,1024,1024,1684,1024,0,0,100,0,290.6,-89.9,0,99,4.239,4.24,4.24,4.237,0,0,7.154,79.88,86.168627429312,32.480316,6,P-GPS,
21400,2023-06-10 18:25:11,52.2064122017713,0.086569704373706,33.136484,32.8740168,53.950778629312,86.824795429312,31.824148,0,31.3429471972,34.417980104,25,5,16.96,86.824795429312,33.136484,13.4663788,31.5273632136,0,0,-2.460634,285.3, 3.7, 2.9,0,0,1024,1024,1604,1024,0,0,88,0,290.6,-90,0,99,4.239,4.239,4.237,4.238,0,0,7.061,79.88,86.824795429312,33.136484,6,P-GPS,
21600,2023-06-10 18:25:11,52.2064120898444,0.0865696435208226,34.120736,33.8582688,53.950778629312,87.809047429312,33.136484,0,31.3414380108,34.460959108,25,5,16.96,87.809047429312,34.120736,13.4663788,31.5273632136,0,0,-4.697574,285.5, 3.8, 5.5,0,0,1024,1024,1024,1024,0,0,0,0,290.6,-89.9,0,99,4.239,4.239,4.237,4.238,0,0,7.061,79.88,87.809047429312,34.120736,6,P-GPS,
21800,2023-06-10 18:25:11,52.2064121977449,0.086569680552591,35.761156,35.4986888,53.950778629312,89.449467429312,34.776904,0,31.3474091396,34.50131344,25,5,16.96,89.449467429312,35.761156,13.4663788,31.5273632136,0,0,-5.816044,285.4, 4.5, 3.3,0,0,1024,1024,1024,1024,0,0,0,0,290.6,-89.9,0,99,4.239,4.239,4.237,4.238,0,0,7.061,79.88,89.449467429312,35.761156,6,P-GPS,
22000,2023-06-10 18:25:11,52.2064123757527,0.0865695902448432,37.401576,37.1391088,53.950778629312,91.089887429312,36.417324,0,31.3890758076,34.569226828,25,5,16.96,91.089887429312,37.401576,13.4663788,31.5273632136,0,0,-4.026492,285.4, 5.4, 1.6,0,0,1024,1024,1024,1024,0,0,0,0,290.6,-90,0,99,4.239,4.239,4.237,4.238,0,0,7.061,79.88,91.089887429312,37.401576,6,P-GPS,
22200,2023-06-10 18:25:11,52.2064124098405,0.0865693069357382,38.057744,37.7952768,53.950778629312,91.746055429312,34.776904,0,31.452756912,34.633859376,25,5,16.96,91.746055429312,38.057744,13.4663788,31.5273632136,0,0,-1.789552,285.3, 5.1, 1.9,0,0,1024,1024,1024,1024,0,0,0,0,290.6,-90,0,99,4.239,4.239,4.237,4.238,0,0,7.061,79.88,91.746055429312,38.057744,6,P-GPS,
22400,2023-06-10 18:25:12,52.2064123471692,0.0865689286637027,38.385828,38.1233608,53.950778629312,92.074139429312,34.776904,0,31.5239839484,34.721457804,25,5,16.948,92.074139429312,38.385828,13.4663788,31.5273632136,0,0,-0.447388,285.3, 4.5, 2.5,0,0,1024,1024,1024,1024,0,0,0,0,290.6,-89.9,0,99,4.165,4.161,4.162,4.157,0,0,7.763,80.06,92.074139429312,38.385828,6,P-GPS,
22600,2023-06-10 18:25:12,52.2064122247821,0.0865685178193681,38.385828,38.1233608,53.950778629312,92.074139429312,35.104988,0.223694,31.5945220084,34.823491928,25,5,16.948,92.074139429312,38.385828,13.4663788,31.5945220084,0,-0.223694,0,285, 5.2, 3.9,0,0,1024,1024,1024,1024,0,0,0,0,290.6,-89.9,0,99,4.165,4.161,4.162,4.157,0,0,7.763,80.06,92.074139429312,38.385828,6,P-GPS,
22800,2023-06-10 18:25:12,52.2064121395112,0.0865681299433972,38.385828,38.1233608,53.950778629312,92.074139429312,35.104988,0,31.6650928768,34.915683532,25,5,16.948,92.074139429312,38.385828,13.4663788,31.6650928768,0,0,0,285.3, 6.2, 4.6,0,0,1024,1024,1024,1024,0,0,0,0,290.6,-90,0,99,4.165,4.161,4.162,4.157,0,0,7.763,80.06,92.074139429312,38.385828,6,P-GPS,
23000,2023-06-10 18:25:12,52.2064121076294,0.086567903125563,38.385828,38.1233608,53.950778629312,92.074139429312,34.776904,0,31.708662432,34.967848888,25,5,16.948,92.074139429312,38.385828,13.4663788,31.708662432,0,0,0,285.2, 6.2, 3.7,0,0,1024,1024,1050,1024,0,0,4,0,290.6,-89.9,0,99,4.165,4.161,4.162,4.157,0,0,7.763,80.06,92.074139429312,38.385828,6,P-GPS,
23200,2023-06-10 18:25:12,52.2064121085931,0.0865678680788875,38.385828,38.1233608,53.950778629312,92.074139429312,34.776904,0,31.7161427472,34.975722904,25,5,16.948,92.074139429312,38.385828,13.4663788,31.7161427472,0,0,0,285.3, 5.4, 4.1,0,0,1024,1024,1072,1024,0,0,7,0,290.6,-89.9,0,99,4.165,4.161,4.162,4.157,0,0,7.763,80.06,92.074139429312,38.385828,6,P-GPS,
23400,2023-06-10 18:25:13,52.2064121368511,0.0865679151619362,38.385828,38.1233608,53.950778629312,92.074139429312,34.776904,0,31.709810726,34.9901586,25,5,17.076,92.074139429312,38.385828,13.4663788,31.7161427472,0,0,0,285.3, 4.8, 3.2,0,0,1024,1024,1220,1024,0,0,30,0,290.6,-89.9,0,99,4.244,4.241,4.243,4.238,0,0,8.802,80.06,92.074139429312,38.385828,6,P-GPS,
23600,2023-06-10 18:25:13,52.2064121856355,0.0865680095796652,38.385828,38.1233608,53.950778629312,92.074139429312,34.776904,0,31.6961624316,35.01804574,25,5,17.076,92.074139429312,38.385828,13.4663788,31.7161427472,0,0,0,285, 4.2, 3.2,0,0,1024,1024,1408,1024,0,0,58,0,290.6,-90,0,99,4.244,4.241,4.243,4.238,0,0,8.802,80.06,92.074139429312,38.385828,6,P-GPS,
23800,2023-06-10 18:25:13,52.2064122734208,0.0865681125109264,38.385828,38.1233608,53.950778629312,92.074139429312,35.104988,0,31.6856637436,35.05741582,25,5,17.076,92.074139429312,38.385828,13.4663788,31.7161427472,0,0,-0.894776,285.4, 4.2, 1.9,0,0,1024,1024,1534,1024,0,0,77,0,290.6,-90,0,99,4.244,4.241,4.243,4.238,0,0,8.802,80.06,92.074139429312,38.385828,6,P-GPS,
24000,2023-06-10 18:25:13,52.206412327281,0.0865681716163688,39.041996,38.7795288,53.950778629312,92.730307429312,35.761156,0,31.6800863156,35.081037868,25,5,17.076,92.730307429312,39.041996,13.4663788,31.7161427472,0,0,-2.908022,285.6, 4.3, 2.6,0,0,1024,1024,1587,1024,0,0,85,0,290.6,-89.9,0,99,4.244,4.241,4.243,4.238,0,0,8.802,80.06,92.730307429312,39.041996,6,P-GPS,
24200,2023-06-10 18:25:13,52.2064123250836,0.0865682084943624,40.354332,40.0918648,53.950778629312,94.042643429312,37.073492,0,31.672081066,35.089239968,25,5,17.076,94.042643429312,40.354332,13.4663788,31.7161427472,0,0,-5.368656,285.5, 4.4, 3.3,0,0,1024,1024,1024,1024,0,0,0,0,290.6,-89.9,0,99,4.244,4.241,4.243,4.238,0,0,8.802,80.06,94.042643429312,40.354332,6,P-GPS,
24400,2023-06-10 18:25:14,52.2064123953667,0.0865682970546693,42.65092,42.3884528,53.950778629312,96.339231429312,39.041996,0,31.6624353964,35.121720284,25,5,16.94,96.339231429312,42.65092,13.4663788,31.7161427472,0,0,-7.605596,285.4, 4.5, 3.7,0,0,1024,1024,1024,1024,0,0,0,0,290.6,-90,0,99,4.233,4.231,4.232,4.227,0,0,7.014,80.06,96.339231429312,42.65092,6,P-GPS,
24600,2023-06-10 18:25:14,52.2064124708756,0.0865683624788582,44.619424,44.3569568,53.950778629312,98.307735429312,41.0105,0,31.6583671548,35.152888264,25,5,16.94,98.307735429312,44.619424,13.4663788,31.7161427472,0,0,-6.263432,285.4, 5.7, 4.4,0,0,1024,1024,1624,1024,0,0,91,0,290.6,-90,0,99,4.233,4.231,4.232,4.227,0,0,7.014,80.06,98.307735429312,44.619424,6,P-GPS,
24800,2023-06-10 18:25:14,52.20641254393,0.0865683205822142,45.93176,45.6364844,53.983587029312,99.620071429312,42.65092,0,31.6764445832,35.181103488,25,5,16.94,99.620071429312,45.93176,13.4663788,31.7161427472,0,0,-4.250186,285.4, 5.2, 3.9,0,0,1024,1024,1684,1024,0,0,100,0,290.6,-89.9,0,99,4.233,4.231,4.232,4.227,0,0,7.014,80.06,99.620071429312,45.93176,6,P-GPS,
25000,2023-06-10 18:25:14,52.2064126351378,0.0865682157637167,47.244096,46.9488204,53.983587029312,100.93240742931,43.963256,0,31.7100731932,35.221785904,25,5,16.94,100.93240742931,47.244096,13.4663788,31.7161427472,0,0,-5.144962,285.4, 3.5, 2.2,0,0,1024,1024,1684,1024,0,0,100,0,290.6,-90,0,99,4.233,4.231,4.232,4.227,0,0,7.014,80.06,100.93240742931,47.244096,6,P-GPS,
25200,2023-06-10 18:25:14,52.2064126723611,0.086568061779221,49.2126,48.9173244,53.983587029312,102.90091142931,45.93176,0,31.7470810684,35.258859396,25,5,16.94,102.90091142931,49.2126,13.4663788,31.7470810684,0,0,-7.381902,285.6, 5, 3.4,0,0,1024,1024,1088,1024,0,0,10,0,290.6,-89.9,0,99,4.233,4.231,4.232,4.227,0,0,7.014,80.06,102.90091142931,49.2126,6,P-GPS,
25400,2023-06-10 18:25:15,52.2064126475213,0.0865680405582982,52.165356,51.8700804,53.983587029312,105.85366742931,48.556432,0,31.7483277876,35.26903,25,5,16.655,105.85366742931,52.165356,13.4663788,31.7483277876,0,0,-9.618842,285.3, 4.9, 4.7,0,0,1024,1024,1024,1024,0,0,0,0,290.6,-90,0,99,4.237,4.235,4.236,4.234,0,0,10.78,80.06,105.85366742931,52.165356,6,P-GPS,
25600,2023-06-10 18:25:15,52.206412660256,0.0865681376181578,54.461944,54.1666684,53.983587029312,108.15025542931,51.509188,0,31.7296269996,35.291339712,25,5,16.655,108.15025542931,54.461944,13.4663788,31.7483277876,0,0,-8.276678,285.5, 5.9, 6.8,0,0,1024,1024,1024,1024,0,0,0,0,290.6,-90,0,99,4.237,4.235,4.236,4.234,0,0,10.78,80.06,108.15025542931,54.461944,6,P-GPS,
25800,2023-06-10 18:25:15,52.2064126792446,0.0865682051252963,55.446196,55.1509204,53.983587029312,109.13450742931,53.477692,0,31.7179472092,35.308071996,25,5,16.655,109.13450742931,55.446196,13.4663788,31.7483277876,0,0,-6.263432,285.3, 4.6, 6,0,0,1024,1024,1024,1024,0,0,0,0,290.6,-90,0,99,4.237,4.235,4.236,4.234,0,0,10.78,80.06,109.13450742931,55.446196,6,P-GPS,
26000,2023-06-10 18:25:15,52.206412708445,0.086568100125065,56.758532,56.4632564,53.983587029312,110.44684342931,54.790028,0,31.7436689948,35.333662548,25,5,16.655,110.44684342931,56.758532,13.4663788,31.7483277876,0,0,-3.579104,285.3, 5.6, 6.2,0,0,1024,1024,1024,1024,0,0,0,0,290.6,-90,0,99,4.237,4.235,4.236,4.234,0,0,10.78,80.06,110.44684342931,56.758532,6,P-GPS,
26200,2023-06-10 18:25:15,52.2064127378509,0.0865677772678767,57.742784,57.4475084,53.983587029312,111.43109542931,55.446196,0.223694,31.8150272648,35.40682528,25,5,16.655,111.43109542931,57.742784,13.4663788,31.8150272648,0,-0.223694,-1.342164,285.5, 7.1, 5.8,0,0,1024,1024,1024,1024,0,0,0,0,290.6,-90,0,99,4.237,4.235,4.236,4.234,0,0,10.78,80.06,111.43109542931,57.742784,6,P-GPS,
26400,2023-06-10 18:25:16,52.2064128180588,0.0865674036510238,58.070868,57.7755924,53.983587029312,111.75917942931,55.77428,0.223694,31.9035115196,35.495079876,25,5,16.648,111.75917942931,58.070868,13.4663788,31.9035115196,0,-0.223694,-0.223694,285.4, 7.8, 5,0,0,1024,1024,1024,1024,0,0,0,0,290.6,-89.9,0,99,4.235,4.23,4.23,4.226,0,0,10.387,80.06,111.75917942931,58.070868,6,P-GPS,
26600,2023-06-10 18:25:16,52.2064128864956,0.0865671557940007,58.070868,57.7755924,53.983587029312,111.75917942931,55.77428,0,31.9641742512,35.5561035,25,5,16.648,111.75917942931,58.070868,13.4663788,31.9641742512,0,0,0,285.5, 8.4, 4.9,0,0,1024,1024,1024,1024,0,0,0,0,290.6,-90,0,99,4.235,4.23,4.23,4.226,0,0,10.387,80.06,111.75917942931,58.070868,6,P-GPS,
26800,2023-06-10 18:25:16,52.206412937169,0.0865671217258921,58.070868,57.7755924,53.983587029312,111.75917942931,55.77428,0,31.9777897372,35.576116624,25,5,16.648,111.75917942931,58.070868,13.4663788,31.9777897372,0,0,0,285.4, 8.3, 5.3,0,0,1024,1024,1024,1024,0,0,0,0,290.6,-89.9,0,99,4.235,4.23,4.23,4.226,0,0,10.387,80.06,111.75917942931,58.070868,6,P-GPS,
27000,2023-06-10 18:25:16,52.2064130063555,0.0865674003798144,58.398952,58.1036764,53.983587029312,112.08726342931,55.77428,0,31.9283474784,35.64304576,25,5,16.648,112.08726342931,58.398952,13.4663788,31.9777897372,0,0,0,285.3, 7.1, 4.9,0,0,1024,1024,1024,1024,0,0,0,0,290.6,-89.9,0,99,4.235,4.23,4.23,4.226,0,0,10.387,80.06,112.08726342931,58.398952,6,P-GPS,
27200,2023-06-10 18:25:16,52.2064131119942,0.0865678460611316,58.398952,58.1036764,53.983587029312,112.08726342931,55.77428,0.223694,31.8487871084,35.750001144,25,5,16.648,112.08726342931,58.398952,13.4663788,31.9777897372,0,0.223694,0,285.2, 5.7, 3.8,0,0,1024,1024,1024,1024,0,0,0,0,290.6,-90,0,99,4.235,4.23,4.23,4.226,0,0,10.387,80.06,112.08726342931,58.398952,6,P-GPS,
27400,2023-06-10 18:25:17,52.206413228543,0.086568283662282,58.398952,58.1036764,53.983587029312,112.08726342931,55.77428,0.223694,31.77247477,35.856628444,25,5,17.071,112.08726342931,58.398952,13.4663788,31.9777897372,0,0.223694,0,285.1, 4.1, 2.1,0,0,1024,1024,1024,1024,0,0,0,0,290.6,-89.9,0,99,4.236,4.238,4.238,4.231,0,0,5.736,80.42,112.08726342931,58.398952,6,P-GPS,
27600,2023-06-10 18:25:17,52.2064133123703,0.086568451989773,58.398952,58.1036764,53.983587029312,112.08726342931,55.77428,0,31.7482621708,35.905184876,25,5,17.071,112.08726342931,58.398952,13.4663788,31.9777897372,0,0,0,285.1, 4.3, 1.4,0,0,1024,1024,1024,1024,0,0,0,0,290.6,-90,0,99,4.236,4.238,4.238,4.231,0,0,5.736,80.42,112.08726342931,58.398952,6,P-GPS,
27800,2023-06-10 18:25:17,52.2064133213827,0.0865683091329811,58.398952,58.1036764,53.983587029312,112.08726342931,55.77428,0,31.7792661088,35.937337108,26,5,17.071,112.08726342931,58.398952,13.4663788,31.9777897372,0,0,0,285.2, 5.6, 2.7,0,0,1024,1024,1024,1024,0,0,0,0,290.6,-90,0,99,4.236,4.238,4.238,4.231,0,0,5.736,80.42,112.08726342931,58.398952,6,P-GPS,
28000,2023-06-10 18:25:17,52.2064132549505,0.086568002366229,58.398952,58.1036764,53.983587029312,112.08726342931,56.102364,0,31.8346794964,36.010171756,26,5,17.071,112.08726342931,58.398952,13.4663788,31.9777897372,0,0,0,285.2, 7.3, 3.7,0,0,1024,1024,1024,1024,0,0,0,0,290.6,-90,0,99,4.236,4.238,4.238,4.231,0,0,5.736,80.42,112.08726342931,58.398952,6,P-GPS,
28200,2023-06-10 18:25:17,52.2064132467948,0.0865676476496974,58.398952,58.1036764,53.983587029312,112.08726342931,56.102364,0,31.9077109948,36.089568084,26,5,17.071,112.08726342931,58.398952,13.4663788,31.9777897372,0,0,0,285.3, 8.2, 3.5,0,0,1024,1024,1024,1024,0,0,0,0,290.6,-89.9,0,99,4.236,4.238,4.238,4.231,0,0,5.736,80.42,112.08726342931,58.398952,6,P-GPS,
28400,2023-06-10 18:25:18,52.2064132934674,0.0865673673322113,58.398952,58.1036764,53.983587029312,112.08726342931,55.77428,0,31.9723435428,36.154528716,26,5,16.933,112.08726342931,58.398952,13.4663788,31.9777897372,0,0,0,285.4, 8.6, 2.5,0,0,1024,1024,1024,1024,0,0,0,0,290.6,-89.9,0,99,4.233,4.23,4.236,4.231,0,0,6.817,80.42,112.08726342931,58.398952,6,P-GPS,
28600,2023-06-10 18:25:18,52.2064133536072,0.0865672240700132,58.398952,58.1036764,53.983587029312,112.08726342931,55.77428,0,32.0101060112,36.193242628,26,5,16.933,112.08726342931,58.398952,13.4663788,32.0101060112,0,0,0,285.3, 8.3, 2.6,0,0,1024,1024,1024,1024,0,0,0,0,290.6,-90,0,99,4.233,4.23,4.236,4.231,0,0,6.817,80.42,112.08726342931,58.398952,6,P-GPS,
28800,2023-06-10 18:25:18,52.2064133507887,0.0865671456029251,58.398952,58.1036764,53.983587029312,112.08726342931,55.77428,0,32.0261165104,36.21063108,26,5,16.933,112.08726342931,58.398952,13.4663788,32.0261165104,0,0,0,285.4, 8.3, 3.5,0,0,1024,1024,1024,1024,0,0,0,0,290.6,-90,0,99,4.233,4.23,4.236,4.231,0,0,6.817,80.42,112.08726342931,58.398952,6,P-GPS,
29000,2023-06-10 18:25:18,52.206413327371,0.086567187150081,58.398952,58.1036764,53.983587029312,112.08726342931,55.77428,0,32.0144039116,36.223426356,26,5,16.933,112.08726342931,58.398952,13.4663788,32.0261165104,0,0,0,285.2, 7.3, 3.7,0,0,1024,1024,1024,1024,0,0,0,0,290.6,-90,0,99,4.233,4.23,4.236,4.231,0,0,6.817,80.42,112.08726342931,58.398952,6,P-GPS,
29200,2023-06-10 18:25:18,52.2064133330937,0.0865672575509816,58.398952,58.1036764,53.983587029312,112.08726342931,55.77428,0,32.0004275332,36.239174388,26,5,16.933,112.08726342931,58.398952,13.4663788,32.0261165104,0,0,0,285.4, 7.7, 4.4,0,0,1024,1024,1024,1024,0,0,0,0,290.6,-89.9,0,99,4.233,4.23,4.236,4.231,0,0,6.817,80.42,112.08726342931,58.398952,6,P-GPS,
29400,2023-06-10 18:25:19,52.2064133844781,0.0865673841356034,58.398952,58.1036764,53.983587029312,112.08726342931,55.77428,0,31.9806768764,36.273295124,26,5,16.911,112.08726342931,58.398952,13.4663788,32.0261165104,0,0,0,285.4, 7.7, 3.7,0,0,1024,1024,1024,1024,0,0,0,0,290.6,-90,0,98,4.228,4.23,4.231,4.229,0,0,6.934,80.42,112.08726342931,58.398952,6,P-GPS,
29600,2023-06-10 18:25:19,52.2064134799608,0.0865674952169292,58.398952,58.1036764,53.983587029312,112.08726342931,55.77428,0,31.9698829128,36.315946044,26,5,16.911,112.08726342931,58.398952,13.4663788,32.0261165104,0,0,0,285.4, 8.1, 3.6,0,0,1024,1024,1024,1024,0,0,0,0,290.6,-89.9,0,98,4.228,4.23,4.231,4.229,0,0,6.934,80.42,112.08726342931,58.398952,6,P-GPS,
29800,2023-06-10 18:25:19,52.2064135476267,0.0865676054594833,58.398952,58.1036764,53.983587029312,112.08726342931,55.77428,0,31.955709684,36.351051032,26,5,16.911,112.08726342931,58.398952,13.4663788,32.0261165104,0,0,0,285.4, 8.1, 3.7,0,0,1024,1024,1024,1024,0,0,0,0,290.6,-90,0,98,4.228,4.23,4.231,4.229,0,0,6.934,80.42,112.08726342931,58.398952,6,P-GPS,
30000,2023-06-10 18:25:19,52.2064135881011,0.086567715240713,58.398952,58.1036764,53.983587029312,112.08726342931,55.77428,0,31.9381243816,36.37959434,26,5,16.911,112.08726342931,58.398952,13.4663788,32.0261165104,0,0,0,285.5, 8.2, 4.3,0,0,1024,1024,1024,1024,0,0,0,0,290.6,-89.9,0,98,4.228,4.23,4.231,4.229,0,0,6.934,80.42,112.08726342931,58.398952,6,P-GPS,
30200,2023-06-10 18:25:19,52.2064136162863,0.0865678393229994,58.398952,58.1036764,53.983587029312,112.08726342931,55.77428,0,31.9159130948,36.4091219,26,5,16.911,112.08726342931,58.398952,13.4663788,32.0261165104,0,0,0,285.5, 8.1, 4.5,0,0,1024,1024,1024,1024,0,0,0,0,290.6,-89.9,0,98,4.228,4.23,4.231,4.229,0,0,6.934,80.42,112.08726342931,58.398952,6,P-GPS,
30400,2023-06-10 18:25:20,52.2064136323321,0.0865679237174071,58.727036,58.4317604,53.983587029312,112.41534742931,55.77428,0,31.90042753,36.42880694,26,5,16.921,112.41534742931,58.727036,13.4663788,32.0261165104,0,0,0,285.5, 8.1, 4.7,0,0,1024,1024,1024,1024,0,0,0,0,290.6,-90,0,98,4.23,4.23,4.23,4.225,0,0,7.177,80.6,112.41534742931,58.727036,6,P-GPS,
30600,2023-06-10 18:25:20,52.2064137055108,0.0865679753018637,58.727036,58.4317604,53.983587029312,112.41534742931,55.77428,0,31.899279236,36.458006416,26,5,16.921,112.41534742931,58.727036,13.4663788,32.0261165104,0,0,0,285.4, 8.4, 4.2,0,0,1024,1024,1684,1024,0,0,100,0,290.6,-90,0,98,4.23,4.23,4.23,4.225,0,0,7.177,80.6,112.41534742931,58.727036,6,P-GPS,
30800,2023-06-10 18:25:20,52.206413821507,0.0865680399991171,58.727036,58.4317604,53.983587029312,112.41534742931,55.77428,0,31.9011165064,36.50262584,26,5,16.921,112.41534742931,58.727036,13.4663788,32.0261165104,0,0,0,285.4, 8.5, 3.5,0,0,1024,1024,1684,1024,0,0,100,0,290.6,-89.9,0,98,4.23,4.23,4.23,4.225,0,0,7.177,80.6,112.41534742931,58.727036,6,P-GPS,
31000,2023-06-10 18:25:20,52.2064139172766,0.0865681859733436,59.05512,58.7598444,53.983587029312,112.74343142931,56.102364,0,31.883367162,36.550526104,26,5,16.921,112.74343142931,59.05512,13.4663788,32.0261165104,0,0,-2.013246,285.3, 6.5, 2.8,0,0,1024,1024,1684,1024,0,0,100,0,290.6,-90,0,98,4.23,4.23,4.23,4.225,0,0,7.177,80.6,112.74343142931,59.05512,6,P-GPS,
31200,2023-06-10 18:25:20,52.2064139852552,0.0865683030379071,60.039372,59.7440964,53.983587029312,113.72768342931,57.086616,0,31.8680128308,36.586615344,26,5,16.921,113.72768342931,60.039372,13.4663788,32.0261165104,0,0,-4.250186,285.3, 7.3, 2.9,0,0,1024,1024,1684,1024,0,0,100,0,290.6,-90,0,98,4.23,4.23,4.23,4.225,0,0,7.177,80.6,113.72768342931,60.039372,6,P-GPS,
31400,2023-06-10 18:25:21,52.206414049944,0.0865684508574312,62.007876,61.7126004,53.983587029312,115.69618742931,59.05512,0,31.8458671608,36.62729776,26,5,16.899,115.69618742931,62.007876,13.4663788,32.0261165104,0,0,-6.71082,285.9, 8.4, 3.9,0,0,1024,1024,1684,1024,0,0,100,0,290.6,-90,0,98,4.226,4.228,4.229,4.224,0,0,7.301,80.6,115.69618742931,62.007876,6,P-GPS,
31600,2023-06-10 18:25:21,52.2064141121528,0.0865687229549551,65.944884,65.6496084,53.983587029312,119.63319542931,61.351708,0,31.797573196,36.692258392,26,5,16.899,119.63319542931,65.944884,13.4663788,32.0261165104,0,0,-9.171454,285.8, 8, 3.7,0,0,1024,1024,1658,1024,0,0,96,0,290.6,-90,0,98,4.226,4.228,4.229,4.224,0,0,7.301,80.6,119.63319542931,65.944884,6,P-GPS,
31800,2023-06-10 18:25:21,52.2064141232469,0.0865691345541842,70.209976,69.9147004,53.983587029312,123.89828742931,64.304464,0,31.7134524584,36.784121912,26,5,16.899,123.89828742931,70.209976,13.4663788,32.0261165104,0,0,-11.408394,285.8, 7.4, 5.7,0,0,1024,1024,1571,1024,0,0,83,0,290.6,-90,0,98,4.226,4.228,4.229,4.224,0,0,7.301,80.6,123.89828742931,70.209976,6,P-GPS,
32000,2023-06-10 18:25:21,52.2064141883513,0.0865696168758431,74.475068,74.1797924,53.983587029312,128.16337942931,67.913388,0,31.6219826392,36.89468622,26,5,16.899,128.16337942931,74.475068,13.4663788,32.0261165104,0,0,-11.855782,286, 8.3, 7.2,0,0,1024,1024,1189,1024,0,0,25,0,290.6,-90,0,98,4.226,4.228,4.229,4.224,0,0,7.301,80.6,128.16337942931,74.475068,6,P-GPS,
32200,2023-06-10 18:25:21,52.2064142757211,0.0865700961779241,77.755908,77.4606324,53.983587029312,131.44421942931,71.522312,0,31.5342529776,37.006562864,26,5,16.899,131.44421942931,77.755908,13.4663788,32.0261165104,0,0,-10.289924,285.6, 8.5, 9,0,0,1024,1024,1024,1024,0,0,0,0,290.6,-90,0,98,4.226,4.228,4.229,4.224,0,0,7.301,80.6,131.44421942931,77.755908,6,P-GPS,
32400,2023-06-10 18:25:22,52.2064143527934,0.0865704732477202,80.052496,79.7572204,53.983587029312,133.74080742931,74.146984,0,31.4665036316,37.095473628,26,5,16.605,133.74080742931,80.052496,13.4663788,32.0261165104,0,0,-8.052984,285.9, 8.6, 10.4,0,0,1024,1024,1024,1024,0,0,0,0,290.6,-90,0,98,4.116,4.121,4.121,4.108,0,0,10.777,80.42,133.74080742931,80.052496,6,P-GPS,
