time(millisecond),datetime(utc),latitude,longitude,height_above_takeoff(feet),height_above_ground_at_drone_location(feet),ground_elevation_at_drone_location(feet),altitude_above_seaLevel(feet),height_sonar(feet),speed(mph),distance(feet),mileage(feet),satellites,gpslevel,voltage(v),max_altitude(feet),max_ascent(feet),max_speed(mph),max_distance(feet), xSpeed(mph), ySpeed(mph), zSpeed(mph), compass_heading(degrees), pitch(degrees), roll(degrees),isPhoto,isVideo,rc_elevator,rc_aileron,rc_throttle,rc_rudder,rc_elevator(percent),rc_aileron(percent),rc_throttle(percent),rc_rudder(percent),gimbal_heading(degrees),gimbal_pitch(degrees),gimbal_roll(degrees),battery_percent,voltageCell1,voltageCell2,voltageCell3,voltageCell4,voltageCell5,voltageCell6,current(A),battery_temperature(f),altitude(feet),ascent(feet),flycStateRaw,flycState,message
0,2023-06-15 17:24:43,52.2063607900717,0.0867295830531177,0,0,53.63834981354,53.63834981354,0.328084,0,0,0,23,5,0,53.63834981354,0,0,0,0,0,0,280, 4.9, 0.5,0,0,1024,1024,1024,1024,0,0,0,0,280.2,0,0,73,4.017,4.021,4.016,4.018,0,0,0,76.82,53.63834981354,0,41,Motors_Started,"Aircraft not in flight. Vision systems and obstacle avoidance disabled (Code: 180059)"
200,2023-06-15 17:24:43,52.2063609576771,0.0867293369967668,0,0,53.63834981354,53.63834981354,0.328084,0,0.082255908144,0.082255908144,23,5,0,53.63834981354,0,0,0.082255908144,0,0,0,280, 5, 0.5,0,0,1024,1024,1024,1024,0,0,0,0,280.2,0,0,73,4.017,4.021,4.016,4.018,0,0,0,76.82,53.63834981354,0,41,Motors_Started,
400,2023-06-15 17:24:43,52.2063610962931,0.086729134510426,0,0,53.63834981354,53.63834981354,0.328084,0,0.150133863072,0.150133863072,22,5,0,53.63834981354,0,0,0.150133863072,0,0,0,280, 4.9, 0.5,0,0,1024,1024,1024,1024,0,0,0,0,280.2,0,0,73,4.017,4.021,4.016,4.018,0,0,0,76.82,53.63834981354,0,41,Motors_Started,
600,2023-06-15 17:24:43,52.2063611995984,0.086728956348448,0,0,53.63834981354,53.63834981354,0,0,0.204839901568,0.20497375984,22,5,0,53.63834981354,0,0,0.204839901568,0,0,0,280.1, 4.9, 0.5,0,0,1024,1024,1024,1024,0,0,0,0,280.2,0,0,73,4.017,4.021,4.016,4.018,0,0,0,76.82,53.63834981354,0,41,Motors_Started,
800,2023-06-15 17:24:44,52.2063613037679,0.0867287811217321,0,0,53.63834981354,53.63834981354,0,0,0.259375992552,0.259557751088,22,5,0,53.63834981354,0,0,0.259375992552,0,0,0,280.2, 4.9, 0.5,0,0,1024,1024,1024,1024,0,0,0,0,280.2,0,0,73,4.017,4.021,4.016,4.018,0,0,0,76.82,53.63834981354,0,41,Motors_Started,"Setting new Return-To-Home altitude to 26m (85 ft). Data Recorder File Index is 41. Setting new Maximum Flight Altitude to 120m (394 ft)"
1000,2023-06-15 17:24:44,52.206361407463,0.086728623084582,0,0,53.63834981354,53.63834981354,0,0,0.311140757988,0.31132546928,22,5,0,53.63834981354,0,0,0.311140757988,0,0,0,280.7, 4.9, 0.5,0,0,1024,1024,1024,1024,0,0,0,0,280.2,0,0,73,4.017,4.021,4.016,4.018,0,0,0,76.82,53.63834981354,0,41,Motors_Started,
1200,2023-06-15 17:24:44,52.2063615147251,0.0867284769815725,0,0,53.63834981354,53.63834981354,0,0,0.3620242898,0.3623031612,22,5,16.229,53.63834981354,0,0,0.3620242898,0,0,0,280, 4.9, 0.5,0,0,1024,1024,1024,1024,0,0,0,0,280.2,0,0,73,4.017,4.021,4.016,4.018,0,0,1.827,76.82,53.63834981354,0,41,Motors_Started,
1400,2023-06-15 17:24:44,52.2063616369312,0.0867283259062228,0,0,53.63834981354,53.63834981354,0,0,0.4177001446,0.41823820236,22,5,16.229,53.63834981354,0,0,0.4177001446,0,0,0,279.6, 5, 0.5,0,0,1024,1024,1024,1024,0,0,0,0,280.1,0,0,73,4.017,4.021,4.016,4.018,0,0,1.827,76.82,53.63834981354,0,41,Motors_Started,
1600,2023-06-15 17:24:44,52.2063617558144,0.086728189072508,0,0,53.63834981354,53.63834981354,0,0,0.47041668172,0.47131891272,23,5,16.229,53.63834981354,0,0,0.47041668172,0,0,0,279.4, 5, 0.5,0,0,1024,1024,1024,1024,0,0,0,0,280.1,0,0,73,4.017,4.021,4.016,4.018,0,0,1.827,76.82,53.63834981354,0,11,AutoTakeoff,
1800,2023-06-15 17:24:45,52.2063618719133,0.0867280525035303,0,0,53.63834981354,53.63834981354,0,0,0.52240159152,0.52353676216,23,5,16.229,53.63834981354,0,0,0.52240159152,0,0,0,279.3, 4.9, 0.5,0,0,1024,1024,1024,1024,0,0,0,0,280.1,0,0,73,4.017,4.021,4.016,4.018,0,0,1.827,76.82,53.63834981354,0,11,AutoTakeoff,
2000,2023-06-15 17:24:45,52.2063620285145,0.0867279348505891,0,0,53.63834981354,53.63834981354,0,0,0.58306760396,0.58643702664,22,5,16.229,53.63834981354,0,0,0.58306760396,0,0,0,279.5, 4.5, 0.5,0,0,1024,1024,1024,1024,0,0,0,0,280.1,0,0,73,4.017,4.021,4.016,4.018,0,0,1.827,76.82,53.63834981354,0,11,AutoTakeoff,
2200,2023-06-15 17:24:45,52.2063622428171,0.0867279757472346,0,0,53.63834981354,53.63834981354,0,0,0.64037731708,0.6651575016,22,5,16.047,53.63834981354,0,0,0.64037731708,0,0,-0.223694,279, -0.8, 0.4,0,0,1024,1024,1024,1024,0,0,0,0,280,0,0,73,4.045,4.05,4.047,4.047,0,0,4.818,76.82,53.63834981354,0,11,AutoTakeoff,
2400,2023-06-15 17:24:45,52.2063625192503,0.0867280059469271,0,0,53.63834981354,53.63834981354,0.328084,0,0.72274608612,0.766240182,22,5,16.047,53.63834981354,0,0,0.72274608612,0,0,-0.894776,279.4, -0.5, -0.3,0,0,1024,1024,1024,1024,0,0,0,0,280,0,0,73,4.045,4.05,4.047,4.047,0,0,4.818,76.82,53.63834981354,0,11,AutoTakeoff,
2600,2023-06-15 17:24:45,52.2063627941221,0.0867278845085943,0.328084,0.328084,53.63834981354,53.96643381354,0.328084,0,0.82392063004,0.87013782312,22,5,16.047,53.96643381354,0.328084,0,0.82392063004,0,0,-1.11847,279.1, 0.2, -1.5,0,0,1024,1024,1024,1024,0,0,0,0,279.9,0,0,73,4.045,4.05,4.047,4.047,0,0,4.818,76.82,53.96643381354,0.328084,11,AutoTakeoff,
2800,2023-06-15 17:24:46,52.2063629918488,0.0867277251062568,0.656168,0.656168,53.63834981354,54.29451781354,0.984252,0,0.90437010768,0.95060042412,22,5,16.047,54.29451781354,0.656168,0,0.90437010768,0,0,-0.894776,278.9, 0.4, -1.3,0,0,1024,1024,1024,1024,0,0,0,0,279.9,0,0,73,4.045,4.05,4.047,4.047,0,0,4.818,76.82,54.29451781354,0.656168,11,AutoTakeoff,
3000,2023-06-15 17:24:46,52.2063631261996,0.0867275870388495,0.984252,0.984252,53.63834981354,54.62260181354,1.312336,0,0.96210304916,1.008530216,22,5,16.047,54.62260181354,0.984252,0,0.96210304916,0,0,-0.894776,278.9, 0.4, -0.8,0,0,1024,1024,1024,1024,0,0,0,0,279.8,0,0,73,4.045,4.05,4.047,4.047,0,0,4.818,76.82,54.62260181354,0.984252,11,AutoTakeoff,
3200,2023-06-15 17:24:46,52.2063632496992,0.0867274352099164,1.312336,1.312336,53.63834981354,54.95068581354,1.64042,0,1.01780843152,1.0649442598,24,5,16.009,54.95068581354,1.312336,0,1.01780843152,0,0,-0.894776,279, 0.5, -1.4,0,0,1024,1024,1024,1024,0,0,0,0,279.8,0,0,73,3.976,3.982,3.983,3.982,0,0,4.201,76.82,54.95068581354,1.312336,11,AutoTakeoff,
3400,2023-06-15 17:24:46,52.2063633854357,0.0867272754921661,1.64042,1.64042,53.63834981354,55.27876981354,1.968504,0,1.07835305288,1.1260006922,24,5,16.009,55.27876981354,1.64042,0,1.07835305288,0,0,-0.894776,279.2, 0.7, -1.3,0,0,1024,1024,1024,1024,0,0,0,0,279.8,0,0,73,3.976,3.982,3.983,3.982,0,0,4.201,76.82,55.27876981354,1.64042,11,AutoTakeoff,
3600,2023-06-15 17:24:46,52.2063635127862,0.0867271134175562,1.968504,1.968504,53.63834981354,55.60685381354,2.296588,0,1.1365321886,1.1849245786,24,5,16.009,55.60685381354,1.968504,0,1.1365321886,0,0,-0.894776,279.4, 1.1, -1.3,0,0,1024,1024,1024,1024,0,0,0,0,279.8,0,0,73,3.976,3.982,3.983,3.982,0,0,4.201,76.82,55.60685381354,1.968504,11,AutoTakeoff,
3800,2023-06-15 17:24:47,52.2063636056163,0.0867269448887773,2.296588,2.296588,53.63834981354,55.93493781354,2.624672,0,1.18455712452,1.23559059072,24,5,16.009,55.93493781354,2.296588,0,1.18455712452,0,0,-0.894776,279.3, 1.1, -0.1,0,0,1024,1024,1129,1024,0,0,16,0,279.8,0,0,73,3.976,3.982,3.983,3.982,0,0,4.201,76.82,55.93493781354,2.296588,11,AutoTakeoff,"Home Point updated (Code: 3000001)"
4000,2023-06-15 17:24:47,52.2063636786697,0.0867268635174929,2.624672,2.624672,53.63834981354,56.26302181354,2.952756,0,1.2167323224,1.26786093296,24,5,16.009,56.26302181354,2.624672,0,1.2167323224,0,0,-1.11847,279.3, 1.3, 0.7,0,0,1024,1024,1684,1024,0,0,100,0,279.8,0,0,73,3.976,3.982,3.983,3.982,0,0,4.201,76.82,56.26302181354,2.624672,11,AutoTakeoff,
4200,2023-06-15 17:24:47,52.2063637517219,0.0867268837821161,3.28084,3.28084,53.63834981354,56.91918981354,3.28084,0,1.23767392412,1.29489505456,24,5,15.894,56.91918981354,3.28084,0,1.23767392412,0,0,-1.342164,279.7, 1.6, -0.4,0,0,1024,1024,1684,1024,0,0,100,0,279.8,0,0,73,3.972,3.976,3.972,3.974,0,0,7.694,76.82,56.91918981354,3.28084,11,AutoTakeoff,
4400,2023-06-15 17:24:47,52.2063638055918,0.0867269167982447,3.937008,3.937008,53.63834981354,57.57535781354,3.937008,0,1.25133862272,1.31589243056,24,5,15.894,57.57535781354,3.937008,0,1.25133862272,0,0,-3.131716,279.6, 1.5, -0.5,0,0,1024,1024,1684,1024,0,0,100,0,279.8,0,0,73,3.972,3.976,3.972,3.974,0,0,7.694,76.82,57.57535781354,3.937008,6,P-GPS,
4600,2023-06-15 17:24:47,52.2063638100049,0.0867269525740178,5.249344,5.249344,53.63834981354,58.88769381354,5.249344,0,1.2489665754,1.32405187964,24,5,15.894,58.88769381354,5.249344,0,1.25133862272,0,0,-5.368656,280.1, 1.3, -0.1,0,0,1024,1024,1684,1024,0,0,100,0,279.8,0,0,73,3.972,3.976,3.972,3.974,0,0,7.694,76.82,58.88769381354,5.249344,6,P-GPS,
4800,2023-06-15 17:24:48,52.2063638054194,0.0867269629236672,7.545932,7.545932,53.63834981354,61.18428181354,7.217848,0,1.24640095852,1.32690621044,24,5,15.894,61.18428181354,7.545932,0,1.25133862272,0,0,-7.605596,279.6, 1.3, -0.1,0,0,1024,1024,1642,1024,0,0,94,0,279.8,0,0,73,3.972,3.976,3.972,3.974,0,0,7.694,76.82,61.18428181354,7.545932,6,P-GPS,
5000,2023-06-15 17:24:48,52.2063637810058,0.086726986068945,10.826772,10.826772,53.63834981354,64.46512181354,9.84252,0,1.23610896344,1.33720804804,24,5,15.894,64.46512181354,10.826772,0,1.25133862272,0,0,-9.842536,279.6, 2, 0.2,0,0,1024,1024,1609,1024,0,0,89,0,279.8,0,0,73,3.972,3.976,3.972,3.974,0,0,7.694,76.82,64.46512181354,10.826772,6,P-GPS,
5200,2023-06-15 17:24:48,52.2063637292348,0.0867271331640635,14.76378,14.76378,53.63834981354,68.40212981354,13.12336,0,1.20415358184,1.37513455844,24,5,15.875,68.40212981354,14.76378,0,1.25133862272,0,0,-11.408394,280.4, 0.1, 1.2,0,0,1024,1024,1024,1024,0,0,0,0,279.8,0,0,73,3.921,3.925,3.92,3.92,0,0,8.281,76.82,68.40212981354,14.76378,6,P-GPS,
5400,2023-06-15 17:24:48,52.2063637149806,0.0867271601349239,18.372704,18.372704,53.63834981354,72.01105381354,16.4042,0,1.19678153436,1.38309715712,24,5,15.875,72.01105381354,18.372704,0,1.25133862272,0,0,-10.289924,280.4, 0.6, 1.6,0,0,1024,1024,1024,1024,0,0,0,0,279.8,0,0,73,3.921,3.925,3.92,3.92,0,0,8.281,76.82,72.01105381354,18.372704,6,P-GPS,
5600,2023-06-15 17:24:48,52.2063637158919,0.086726966452622,20.669292,20.669292,53.63834981354,74.30764181354,19.356956,0,1.21728678436,1.42640424512,24,5,15.875,74.30764181354,20.669292,0,1.25133862272,0,0,-8.276678,281.6, 2, 2.4,0,0,1024,1024,1024,1024,0,0,0,0,279.8,0,0,73,3.921,3.925,3.92,3.92,0,0,8.281,76.82,74.30764181354,20.669292,6,P-GPS,
5800,2023-06-15 17:24:49,52.2063637795816,0.0867265781448374,22.309712,22.309712,53.63834981354,75.94806181354,21.32546,0.223694,1.28104006724,1.51627957608,24,5,15.875,75.94806181354,22.309712,0.223694,1.28104006724,0,-0.223694,-5.816044,281.8, 3.8, 2.1,0,0,1024,1024,1024,1024,0,0,0,0,279.8,0,0,73,3.921,3.925,3.92,3.92,0,0,8.281,76.82,75.94806181354,22.309712,6,P-GPS,
6000,2023-06-15 17:24:49,52.2063639453569,0.0867260566318969,23.293964,23.293964,53.63834981354,76.93231381354,22.637796,0.223694,1.39532812864,1.647637848,24,5,15.875,76.93231381354,23.293964,0.223694,1.39532812864,0,-0.223694,-3.35541,282.6, 6.9, 1.5,0,0,1024,1024,1024,1024,0,0,0,0,279.8,-0.5,0,73,3.921,3.925,3.92,3.92,0,0,8.281,76.82,76.93231381354,23.293964,6,P-GPS,
6200,2023-06-15 17:24:49,52.2063641704656,0.0867255545932998,23.622048,23.622048,53.63834981354,77.26039781354,23.293964,0.223694,1.52721789664,1.78672249812,24,5,15.436,77.26039781354,23.622048,0.223694,1.52721789664,0,-0.223694,-1.11847,286.3, 8.6, 1.5,0,0,1024,1024,1024,1024,0,0,0,0,279.8,-2.8,0,73,3.955,3.96,3.958,3.964,0,0,14.398,76.82,77.26039781354,23.622048,6,P-GPS,
6400,2023-06-15 17:24:49,52.2063644324281,0.0867253173993086,23.622048,23.622048,53.63834981354,77.26039781354,23.622048,0.223694,1.63573496048,1.89602696356,24,5,15.436,77.26039781354,23.622048,0.223694,1.63573496048,0.223694,0,0,290.6, 7.6, 0.8,0,0,1024,1024,1024,1024,0,0,0,0,279.8,-5.6,0,73,3.955,3.96,3.958,3.964,0,0,14.398,76.82,77.26039781354,23.622048,6,P-GPS,
6600,2023-06-15 17:24:49,52.2063647251556,0.0867254297745446,23.950132,23.950132,53.63834981354,77.58848181354,23.293964,0.223694,1.70985569776,2.00574481484,24,5,15.436,77.58848181354,23.950132,0.223694,1.70985569776,0.223694,0,0,292.4, 6.6, -0.8,0,0,1024,1024,1024,1024,0,0,0,0,279.8,-8.5,0,73,3.955,3.96,3.958,3.964,0,0,14.398,76.82,77.58848181354,23.950132,6,P-GPS,
6800,2023-06-15 17:24:50,52.2063649751041,0.086725767513604,23.950132,23.950132,53.63834981354,77.58848181354,23.622048,0.223694,1.7490650166,2.1241470496,24,5,15.436,77.58848181354,23.950132,0.223694,1.7490650166,0,0.223694,0,293.3, 5.1, -1.7,0,0,1024,1024,1024,1024,0,0,0,0,279.8,-11.4,0,73,3.955,3.96,3.958,3.964,0,0,14.398,76.82,77.58848181354,23.950132,6,P-GPS,
7000,2023-06-15 17:24:50,52.2063651262075,0.0867261227095876,23.950132,23.950132,53.63834981354,77.58848181354,23.622048,0.223694,1.7610892952,2.22082356188,24,5,15.436,77.58848181354,23.950132,0.223694,1.7610892952,0,0.223694,0,293.7, 4.3, -1.3,0,0,1024,1024,1024,1024,0,0,0,0,279.8,-14.3,0,73,3.955,3.96,3.958,3.964,0,0,14.398,76.82,77.58848181354,23.950132,6,P-GPS,
7200,2023-06-15 17:24:50,52.2063652477228,0.0867264581739172,23.950132,23.950132,53.63834981354,77.58848181354,23.622048,0.223694,1.770095201,2.30794954892,24,5,16.044,77.58848181354,23.950132,0.223694,1.770095201,0,0.223694,0,295.6, 3.7, -1.3,0,0,1024,1024,1024,1024,0,0,0,0,279.8,-17.2,0,73,3.978,3.982,3.976,3.977,0,0,4.442,77,77.58848181354,23.950132,6,P-GPS,
7400,2023-06-15 17:24:50,52.2063653622904,0.0867267344594486,23.950132,23.950132,53.63834981354,77.58848181354,23.293964,0.223694,1.78562341672,2.38253944632,24,5,16.044,77.58848181354,23.950132,0.223694,1.78562341672,0,0.223694,0,296.5, 3.6, -1.9,0,0,1024,1024,1024,1024,0,0,0,0,279.8,-20.1,0,73,3.978,3.982,3.976,3.977,0,0,4.442,77,77.58848181354,23.950132,6,P-GPS,
7600,2023-06-15 17:24:50,52.206365434017,0.0867268951186322,23.622048,23.622048,53.63834981354,77.26039781354,23.622048,0,1.7977690864,2.42698170496,24,5,16.044,77.58848181354,23.950132,0.223694,1.7977690864,0,0,0,295.5, 3.6, -1.4,0,0,1024,1024,1024,1024,0,0,0,0,279.8,-23.1,0,73,3.978,3.982,3.976,3.977,0,0,4.442,77,77.26039781354,23.622048,6,P-GPS,
7800,2023-06-15 17:24:51,52.2063655098792,0.0867269834250684,23.622048,23.622048,53.63834981354,77.26039781354,23.622048,0,1.81746724976,2.46098104988,24,5,16.044,77.58848181354,23.950132,0.223694,1.81746724976,0,0,0,295.1, 3.8, -1.2,0,0,1024,1024,1024,1024,0,0,0,0,279.8,-26,0,73,3.978,3.982,3.976,3.977,0,0,4.442,77,77.26039781354,23.622048,6,P-GPS,
8000,2023-06-15 17:24:51,52.2063656187926,0.0867270212025339,23.622048,23.622048,53.63834981354,77.26039781354,23.622048,0,1.85253286768,2.50160441076,24,5,16.044,77.58848181354,23.950132,0.223694,1.85253286768,0,0,0,295.1, 3.9, -1.7,0,0,1024,1024,1024,1024,0,0,0,0,279.8,-28.9,0,73,3.978,3.982,3.976,3.977,0,0,4.442,77,77.26039781354,23.622048,6,P-GPS,
8200,2023-06-15 17:24:51,52.2063657219577,0.0867270210858922,23.622048,23.622048,53.63834981354,77.26039781354,23.622048,0,1.88837276384,2.53924548808,24,5,15.842,77.58848181354,23.950132,0.223694,1.88837276384,0,0,0,295.1, 4.1, -1.5,0,0,1024,1024,1024,1024,0,0,0,0,279.8,-31.8,0,73,3.957,3.964,3.957,3.96,0,0,7.64,77,77.26039781354,23.622048,6,P-GPS,
8400,2023-06-15 17:24:51,52.2063657879444,0.0867269762478961,23.622048,23.622048,53.63834981354,77.26039781354,23.622048,0,1.91435701664,2.56532488524,24,5,15.842,77.58848181354,23.950132,0.223694,1.91435701664,0,0,0,295, 4.2, -1.4,0,0,1024,1024,1024,1024,0,0,0,0,279.8,-34.7,0,73,3.957,3.964,3.957,3.96,0,0,7.64,77,77.26039781354,23.622048,6,P-GPS,
8600,2023-06-15 17:24:51,52.2063658204344,0.0867269274536961,23.622048,23.622048,53.63834981354,77.26039781354,23.622048,0,1.92897972052,2.58143380964,24,5,15.842,77.58848181354,23.950132,0.223694,1.92897972052,0,0,0,295, 4.2, -0.9,0,0,1024,1024,1024,1024,0,0,0,0,279.8,-37.6,0,73,3.957,3.964,3.957,3.96,0,0,7.64,77,77.26039781354,23.622048,6,P-GPS,
8800,2023-06-15 17:24:52,52.2063658404489,0.0867268841835904,23.622048,23.622048,53.63834981354,77.26039781354,23.622048,0,1.93891738488,2.5935532326,24,5,15.842,77.58848181354,23.950132,0.223694,1.93891738488,0,0,0,295, 4.2, -1,0,0,1024,1024,1024,1024,0,0,0,0,279.8,-40.5,0,73,3.957,3.964,3.957,3.96,0,0,7.64,77,77.26039781354,23.622048,6,P-GPS,
9000,2023-06-15 17:24:52,52.2063658593218,0.0867268437500164,23.622048,23.622048,53.63834981354,77.26039781354,23.622048,0,1.94828746392,2.60491806236,24,5,15.842,77.58848181354,23.950132,0.223694,1.94828746392,0,0,0,295, 4.1, -1.3,0,0,1024,1024,1024,1024,0,0,0,0,279.8,-43.5,0,73,3.957,3.964,3.957,3.96,0,0,7.64,77,77.26039781354,23.622048,6,P-GPS,
9200,2023-06-15 17:24:52,52.2063658517337,0.0867268108933417,23.622048,23.622048,53.63834981354,77.26039781354,23.622048,0,1.9479823458,2.61276911248,24,5,15.831,77.58848181354,23.950132,0.223694,1.94828746392,0,0,0,295.1, 3.7, -0.7,0,0,1024,1024,1024,1024,0,0,0,0,279.8,-46.4,0,73,3.955,3.96,3.955,3.957,0,0,7.67,77.18,77.26039781354,23.622048,6,P-GPS,
9400,2023-06-15 17:24:52,52.2063658344692,0.0867267728258013,23.950132,23.950132,53.63834981354,77.58848181354,23.622048,0,1.94474743756,2.623359664,24,5,15.831,77.58848181354,23.950132,0.223694,1.94828746392,0,0,0,295.1, 3.6, -0.6,0,0,1024,1024,1024,1024,0,0,0,0,279.8,-49.3,0,73,3.955,3.96,3.955,3.957,0,0,7.67,77.18,77.58848181354,23.950132,6,P-GPS,
9600,2023-06-15 17:24:52,52.2063658327965,0.0867267192711382,23.950132,23.950132,53.63834981354,77.58848181354,23.622048,0,1.94807092848,2.63534785336,24,5,15.831,77.58848181354,23.950132,0.223694,1.94828746392,0,0,0,294.9, 3.7, -0.4,0,0,1024,1024,1024,1024,0,0,0,0,279.8,-52.2,0,73,3.955,3.96,3.955,3.957,0,0,7.67,77.18,77.58848181354,23.950132,6,P-GPS,
9800,2023-06-15 17:24:53,52.2063658525497,0.0867266606938962,23.950132,23.950132,53.63834981354,77.58848181354,23.622048,0,1.95920938028,2.6502953604,24,5,15.831,77.58848181354,23.950132,0.223694,1.95920938028,0,0,0,294.7, 3.7, -0.2,0,0,1024,1024,1024,1024,0,0,0,0,279.8,-55.1,0,73,3.955,3.96,3.955,3.957,0,0,7.67,77.18,77.58848181354,23.950132,6,P-GPS,
10000,2023-06-15 17:24:53,52.2063658951701,0.0867265707767573,23.622048,23.622048,53.63834981354,77.26039781354,23.950132,0,1.98062014212,2.67571202788,24,5,15.831,77.58848181354,23.950132,0.223694,1.98062014212,0,0,0,294.9, 4.2, -0.2,0,0,1024,1024,1024,1024,0,0,0,0,279.8,-58,0,73,3.955,3.96,3.955,3.957,0,0,7.67,77.18,77.26039781354,23.622048,6,P-GPS,
10200,2023-06-15 17:24:53,52.2063659396688,0.0867265003352723,23.622048,23.622048,53.63834981354,77.26039781354,23.950132,0,2.00126646824,2.69833341968,24,5,15.812,77.58848181354,23.950132,0.223694,2.00126646824,0,0,0,294.9, 4.2, -0.1,0,0,1024,1024,1024,1024,0,0,0,0,279.8,-60.9,0,73,3.952,3.959,3.953,3.956,0,0,7.731,77.18,77.26039781354,23.622048,6,P-GPS,
10400,2023-06-15 17:24:53,52.2063660323672,0.0867265113834608,23.622048,23.622048,53.63834981354,77.26039781354,23.950132,0,2.03221463196,2.73224418192,24,5,15.812,77.58848181354,23.950132,0.223694,2.03221463196,0,0,0,295.1, 3.9, -0.7,0,0,1024,1024,1024,1024,0,0,0,0,279.8,-63.8,0,73,3.952,3.959,3.953,3.956,0,0,7.731,77.18,77.26039781354,23.622048,6,P-GPS,
10600,2023-06-15 17:24:53,52.2063661464572,0.086726528353723,23.622048,23.622048,53.63834981354,77.26039781354,23.950132,0,2.07018379328,2.77404208352,24,5,15.812,77.58848181354,23.950132,0.223694,2.07018379328,0,0,0,295, 3.3, -0.9,0,0,1024,1024,1024,1024,0,0,0,0,279.8,-66.7,0,73,3.952,3.959,3.953,3.956,0,0,7.731,77.18,77.26039781354,23.622048,6,P-GPS,
10800,2023-06-15 17:24:54,52.2063662530276,0.0867264621069675,23.622048,23.622048,53.63834981354,77.26039781354,23.950132,0,2.11177500196,2.8156496964,24,5,15.812,77.58848181354,23.950132,0.223694,2.11177500196,0,0,0,294.8, 3.9, -0.4,0,0,1024,1024,1024,1024,0,0,0,0,279.8,-69.6,0,73,3.952,3.959,3.953,3.956,0,0,7.731,77.18,77.26039781354,23.622048,6,P-GPS,
11000,2023-06-15 17:24:54,52.2063663700838,0.0867263579516885,23.622048,23.622048,53.63834981354,77.26039781354,23.950132,0,2.1597933762,2.86429471108,24,5,15.812,77.58848181354,23.950132,0.223694,2.1597933762,0,0,0,294.8, 4.3, 0.8,0,0,1024,1024,1024,1024,0,0,0,0,279.8,-72.6,0,73,3.952,3.959,3.953,3.956,0,0,7.731,77.18,77.26039781354,23.622048,6,P-GPS,
11200,2023-06-15 17:24:54,52.2063665645273,0.0867263368220827,23.622048,23.622048,53.63834981354,77.26039781354,23.622048,0,2.22832684296,2.93539379472,25,5,15.813,77.58848181354,23.950132,0.223694,2.22832684296,0,0,0,295.1, 3.6, 0,0,0,1024,1024,1024,1024,0,0,0,0,279.8,-75.5,0,72,3.949,3.955,3.949,3.952,0,0,7.601,77.36,77.26039781354,23.622048,6,P-GPS,
11400,2023-06-15 17:24:54,52.206366864618,0.0867263724637397,23.950132,23.950132,53.63834981354,77.58848181354,23.622048,0,2.32964902468,3.04517070112,25,5,15.813,77.58848181354,23.950132,0.223694,2.32964902468,0,0,0,295.1, 3.6, -0.7,0,0,1024,1024,1024,1024,0,0,0,0,279.8,-78.4,0,72,3.949,3.955,3.949,3.952,0,0,7.601,77.36,77.58848181354,23.950132,6,P-GPS,
11600,2023-06-15 17:24:54,52.206367223572,0.0867264151659275,23.950132,23.950132,53.63834981354,77.58848181354,23.622048,0,2.45179797872,3.17648304128,26,5,15.813,77.58848181354,23.950132,0.223694,2.45179797872,0,0,0,295.2, 3.6, -1.2,0,0,1024,1024,1024,1024,0,0,0,0,279.8,-81.3,0,72,3.949,3.955,3.949,3.952,0,0,7.601,77.36,77.58848181354,23.950132,6,P-GPS,
11800,2023-06-15 17:24:55,52.2063676085823,0.0867264127758666,23.950132,23.950132,53.63834981354,77.58848181354,23.622048,0,2.58674220876,3.3169620484,26,5,15.813,77.58848181354,23.950132,0.223694,2.58674220876,0,0,0,295, 4, -0.6,0,0,1024,1024,1024,1024,0,0,0,0,279.8,-84.2,0,72,3.949,3.955,3.949,3.952,0,0,7.601,77.36,77.58848181354,23.950132,6,P-GPS,
12000,2023-06-15 17:24:55,52.2063680400061,0.0867264393478739,23.950132,23.950132,53.63834981354,77.58848181354,23.622048,0,2.73693250228,3.4744751768,26,5,15.813,77.58848181354,23.950132,0.223694,2.73693250228,0,0,0,295.1, 3.9, -0.6,0,0,1024,1024,1024,1024,0,0,0,0,279.8,-87.1,0,72,3.949,3.955,3.949,3.952,0,0,7.601,77.36,77.58848181354,23.950132,6,P-GPS,
12200,2023-06-15 17:24:55,52.2063685257956,0.0867265198594179,23.950132,23.950132,53.63834981354,77.58848181354,23.950132,0,2.90428486984,3.6526247888,26,5,15.794,77.58848181354,23.950132,0.223694,2.90428486984,0,0,0,295, 3.6, -0.9,0,0,1024,1024,1024,1024,0,0,0,0,279.8,-89.9,0,72,3.948,3.955,3.948,3.951,0,0,7.687,77.36,77.58848181354,23.950132,6,P-GPS,
12400,2023-06-15 17:24:55,52.206369017402,0.0867266366456289,23.950132,23.950132,53.63834981354,77.58848181354,23.950132,0,3.07317595136,3.8338911988,26,5,15.794,77.58848181354,23.950132,0.223694,3.07317595136,0,0,0,295.1, 3.8, -1.6,0,0,1024,1024,1024,1024,0,0,0,0,279.8,-89.9,0,72,3.948,3.955,3.948,3.951,0,0,7.687,77.36,77.58848181354,23.950132,6,P-GPS,
12600,2023-06-15 17:24:55,52.2063694394642,0.0867267593049854,23.622048,23.622048,53.63834981354,77.26039781354,23.950132,0,3.21826125784,3.9902888416,26,5,15.794,77.58848181354,23.950132,0.223694,3.21826125784,0,0,0,294.9, 3.4, -1.3,0,0,1024,1024,1070,1024,0,0,7,0,279.8,-89.9,0,72,3.948,3.955,3.948,3.951,0,0,7.687,77.36,77.26039781354,23.622048,6,P-GPS,
12800,2023-06-15 17:24:56,52.2063697770245,0.0867268563014401,23.622048,23.622048,53.63834981354,77.26039781354,23.950132,0,3.3350722852,4.1153544624,26,5,15.794,77.58848181354,23.950132,0.223694,3.3350722852,0,0,0,294.8, 2.7, 0.3,0,0,1024,1024,1684,1024,0,0,100,0,279.8,-90,0,72,3.948,3.955,3.948,3.951,0,0,7.687,77.36,77.26039781354,23.622048,6,P-GPS,
13000,2023-06-15 17:24:56,52.2063701527033,0.0867269364678646,23.622048,23.622048,53.63834981354,77.26039781354,23.950132,0,3.4668308196,4.2535762516,26,5,15.794,77.58848181354,23.950132,0.223694,3.4668308196,0,0,-0.223694,295.3, 3.1, 0.2,0,0,1024,1024,1684,1024,0,0,100,0,279.8,-90,0,72,3.948,3.955,3.948,3.951,0,0,7.687,77.36,77.26039781354,23.622048,6,P-GPS,
13200,2023-06-15 17:24:56,52.2063705665049,0.0867270127449249,24.278216,24.278216,53.63834981354,77.91656581354,24.278216,0,3.6129266248,4.405511952,26,5,15.799,77.91656581354,24.278216,0.223694,3.6129266248,0,0,-2.013246,294.5, 2.8, -0.4,0,0,1024,1024,1684,1024,0,0,100,0,279.8,-90,0,72,3.946,3.953,3.946,3.948,0,0,7.552,77.36,77.91656581354,24.278216,6,P-GPS,
13400,2023-06-15 17:24:56,52.2063709655157,0.0867270559905665,25.262468,25.262468,53.63834981354,78.90081781354,25.262468,0,3.755249464,4.5514109068,26,5,15.799,78.90081781354,25.262468,0.223694,3.755249464,0,0,-4.47388,294.8, 3.9, -0.3,0,0,1024,1024,1684,1024,0,0,100,0,279.8,-90,0,72,3.946,3.953,3.946,3.948,0,0,7.552,77.36,78.90081781354,25.262468,6,P-GPS,
13600,2023-06-15 17:24:56,52.2063712755291,0.0867271685387991,26.902888,26.902888,53.63834981354,80.54123781354,27.230972,0,3.863517184,4.6672901756,26,5,15.799,80.54123781354,26.902888,0.223694,3.863517184,0,0,-6.934514,294.8, 3.5, 0.2,0,0,1024,1024,1684,1024,0,0,100,0,279.8,-89.9,0,72,3.946,3.953,3.946,3.948,0,0,7.552,77.36,80.54123781354,26.902888,6,P-GPS,
13800,2023-06-15 17:24:57,52.2063715441685,0.0867273177627362,29.52756,29.52756,53.63834981354,83.16590981354,29.52756,0,3.9561681056,4.770833486,26,5,15.799,83.16590981354,29.52756,0.223694,3.9561681056,0,0,-9.395148,295.2, 2.8, 0.4,0,0,1024,1024,1684,1024,0,0,100,0,279.8,-89.9,0,72,3.946,3.953,3.946,3.948,0,0,7.552,77.36,83.16590981354,29.52756,6,P-GPS,
14000,2023-06-15 17:24:57,52.2063717597015,0.0867275197191659,32.8084,32.8084,53.63834981354,86.44674981354,32.8084,0,4.0287730948,4.8615159036,26,5,15.799,86.44674981354,32.8084,0.223694,4.0287730948,0,0,-11.855782,295.5, 3, 0.8,0,0,1024,1024,1684,1024,0,0,100,0,279.8,-89.9,0,72,3.946,3.953,3.946,3.948,0,0,7.552,77.36,86.44674981354,32.8084,6,P-GPS,
14200,2023-06-15 17:24:57,52.2063719477605,0.0867278728654025,36.745408,36.745408,53.63834981354,90.38375781354,36.745408,0,4.0887796584,4.9661090828,26,5,15.562,90.38375781354,36.745408,0.223694,4.0887796584,0,0,-12.974252,296.2, 0.2, -0.7,0,0,1024,1024,1684,1024,0,0,100,0,279.8,-90,0,72,3.869,3.879,3.869,3.87,0,0,9.678,77.36,90.38375781354,36.745408,6,P-GPS,
14400,2023-06-15 17:24:57,52.206372084934,0.0867280595902727,41.0105,41.0105,53.63834981354,94.64884981354,40.682416,0,4.1349738856,5.0312665652,26,5,15.562,94.64884981354,41.0105,0.223694,4.1349738856,0,0,-13.197946,296.1, 1.8, -1.3,0,0,1024,1024,1684,1024,0,0,100,0,279.8,-89.9,0,72,3.869,3.879,3.869,3.87,0,0,9.678,77.36,94.64884981354,41.0105,6,P-GPS,
14600,2023-06-15 17:24:57,52.2063721129885,0.0867280976910144,44.947508,44.947508,53.63834981354,98.58585781354,44.619424,0,4.1444883216,5.0445867756,26,5,15.562,98.58585781354,44.947508,0.223694,4.1444883216,0,0,-13.42164,296, 1.4, -0.7,0,0,1024,1024,1684,1024,0,0,100,0,279.8,-90,0,72,3.869,3.879,3.869,3.87,0,0,9.678,77.36,98.58585781354,44.947508,6,P-GPS,
14800,2023-06-15 17:24:58,52.2063721182572,0.0867280191829103,48.884516,48.884516,53.63834981354,102.52286581354,46.587928,0.223694,4.1478347784,5.0622705032,26,5,15.562,102.52286581354,48.884516,0.223694,4.1478347784,0,-0.223694,-13.42164,296.8, 3.3, -0.5,0,0,1024,1024,1684,1024,0,0,100,0,279.8,-90,0,72,3.869,3.879,3.869,3.87,0,0,9.678,77.36,102.52286581354,48.884516,6,P-GPS,
15000,2023-06-15 17:24:58,52.2063721729484,0.0867277799509673,53.149608,53.149608,53.63834981354,106.78795781354,50.196852,0.223694,4.172572312,5.1193571192,26,5,15.562,106.78795781354,53.149608,0.223694,4.172572312,0,-0.223694,-13.197946,299.9, 4.6, -0.1,0,0,1024,1024,1684,1024,0,0,100,0,279.8,-90,0,72,3.869,3.879,3.869,3.87,0,0,9.678,77.36,106.78795781354,53.149608,6,P-GPS,
15200,2023-06-15 17:24:58,52.2063722340177,0.0867275230982777,57.4147,57.4147,53.63834981354,111.05304981354,53.805776,0.223694,4.2006563024,5.180938486,26,5,15.418,111.05304981354,57.4147,0.223694,4.2006563024,0,-0.223694,-13.197946,300.3, 5.5, 0,0,0,1024,1024,1684,1024,0,0,100,0,279.8,-89.9,0,72,3.876,3.881,3.877,3.882,0,0,14.971,77.36,111.05304981354,57.4147,6,P-GPS,
15400,2023-06-15 17:24:58,52.2063722313063,0.0867273509099228,61.351708,61.351708,53.63834981354,114.99005781354,57.4147,0,4.204068376,5.2194555476,26,5,15.418,114.99005781354,61.351708,0.223694,4.204068376,0,0,-13.197946,300.4, 5.1, 0.7,0,0,1024,1024,1684,1024,0,0,100,0,279.8,-90,0,72,3.876,3.881,3.877,3.882,0,0,14.971,77.36,114.99005781354,61.351708,6,P-GPS,
15600,2023-06-15 17:24:58,52.2063721966231,0.0867272129028022,65.288716,65.288716,53.63834981354,118.92706581354,61.023624,0,4.1952757248,5.2528216904,26,5,15.418,118.92706581354,65.288716,0.223694,4.204068376,0,0,-13.197946,300.5, 5.1, 1.4,0,0,1024,1024,1684,1024,0,0,100,0,279.8,-89.9,0,72,3.876,3.881,3.877,3.882,0,0,14.971,77.36,118.92706581354,65.288716,6,P-GPS,
15800,2023-06-15 17:24:59,52.2063721708945,0.0867271591567945,69.225724,69.225724,53.63834981354,122.86407381354,64.632548,0,4.187500134,5.268044788,26,5,15.418,122.86407381354,69.225724,0.223694,4.204068376,0,0,-13.197946,300.5, 5.1, 1.9,0,0,1024,1024,1684,1024,0,0,100,0,279.8,-89.9,0,72,3.876,3.881,3.877,3.882,0,0,14.971,77.36,122.86407381354,69.225724,6,P-GPS,
16000,2023-06-15 17:24:59,52.206372188461,0.0867272623802511,73.162732,73.162732,53.63834981354,126.80108181354,68.569556,0,4.190945016,5.29199492,26,5,15.418,126.80108181354,73.162732,0.223694,4.204068376,0,0,-13.197946,300.5, 4.9, 0.8,0,0,1024,1024,1684,1024,0,0,100,0,279.8,-89.9,0,72,3.876,3.881,3.877,3.882,0,0,14.971,77.36,126.80108181354,73.162732,6,P-GPS,
16200,2023-06-15 17:24:59,52.2063721954216,0.0867274408777376,76.771656,76.771656,53.63834981354,130.41000581354,72.506564,0,4.1887140448,5.3319883596,26,5,15.514,130.41000581354,76.771656,0.223694,4.204068376,0,0,-13.42164,300.4, 4.2, 0.7,0,0,1024,1024,1684,1024,0,0,100,0,279.8,-90,0,72,3.877,3.88,3.876,3.883,0,0,12.12,77.54,130.41000581354,76.771656,6,P-GPS,
16400,2023-06-15 17:24:59,52.2063722251574,0.0867276282906622,80.38058,80.38058,53.63834981354,134.01892981354,76.443572,0,4.1949148324,5.3752954476,26,5,15.514,134.01892981354,80.38058,0.223694,4.204068376,0,0,-13.42164,300.6, 4.6, 1.2,0,0,1024,1024,1684,1024,0,0,100,0,279.8,-90,0,72,3.877,3.88,3.876,3.883,0,0,12.12,77.54,134.01892981354,80.38058,6,P-GPS,
16600,2023-06-15 17:24:59,52.2063722884948,0.0867278184313404,83.989504,83.989504,53.63834981354,137.62785381354,80.38058,0,4.2137140456,5.4236550292,26,5,15.514,137.62785381354,83.989504,0.223694,4.2137140456,0,0,-13.197946,300.5, 4.5, 0.8,0,0,1024,1024,1684,1024,0,0,100,0,279.8,-89.9,0,72,3.877,3.88,3.876,3.883,0,0,12.12,77.54,137.62785381354,83.989504,6,P-GPS,
16800,2023-06-15 17:25:00,52.2063724032337,0.0867280885636992,87.926512,87.926512,53.63834981354,141.56486181354,83.66142,0,4.2501969864,5.4971458452,26,5,15.514,141.56486181354,87.926512,0.223694,4.2501969864,0,0,-12.974252,300.5, 4.3, 0.4,0,0,1024,1024,1684,1024,0,0,100,0,279.8,-89.9,0,72,3.877,3.88,3.876,3.883,0,0,12.12,77.54,141.56486181354,87.926512,6,P-GPS,
17000,2023-06-15 17:25:00,52.2063725892794,0.08672845695198,91.535436,91.535436,53.63834981354,145.17378581354,83.66142,0,4.3123032876,5.6039043788,26,5,15.514,145.17378581354,91.535436,0.223694,4.3123032876,0,0,-13.197946,300.5, 2.5, -0.8,0,0,1024,1024,1684,1024,0,0,100,0,279.8,-90,0,72,3.877,3.88,3.876,3.883,0,0,12.12,77.54,145.17378581354,91.535436,6,P-GPS,
17200,2023-06-15 17:25:00,52.2063728320617,0.0867286974215472,95.14436,95.14436,53.63834981354,148.78270981354,83.66142,0,4.39796602,5.707513306,26,5,15.469,148.78270981354,95.14436,0.223694,4.39796602,0,0,-13.42164,300.4, 3.3, -2,0,0,1024,1024,1684,1024,0,0,100,0,279.8,-90,0,72,3.872,3.879,3.872,3.876,0,0,12.608,77.54,148.78270981354,95.14436,6,P-GPS,
17400,2023-06-15 17:25:00,52.2063730486613,0.0867287561748438,99.081368,99.081368,53.63834981354,152.71971781354,83.66142,0,4.4763452876,5.7876314188,26,5,15.469,152.71971781354,99.081368,0.223694,4.4763452876,0,0,-13.42164,300.3, 3.9, -1.9,0,0,1024,1024,1684,1024,0,0,100,0,279.8,-89.9,0,72,3.872,3.879,3.872,3.876,0,0,12.608,77.54,152.71971781354,99.081368,6,P-GPS,
17600,2023-06-15 17:25:00,52.2063732388513,0.0867287230101828,102.690292,102.690292,53.63834981354,156.32864181354,83.66142,0,4.5459975208,5.8574148856,26,5,15.469,156.32864181354,102.690292,0.223694,4.5459975208,0,0,-13.42164,300.3, 4.5, -1.7,0,0,1024,1024,1684,1024,0,0,100,0,279.8,-89.9,0,72,3.872,3.879,3.872,3.876,0,0,12.608,77.54,156.32864181354,102.690292,6,P-GPS,
17800,2023-06-15 17:25:01,52.2063734304377,0.0867286689404619,106.299216,106.299216,53.63834981354,159.93756581354,83.66142,0,4.6163715388,5.9283466464,26,5,15.469,159.93756581354,106.299216,0.223694,4.6163715388,0,0,-13.42164,300.3, 4.7, -1.8,0,0,1024,1024,1684,1024,0,0,100,0,279.8,-90,0,72,3.872,3.879,3.872,3.876,0,0,12.608,77.54,159.93756581354,106.299216,6,P-GPS,
18000,2023-06-15 17:25:01,52.2063736241336,0.0867286216062479,110.236224,110.236224,53.63834981354,163.87457381354,83.66142,0,4.6874345332,5.9998033416,26,5,15.469,163.87457381354,110.236224,0.223694,4.6874345332,0,0,-13.197946,300.4, 5.6, -2.2,0,0,1024,1024,1684,1024,0,0,100,0,279.8,-90,0,72,3.872,3.879,3.872,3.876,0,0,12.608,77.54,163.87457381354,110.236224,6,P-GPS,
18200,2023-06-15 17:25:01,52.2063737702275,0.0867285373097492,114.173232,114.173232,53.63834981354,167.81158181354,83.66142,0,4.7415683932,6.0563322148,26,5,15.462,167.81158181354,114.173232,0.223694,4.7415683932,0,0,-13.197946,300.2, 4.9, -1.4,0,0,1024,1024,1684,1024,0,0,100,0,279.8,-90,0,72,3.862,3.87,3.862,3.867,0,0,12.757,77.72,167.81158181354,114.173232,6,P-GPS,
18400,2023-06-15 17:25:01,52.2063738724437,0.0867284033462044,118.11024,118.11024,53.63834981354,171.74858981354,83.66142,0,4.7803807304,6.104166862,26,5,15.462,171.74858981354,118.11024,0.223694,4.7803807304,0,0,-13.197946,300.2, 5, -0.6,0,0,1024,1024,1684,1024,0,0,100,0,279.8,-90,0,72,3.862,3.87,3.862,3.867,0,0,12.757,77.72,171.74858981354,118.11024,6,P-GPS,
18600,2023-06-15 17:25:01,52.2063739833404,0.0867282494081114,122.047248,122.047248,53.63834981354,175.68559781354,83.66142,0,4.8227691832,6.1572836616,26,5,15.462,175.68559781354,122.047248,0.223694,4.8227691832,0,0,-13.42164,300.5, 5.4, -0.8,0,0,1024,1024,1684,1024,0,0,100,0,279.8,-90,0,72,3.862,3.87,3.862,3.867,0,0,12.757,77.72,175.68559781354,122.047248,6,P-GPS,
18800,2023-06-15 17:25:02,52.2063741007843,0.0867281272782292,125.984256,125.984256,53.63834981354,179.62260581354,83.66142,0,4.867290182,6.2081038732,26,5,15.462,179.62260581354,125.984256,0.223694,4.867290182,0,0,-13.197946,300.4, 5.7, -0.2,0,0,1024,1024,1666,1024,0,0,97,0,279.8,-90,0,72,3.862,3.87,3.862,3.867,0,0,12.757,77.72,179.62260581354,125.984256,6,P-GPS,
19000,2023-06-15 17:25:02,52.2063742609408,0.0867280816586906,129.59318,129.59318,53.63834981354,183.23152981354,83.66142,0,4.9262796852,6.2674214604,26,5,15.462,183.23152981354,129.59318,0.223694,4.9262796852,0,0,-13.42164,300.2, 5.3, -0.6,0,0,1024,1024,1643,1024,0,0,94,0,279.8,-90,0,72,3.862,3.87,3.862,3.867,0,0,12.757,77.72,183.23152981354,129.59318,6,P-GPS,
19200,2023-06-15 17:25:02,52.2063744671273,0.0867280600083477,133.202104,133.202104,53.63834981354,186.84045381354,83.66142,0,5.0016733884,6.3428151636,26,5,15.414,186.84045381354,133.202104,0.223694,5.0016733884,0,0,-12.750558,300.2, 6, -1.9,0,0,1024,1024,1024,1024,0,0,0,0,279.8,-90,0,72,3.851,3.856,3.852,3.857,0,0,12.778,77.9,186.84045381354,133.202104,6,P-GPS,
19400,2023-06-15 17:25:02,52.2063746425886,0.0867280376856772,136.482944,136.482944,53.63834981354,190.12129381354,83.66142,0,5.0658794272,6.4070212024,26,5,15.414,190.12129381354,136.482944,0.223694,5.0658794272,0,0,-11.632088,300.3, 6.2, -2.8,0,0,1024,1024,1024,1024,0,0,0,0,279.8,-89.9,0,72,3.851,3.856,3.852,3.857,0,0,12.778,77.9,190.12129381354,136.482944,6,P-GPS,
19600,2023-06-15 17:25:02,52.206374787316,0.0867279572505838,138.779532,138.779532,53.63834981354,192.41788181354,83.66142,0,5.1198164368,6.4627954824,26,5,15.414,192.41788181354,138.779532,0.223694,5.1198164368,0,0,-9.618842,300.3, 6.8, -3,0,0,1024,1024,724,1024,0,0,-45,0,279.8,-90,0,72,3.851,3.856,3.852,3.857,0,0,12.778,77.9,192.41788181354,138.779532,6,P-GPS,
19800,2023-06-15 17:25:03,52.2063749248365,0.0867278208511078,140.419952,140.419952,53.63834981354,194.05830181354,83.66142,0,5.172080218,6.5215225184,26,5,15.414,194.05830181354,140.419952,0.223694,5.172080218,0,0,-7.158208,300.3, 7.4, -2.9,0,0,1024,1024,364,1024,0,0,-100,0,279.8,-90,0,72,3.851,3.856,3.852,3.857,0,0,12.778,77.9,194.05830181354,140.419952,6,P-GPS,
20000,2023-06-15 17:25:03,52.2063750473478,0.0867276547377275,141.07612,141.07612,53.63834981354,194.71446981354,83.66142,0,5.2195867812,6.5796261948,26,5,15.414,194.71446981354,141.07612,0.223694,5.2195867812,0,0,-4.697574,300.2, 8.3, -3.6,0,0,1024,1024,364,1024,0,0,-100,0,279.8,-90,0,72,3.851,3.856,3.852,3.857,0,0,12.778,77.9,194.71446981354,141.07612,6,P-GPS,
20200,2023-06-15 17:25:03,52.2063751469126,0.0867274759099749,141.404204,141.404204,53.63834981354,195.04255381354,83.66142,0,5.2592193284,6.6336616296,26,5,15.541,195.04255381354,141.404204,0.223694,5.2592193284,0,0,-2.23694,300, 8.8, -4.9,0,0,1024,1024,364,1024,0,0,-100,0,279.8,-90,0,72,3.941,3.952,3.948,3.953,0,0,12.078,78.08,195.04255381354,141.404204,6,P-GPS,
20400,2023-06-15 17:25:03,52.2063751862562,0.0867272954129804,142.060372,142.060372,53.63834981354,195.69872181354,83.66142,0,5.2772967568,6.6764765916,26,5,15.541,195.69872181354,142.060372,0.223694,5.2772967568,0,0,0,300, 9.1, -7.2,0,0,1024,1024,394,1024,0,0,-95,0,279.8,-89.9,0,72,3.941,3.952,3.948,3.953,0,0,12.078,78.08,195.69872181354,142.060372,6,P-GPS,
20600,2023-06-15 17:25:03,52.2063751557686,0.0867271021312791,141.404204,141.404204,53.63834981354,195.04255381354,83.66142,0,5.2705710348,6.7210960156,26,5,15.541,195.69872181354,142.060372,0.223694,5.2772967568,0,0,2.460634,300, 8.1, -9.5,0,0,1024,1024,424,1024,0,0,-91,0,279.8,-90,0,72,3.941,3.952,3.948,3.953,0,0,12.078,78.08,195.04255381354,141.404204,6,P-GPS,
20800,2023-06-15 17:25:04,52.206374982811,0.0867268887553299,140.091868,140.091868,53.63834981354,193.73021781354,83.66142,0,5.2131235264,6.800197068,26,5,15.541,195.69872181354,142.060372,0.223694,5.2772967568,0,0,4.921268,299.5, 7.9, -10.7,0,0,1024,1024,1024,1024,0,0,0,0,279.8,-89.9,0,72,3.941,3.952,3.948,3.953,0,0,12.078,78.08,193.73021781354,140.091868,6,P-GPS,
21000,2023-06-15 17:25:04,52.2063745803884,0.0867266755287869,138.123364,138.123364,53.63834981354,191.76171381354,83.66142,0.223694,5.0732285088,6.9545933984,26,5,15.541,195.69872181354,142.060372,0.223694,5.2772967568,-0.223694,0,6.71082,300, 4.1, -10.3,0,0,1024,1024,1024,1024,0,0,0,0,279.8,-90,0,72,3.941,3.952,3.948,3.953,0,0,12.078,78.08,191.76171381354,138.123364,6,P-GPS,
21200,2023-06-15 17:25:04,52.2063736523466,0.0867261682933037,136.482944,136.482944,53.63834981354,190.12129381354,83.66142,0.671082,4.7544949028,7.311680024,26,5,15.871,195.69872181354,142.060372,0.671082,5.2772967568,-0.671082,0,4.921268,300.6, 0.3, -4.9,0,0,1024,1024,1003,1024,0,0,-3,0,279.8,-89.9,0,72,3.974,3.978,3.976,3.979,0,0,4.37,78.62,190.12129381354,136.482944,6,P-GPS,
21400,2023-06-15 17:25:04,52.2063725725182,0.0867251456285918,135.498692,135.498692,53.63834981354,189.13704181354,83.66142,0.7158208,4.4118111648,7.7671918496,26,5,15.871,195.69872181354,142.060372,0.7158208,5.2772967568,-0.671082,-0.223694,2.684328,301.2, 3.1, -4.2,0,0,1024,1024,936,1024,0,0,-13,0,279.8,-89.9,0,72,3.974,3.978,3.976,3.979,0,0,4.37,78.62,189.13704181354,135.498692,6,P-GPS,
21600,2023-06-15 17:25:04,52.2063713666811,0.086723975193376,135.170608,135.170608,53.63834981354,188.80895781354,83.66142,0.7158208,4.0574476364,8.2790685064,26,5,15.871,195.69872181354,142.060372,0.7158208,5.2772967568,-0.671082,-0.223694,0.447388,298.4, 6.8, -1.1,0,0,1024,1024,379,1024,0,0,-98,0,279.8,-90,0,72,3.974,3.978,3.976,3.979,0,0,4.37,78.62,188.80895781354,135.170608,6,P-GPS,
21800,2023-06-15 17:25:05,52.2063701804409,0.0867230435589223,134.842524,134.842524,53.63834981354,188.48087381354,83.66142,0.894776,3.7250329276,8.7594162908,26,5,15.871,195.69872181354,142.060372,0.894776,5.2772967568,-0.894776,0,1.342164,290.9, 8.1, 1.4,0,0,1024,1024,995,1024,0,0,-4,0,279.8,-90,0,72,3.974,3.978,3.976,3.979,0,0,4.37,78.62,188.48087381354,134.842524,6,P-GPS,
22000,2023-06-15 17:25:05,52.2063690966781,0.0867223701156972,134.186356,134.186356,53.63834981354,187.82470581354,83.66142,0.671082,3.4330381676,9.1825134172,26,5,15.871,195.69872181354,142.060372,0.894776,5.2772967568,-0.671082,0,2.908022,289, 3.4, 7.1,0,0,1024,1024,1024,1024,0,0,0,0,279.8,-90,0,72,3.974,3.978,3.976,3.979,0,0,4.37,78.62,187.82470581354,134.186356,6,P-GPS,
22200,2023-06-15 17:25:05,52.2063685541414,0.0867219159857849,133.530188,133.530188,53.63834981354,187.16853781354,83.66142,0,3.311023728,9.4049871776,26,5,15.618,195.69872181354,142.060372,0.894776,5.2772967568,0,0,1.342164,289, 0.3, 6.6,0,0,1024,1024,1024,1024,0,0,0,0,279.8,-90,0,72,3.882,3.899,3.927,3.955,0,0,6.565,78.44,187.16853781354,133.530188,6,P-GPS,
22400,2023-06-15 17:25:05,52.2063686947053,0.0867214223488787,133.202104,133.202104,53.63834981354,186.84045381354,83.66142,0.447388,3.412729768,9.5266735332,26,5,15.618,195.69872181354,142.060372,0.894776,5.2772967568,0.447388,0,0.223694,289.7, 8.8, 0.5,0,0,1024,1024,1024,1024,0,0,0,0,279.8,-89.9,0,72,3.882,3.899,3.927,3.955,0,0,6.565,78.44,186.84045381354,133.202104,6,P-GPS,
22600,2023-06-15 17:25:05,52.2063689433645,0.0867213403782225,133.202104,133.202104,53.63834981354,186.84045381354,83.66142,0.447388,3.499343944,9.6192260296,26,5,15.618,195.69872181354,142.060372,0.894776,5.2772967568,0.447388,0,0,288.6, 9, -1.3,0,0,1024,1024,822,1024,0,0,-31,0,279.8,-90,0,72,3.882,3.899,3.927,3.955,0,0,6.565,78.44,186.84045381354,133.202104,6,P-GPS,
22800,2023-06-15 17:25:06,52.2063691568415,0.0867216217710837,133.202104,133.202104,53.63834981354,186.84045381354,83.66142,0.3131716,3.5336943388,9.7193572664,26,5,15.618,195.69872181354,142.060372,0.894776,5.2772967568,0.223694,0.223694,0.894776,289.1, 6.1, -1.1,0,0,1024,1024,1024,1024,0,0,0,0,279.8,-89.9,0,72,3.882,3.899,3.927,3.955,0,0,6.565,78.44,186.84045381354,133.202104,6,P-GPS,
23000,2023-06-15 17:25:06,52.2063693836593,0.0867219746202556,132.217852,132.217852,53.63834981354,185.85620181354,83.66142,0.3131716,3.5671260984,9.8336945404,26,5,15.618,195.69872181354,142.060372,0.894776,5.2772967568,0.223694,0.223694,1.789552,289.4, 0.8, 0.5,0,0,1024,1024,1024,1024,0,0,0,0,279.8,-90,0,72,3.882,3.899,3.927,3.955,0,0,6.565,78.44,185.85620181354,132.217852,6,P-GPS,
23200,2023-06-15 17:25:06,52.2063697914084,0.0867221213047257,131.889768,131.889768,53.63834981354,185.52811781354,83.66142,0.447388,3.6835959184,9.9860239416,26,5,15.544,195.69872181354,142.060372,0.894776,5.2772967568,0.447388,0,0.671082,289.5, 4.4, -0.4,0,0,1024,1024,1024,1024,0,0,0,0,279.8,-89.9,0,72,3.908,3.92,3.936,3.962,0,0,9.242,78.26,185.52811781354,131.889768,6,P-GPS,
23400,2023-06-15 17:25:06,52.2063703080409,0.0867221976224141,131.889768,131.889768,53.63834981354,185.52811781354,83.66142,0.447388,3.8452429052,10.1752956012,26,5,15.544,195.69872181354,142.060372,0.894776,5.2772967568,0.447388,0,0,289.2, 10.1, -3.7,0,0,1675,1024,1024,1024,99,0,0,0,279.8,-89.9,0,72,3.908,3.92,3.936,3.962,0,0,9.242,78.26,185.52811781354,131.889768,6,P-GPS,
23600,2023-06-15 17:25:06,52.2063706719637,0.0867225422193012,131.889768,131.889768,53.63834981354,185.52811781354,83.66142,0.223694,3.9340880524,10.3288061048,26,5,15.544,195.69872181354,142.060372,0.894776,5.2772967568,0.223694,0,0,289.5, -2, -4,0,0,1684,1024,1024,1024,100,0,0,0,279.8,-89.9,0,72,3.908,3.92,3.936,3.962,0,0,9.242,78.26,185.52811781354,131.889768,6,P-GPS,
23800,2023-06-15 17:25:07,52.2063710833987,0.0867220854035739,131.889768,131.889768,53.63834981354,185.52811781354,83.66142,1.11847,4.1126641736,10.5103677904,26,5,15.544,195.69872181354,142.060372,1.11847,5.2772967568,0.671082,-0.894776,-0.223694,288.9, -25.6, -0.8,0,0,1684,1024,1024,1024,100,0,0,0,279.8,-89.9,0,72,3.908,3.92,3.936,3.962,0,0,9.242,78.26,185.52811781354,131.889768,6,P-GPS,
24000,2023-06-15 17:25:07,52.2063720338602,0.0867191768659464,131.889768,131.889768,53.63834981354,185.52811781354,83.66142,3.4001488,4.7161746916,11.247375688,26,5,15.544,195.69872181354,142.060372,3.4001488,5.2772967568,1.342164,-3.131716,0,289.8, -27.6, -1.1,0,0,1684,1024,1024,1024,100,0,0,0,279.8,-90,0,72,3.908,3.92,3.936,3.962,0,0,9.242,78.26,185.52811781354,131.889768,6,P-GPS,
24200,2023-06-15 17:25:07,52.2063736316468,0.0867134382699628,131.889768,131.889768,53.63834981354,185.52811781354,83.66142,5.816044,5.91453431,12.65666051,26,5,15.604,195.69872181354,142.060372,5.816044,5.91453431,2.23694,-5.368656,0.223694,291.1, -25.2, -4.2,0,0,1684,1024,1024,1024,100,0,0,0,279.8,-89.9,0,72,3.915,3.924,3.916,3.924,0,0,8.136,78.8,185.52811781354,131.889768,6,P-GPS,
24400,2023-06-15 17:25:07,52.2063758357873,0.0867047990548754,131.561684,131.561684,53.63834981354,185.20003381354,83.66142,7.941137,7.800033058,14.7489834116,25,5,15.604,195.69872181354,142.060372,7.941137,7.800033058,2.908022,-7.381902,0,290.1, -19.7, -2.8,0,0,1684,1024,1024,1024,100,0,0,0,279.8,-90,0,72,3.915,3.924,3.916,3.924,0,0,8.136,78.8,185.20003381354,131.561684,6,P-GPS,
24600,2023-06-15 17:25:07,52.2063785027751,0.0866938534690613,131.561684,131.561684,53.63834981354,185.20003381354,83.66142,9.5517338,10.2753284128,17.3826121048,25,5,15.604,195.69872181354,142.060372,9.5517338,10.2753284128,3.35541,-8.94776,0,290.3, -21.6, -2.1,0,0,1684,1024,1024,1024,100,0,0,0,279.8,-90,0,72,3.915,3.924,3.916,3.924,0,0,8.136,78.8,185.20003381354,131.561684,6,P-GPS,
24800,2023-06-15 17:25:08,52.2063816583815,0.086680718777967,131.561684,131.561684,53.63834981354,185.20003381354,83.66142,11.3860246,13.3166999012,20.5369757228,25,5,15.604,195.69872181354,142.060372,11.3860246,13.3166999012,3.802798,-10.737312,0,289.6, -21.8, -1.9,0,0,1684,1024,1024,1024,100,0,0,0,279.8,-90,0,72,3.915,3.924,3.916,3.924,0,0,8.136,78.8,185.20003381354,131.561684,6,P-GPS,
25000,2023-06-15 17:25:08,52.2063852892487,0.0866654412433153,131.561684,131.561684,53.63834981354,185.20003381354,83.66142,13.0189908,16.89878663,24.2007225592,25,5,15.604,195.69872181354,142.060372,13.0189908,16.89878663,4.250186,-12.30317,0,289.2, -21.7, -1.9,0,0,1684,1024,1024,1024,100,0,0,0,279.8,-90,0,72,3.915,3.924,3.916,3.924,0,0,8.136,78.8,185.20003381354,131.561684,6,P-GPS,
25200,2023-06-15 17:25:08,52.2063893429063,0.0866481295174215,131.561684,131.561684,53.63834981354,185.20003381354,83.66142,14.7190652,20.9809061832,28.344325054,25,5,15.545,195.69872181354,142.060372,14.7190652,20.9809061832,4.921268,-13.869028,0,289.2, -21.3, -1.8,0,0,1684,1024,1024,1024,100,0,0,0,279.8,-89.9,0,72,3.896,3.906,3.895,3.905,0,0,8.787,78.8,185.20003381354,131.561684,6,P-GPS,
25400,2023-06-15 17:25:08,52.2063937970589,0.086628858897469,131.561684,131.4960672,53.70396661354,185.20003381354,83.66142,16.1283374,25.538222602,32.949148036,25,5,15.545,195.69872181354,142.060372,16.1283374,25.538222602,5.368656,-15.211192,0,289.3, -20.3, -1.9,0,0,1680,1024,1024,1024,99,0,0,0,279.8,-90,0,72,3.896,3.906,3.895,3.905,0,0,8.787,78.8,185.20003381354,131.561684,6,P-GPS,
25600,2023-06-15 17:25:08,52.2063986180043,0.0866077554577487,131.561684,131.4304504,53.76958341354,185.20003381354,83.66142,17.5376096,30.5359917908,37.984909352,25,5,15.545,195.69872181354,142.060372,17.5376096,30.5359917908,5.816044,-16.553356,0,289.1, -19.5, -2.2,0,0,1024,1024,1024,1024,0,0,0,0,279.8,-89.9,0,72,3.896,3.906,3.895,3.905,0,0,8.787,78.8,185.20003381354,131.561684,6,P-GPS,
25800,2023-06-15 17:25:09,52.2064037260101,0.0865849552259686,131.561684,131.397642,53.80239181354,185.20003381354,83.66142,18.678449,35.931431596,43.412731048,25,5,15.545,195.69872181354,142.060372,18.678449,35.931431596,6.039738,-17.671826,0,288.9, -17.1, -2.1,0,0,1024,1024,1024,1024,0,0,0,0,279.8,-90,0,72,3.896,3.906,3.895,3.905,0,0,8.787,78.8,185.20003381354,131.561684,6,P-GPS,
26000,2023-06-15 17:25:09,52.2064090042749,0.0865610252533521,131.561684,131.3320252,53.86800861354,185.20003381354,83.66142,19.1705758,41.590552512,49.099082936,25,5,15.545,195.69872181354,142.060372,19.1705758,41.590552512,6.263432,-18.119214,0,288.5, 17.5, -2.5,0,0,1024,1024,1024,1024,0,0,0,0,279.8,-89.9,0,72,3.896,3.906,3.895,3.905,0,0,8.787,78.8,185.20003381354,131.561684,6,P-GPS,
26200,2023-06-15 17:25:09,52.2064139248965,0.0865385407629848,131.561684,131.2664084,53.93362541354,185.20003381354,83.66142,16.9783746,46.9078099,54.4373377,25,5,15.632,195.69872181354,142.060372,19.1705758,46.9078099,5.368656,-16.105968,0,287.9, 30.1, -1.3,0,0,1024,999,1024,1024,0,-4,0,0,279.8,-90,0,72,3.908,3.917,3.91,3.913,0,0,8.628,78.8,185.20003381354,131.561684,6,P-GPS,
26400,2023-06-15 17:25:09,52.2064182278686,0.0865191551684795,131.561684,131.2336,53.96643381354,185.20003381354,83.66142,14.2269384,51.504922908,59.047245984,25,5,15.632,195.69872181354,142.060372,19.1705758,51.504922908,4.697574,-13.42164,0,287.9, 28.5, -2.1,0,0,1024,364,1024,1024,0,-100,0,0,279.8,-90,0,72,3.908,3.917,3.91,3.913,0,0,8.628,78.8,185.20003381354,131.561684,6,P-GPS,
26600,2023-06-15 17:25:09,52.2064218546536,0.0865028886562615,131.561684,131.1679832,54.03205061354,185.20003381354,83.66142,11.8110432,55.366143504,62.917324848,25,5,15.632,195.69872181354,142.060372,19.1705758,55.366143504,3.802798,-11.1847,0,286.9, 23.1, -14.5,0,0,1024,364,1024,1024,0,-100,0,0,279.8,-90,0,72,3.908,3.917,3.91,3.913,0,0,8.628,78.8,185.20003381354,131.561684,6,P-GPS,
26800,2023-06-15 17:25:10,52.2064242661994,0.0864888770683933,131.561684,131.1351748,54.06485901354,185.20003381354,83.66142,10.2675546,58.589896888,66.171590044,25,5,15.632,195.69872181354,142.060372,19.1705758,58.589896888,2.013246,-10.06623,0,285.3, 18.4, -22.2,0,0,1024,364,1024,1024,0,-100,0,0,279.8,-90,0,72,3.908,3.917,3.91,3.913,0,0,8.628,78.8,185.20003381354,131.561684,6,P-GPS,
27000,2023-06-15 17:25:10,52.2064250606186,0.0864761924444136,131.561684,131.1351748,54.06485901354,185.20003381354,83.66142,9.171454,61.31561876,69.02231192,26,5,15.632,195.69872181354,142.060372,19.1705758,61.31561876,0.223694,-9.171454,0,285.6, 17.3, -23.4,0,0,1024,364,1024,1024,0,-100,0,0,279.8,-89.9,0,72,3.908,3.917,3.91,3.913,0,0,8.628,78.8,185.20003381354,131.561684,6,P-GPS,
27200,2023-06-15 17:25:10,52.2064242989164,0.086464516470678,131.561684,131.1351748,54.06485901354,185.20003381354,83.66142,8.8582824,63.633860304,71.647640088,26,5,15.63,195.69872181354,142.060372,19.1705758,63.633860304,-1.565858,-8.724066,0,285.4, 16.4, -24.5,0,0,1024,364,1024,1024,0,-100,0,0,279.8,-90,0,72,3.883,3.891,3.891,3.895,0,0,8.061,78.98,185.20003381354,131.561684,6,P-GPS,
27400,2023-06-15 17:25:10,52.206422050305,0.0864536466957947,131.889768,131.4960672,54.03205061354,185.52811781354,83.66142,8.724066,65.619424672,74.2126008,25,5,15.63,195.69872181354,142.060372,19.1705758,65.619424672,-3.35541,-8.052984,0,285.3, 15.8, -25.3,0,0,1024,1024,1024,1024,0,0,0,0,279.8,-90,0,72,3.883,3.891,3.891,3.895,0,0,8.061,78.98,185.52811781354,131.889768,6,P-GPS,
27600,2023-06-15 17:25:10,52.2064183210939,0.0864435186741817,131.889768,131.561684,53.96643381354,185.52811781354,83.66142,8.9924988,67.31627512,76.854661252,26,5,15.63,195.69872181354,142.060372,19.1705758,67.31627512,-5.144962,-7.381902,0,285.1, 15.8, -25.6,0,0,1024,1024,1024,1024,0,0,0,0,279.8,-90,0,72,3.883,3.891,3.891,3.895,0,0,8.061,78.98,185.52811781354,131.889768,6,P-GPS,
27800,2023-06-15 17:25:11,52.2064132022509,0.0864342755561119,131.889768,131.5944924,53.93362541354,185.52811781354,83.66142,9.4846256,68.74015968,79.640094412,26,5,15.63,195.69872181354,142.060372,19.1705758,68.74015968,-6.71082,-6.71082,0,290.6, 21, -1.1,0,0,1024,1024,1024,1024,0,0,0,0,279.8,-89.9,0,72,3.883,3.891,3.891,3.895,0,0,8.061,78.98,185.52811781354,131.889768,6,P-GPS,
28000,2023-06-15 17:25:11,52.2064078880693,0.0864267960102634,132.217852,131.9881932,53.86800861354,185.85620181354,83.66142,7.4490102,69.84580276,82.200461948,26,5,15.63,195.69872181354,142.060372,19.1705758,69.84580276,-5.59235,-4.921268,-0.447388,290, 9.4, 24.6,0,0,1024,1024,1024,1024,0,0,0,0,279.8,-90,0,72,3.883,3.891,3.891,3.895,0,0,8.061,78.98,185.85620181354,132.217852,6,P-GPS,
28200,2023-06-15 17:25:11,52.2064039395749,0.0864211256937448,132.217852,132.05381,53.80239181354,185.85620181354,83.66142,5.368656,70.740815912,84.119425264,26,5,15.584,195.69872181354,142.060372,19.1705758,70.740815912,-3.802798,-3.802798,0,291.5, 13.2, 26.2,0,0,1024,1024,1024,1024,0,0,0,0,279.8,-90,0,71,3.888,3.891,3.891,3.869,0,0,9.44,78.8,185.85620181354,132.217852,6,P-GPS,
28400,2023-06-15 17:25:11,52.2064015628966,0.0864174790803342,132.217852,132.05381,53.80239181354,185.85620181354,83.66142,2.8632832,71.350395984,85.309714016,26,5,15.584,195.69872181354,142.060372,19.1705758,71.350395984,-1.789552,-2.23694,0.223694,292.1, 14, 23.7,0,0,1024,1024,1024,1024,0,0,0,0,279.8,-89.9,0,71,3.888,3.891,3.891,3.869,0,0,9.44,78.8,185.85620181354,132.217852,6,P-GPS,
28600,2023-06-15 17:25:11,52.2064005366179,0.0864156616310473,132.217852,132.0866184,53.76958341354,185.85620181354,83.66142,1.006623,71.670934052,85.862207472,26,5,15.584,195.69872181354,142.060372,19.1705758,71.670934052,-0.447388,-0.894776,0,290.6, 11.8, 9.9,0,0,1024,1024,1024,1024,0,0,0,0,279.8,-89.9,0,71,3.888,3.891,3.891,3.869,0,0,9.44,78.8,185.85620181354,132.217852,6,P-GPS,
28800,2023-06-15 17:25:12,52.2064002574176,0.0864151508194284,132.217852,132.0866184,53.76958341354,185.85620181354,83.66142,0.223694,71.762469488,86.0154227,26,5,15.584,195.69872181354,142.060372,19.1705758,71.762469488,0,-0.223694,0,289.3, 8.7, 1.5,0,0,1024,1024,1024,1024,0,0,0,0,279.8,-89.9,0,71,3.888,3.891,3.891,3.869,0,0,9.44,78.8,185.85620181354,132.217852,6,P-GPS,
29000,2023-06-15 17:25:12,52.2064001830781,0.0864151207914219,132.217852,132.0866184,53.76958341354,185.85620181354,83.66142,0,71.76345374,86.04330984,26,5,15.584,195.69872181354,142.060372,19.1705758,71.76345374,0,0,0,288.9, 6.3, -1.1,0,0,1024,892,1024,1024,0,-20,0,0,279.8,-90,0,71,3.888,3.891,3.891,3.869,0,0,9.44,78.8,185.85620181354,132.217852,6,P-GPS,
29200,2023-06-15 17:25:12,52.2064001453194,0.0864152141186898,132.217852,132.0866184,53.76958341354,185.85620181354,83.66142,0,71.74048786,86.068244224,26,5,15.608,195.69872181354,142.060372,19.1705758,71.76345374,0,0,0,288.7, 2.7, 0,0,0,1024,452,1024,1024,0,-87,0,0,279.8,-90,0,71,3.902,3.91,3.904,3.908,0,0,8.862,78.98,185.85620181354,132.217852,6,P-GPS,
29400,2023-06-15 17:25:12,52.2064002018954,0.0864151755631768,132.217852,132.0866184,53.76958341354,185.85620181354,83.66142,0.223694,71.752955052,86.090553936,26,5,15.608,195.69872181354,142.060372,19.1705758,71.76345374,0,-0.223694,0,288.9, 3.1, -8.9,0,0,1024,407,1024,1024,0,-93,0,0,279.8,-90,0,71,3.902,3.91,3.904,3.908,0,0,8.862,78.98,185.85620181354,132.217852,6,P-GPS,
29600,2023-06-15 17:25:12,52.2063999622357,0.0864147205577972,132.217852,132.0866184,53.76958341354,185.85620181354,83.66142,0.9395148,71.834976052,86.224740292,26,5,15.608,195.69872181354,142.060372,19.1705758,71.834976052,-0.671082,-0.671082,0,288.3, 5, -23.7,0,0,1024,407,1024,1024,0,-93,0,0,279.8,-90,0,71,3.902,3.91,3.904,3.908,0,0,8.862,78.98,185.85620181354,132.217852,6,P-GPS,
29800,2023-06-15 17:25:13,52.2063985250018,0.0864134764085784,132.217852,132.0866184,53.76958341354,185.85620181354,83.66142,2.5053728,72.005579732,86.818244248,26,5,15.608,195.69872181354,142.060372,19.1705758,72.005579732,-2.23694,-1.11847,0,287.3, 5.9, -26.9,0,0,1024,406,1024,1024,0,-94,0,0,279.8,-89.9,0,71,3.902,3.91,3.904,3.908,0,0,8.862,78.98,185.85620181354,132.217852,6,P-GPS,
30000,2023-06-15 17:25:13,52.2063956335457,0.0864114961258559,132.217852,132.1194268,53.73677501354,185.85620181354,83.66142,4.6080964,72.24737764,87.96260124,26,5,15.608,195.69872181354,142.060372,19.1705758,72.24737764,-4.250186,-1.789552,0,287.1, 6, -27,0,0,1024,407,1024,1024,0,-93,0,0,279.8,-89.9,0,71,3.902,3.91,3.904,3.908,0,0,8.862,78.98,185.85620181354,132.217852,6,P-GPS,
30200,2023-06-15 17:25:13,52.2063912766019,0.0864088083676434,132.217852,132.1850436,53.67115821354,185.85620181354,83.66142,6.4423872,72.578414396,89.66207636,26,5,15.629,195.69872181354,142.060372,19.1705758,72.578414396,-6.039738,-2.23694,0,287.1, 6, -27.1,0,0,1024,408,1024,1024,0,-93,0,0,279.8,-89.9,0,71,3.891,3.897,3.89,3.894,0,0,8.008,79.16,185.85620181354,132.217852,6,P-GPS,
30400,2023-06-15 17:25:13,52.2063856998141,0.0864055296392509,132.545936,132.545936,53.63834981354,186.18428581354,83.66142,8.0753534,73.02165588,91.824806088,26,5,15.629,195.69872181354,142.060372,19.1705758,73.02165588,-7.605596,-2.684328,0,287.1, 6.2, -26.9,0,0,1024,409,1024,1024,0,-93,0,0,279.8,-89.9,0,71,3.891,3.897,3.89,3.894,0,0,8.008,79.16,186.18428581354,132.545936,6,P-GPS,
30600,2023-06-15 17:25:13,52.2063784906465,0.0864014704063618,132.545936,132.545936,53.63834981354,186.18428581354,83.66142,9.6859502,73.645343564,94.606958408,26,5,15.629,195.69872181354,142.060372,19.1705758,73.645343564,-9.171454,-3.131716,0,287.1, 5.9, -26.4,0,0,1024,610,1024,1024,0,-63,0,0,279.8,-89.9,0,71,3.891,3.897,3.89,3.894,0,0,8.008,79.16,186.18428581354,132.545936,6,P-GPS,
30800,2023-06-15 17:25:14,52.2063702144001,0.0863969607254164,132.545936,132.545936,53.63834981354,186.18428581354,83.66142,11.0952224,74.449477448,97.790685544,26,5,15.629,195.69872181354,142.060372,19.1705758,74.449477448,-10.513618,-3.579104,0,287.3, 5.5, -25.9,0,0,1024,1024,1024,1024,0,0,0,0,279.8,-89.9,0,71,3.891,3.897,3.89,3.894,0,0,8.008,79.16,186.18428581354,132.545936,6,P-GPS,
31000,2023-06-15 17:25:14,52.2063608845188,0.0863919266447597,132.545936,132.545936,53.63834981354,186.18428581354,83.66142,12.30317,75.49540924,101.375987496,26,5,15.629,195.69872181354,142.060372,19.1705758,75.49540924,-11.632088,-4.026492,0,288.3, 5, -11.2,0,0,1024,1024,1024,1024,0,0,0,0,279.8,-89.9,0,71,3.891,3.897,3.89,3.894,0,0,8.008,79.16,186.18428581354,132.545936,6,P-GPS,
31200,2023-06-15 17:25:14,52.2063513408111,0.0863867572703196,132.545936,132.545936,53.63834981354,186.18428581354,83.66142,11.6097186,76.728676996,105.044622784,26,5,15.56,195.69872181354,142.060372,19.1705758,76.728676996,-10.961006,-3.802798,-0.447388,288.9, 3.4, 23,0,0,1024,1024,1024,1024,0,0,0,0,279.7,-89.9,0,71,3.883,3.891,3.885,3.889,0,0,9.242,78.98,186.18428581354,132.545936,6,P-GPS,
31400,2023-06-15 17:25:14,52.2063432433023,0.0863824737779891,132.545936,132.545936,53.63834981354,186.18428581354,83.66142,9.4175174,77.872705904,108.150265928,26,5,15.56,195.69872181354,142.060372,19.1705758,77.872705904,-8.94776,-2.908022,0,289.5, 5.1, 29.7,0,0,1024,1024,1024,1024,0,0,0,0,279.8,-89.9,0,71,3.883,3.891,3.885,3.889,0,0,9.242,78.98,186.18428581354,132.545936,6,P-GPS,
31600,2023-06-15 17:25:14,52.2063370880671,0.0863795411265653,132.545936,132.545936,53.63834981354,186.18428581354,83.66142,6.5094954,78.741144252,110.489832932,26,5,15.56,195.69872181354,142.060372,19.1705758,78.741144252,-6.263432,-1.789552,0,288.9, 3.2, 31,0,0,1024,1024,1024,1024,0,0,0,0,279.8,-89.9,0,71,3.883,3.891,3.885,3.889,0,0,9.242,78.98,186.18428581354,132.545936,6,P-GPS,
31800,2023-06-15 17:25:15,52.206333069294,0.0863778555600593,132.545936,132.545936,53.63834981354,186.18428581354,83.66142,3.690951,79.289372616,112.003940592,26,5,15.56,195.69872181354,142.060372,19.1705758,79.289372616,-3.579104,-0.894776,0.223694,289, 1.9, 29.2,0,0,1024,1024,1024,1024,0,0,0,0,279.8,-90,0,71,3.883,3.891,3.885,3.889,0,0,9.242,78.98,186.18428581354,132.545936,6,P-GPS,
32000,2023-06-15 17:25:15,52.2063310332944,0.0863771352234119,132.545936,132.545936,53.63834981354,186.18428581354,83.66142,1.5882274,79.546918556,112.763783136,26,5,15.56,195.69872181354,142.060372,19.1705758,79.546918556,-1.565858,-0.223694,0.223694,290, 3.2, 15.5,0,0,1024,1024,1024,1024,0,0,0,0,279.8,-90,0,71,3.883,3.891,3.885,3.889,0,0,9.242,78.98,186.18428581354,132.545936,6,P-GPS,
