time(millisecond),datetime(utc),latitude,longitude,height_above_takeoff(feet),height_above_ground_at_drone_location(feet),ground_elevation_at_drone_location(feet),altitude_above_seaLevel(feet),height_sonar(feet),speed(mph),distance(feet),mileage(feet),satellites,gpslevel,voltage(v),max_altitude(feet),max_ascent(feet),max_speed(mph),max_distance(feet), xSpeed(mph), ySpeed(mph), zSpeed(mph), compass_heading(degrees), pitch(degrees), roll(degrees),isPhoto,isVideo,rc_elevator,rc_aileron,rc_throttle,rc_rudder,rc_elevator(percent),rc_aileron(percent),rc_throttle(percent),rc_rudder(percent),gimbal_heading(degrees),gimbal_pitch(degrees),gimbal_roll(degrees),battery_percent,voltageCell1,voltageCell2,voltageCell3,voltageCell4,voltageCell5,voltageCell6,current(A),battery_temperature(f),altitude(feet),ascent(feet),flycStateRaw,flycState,message
0,2023-06-14 17:41:28,0,0,0,,,53.248019092388,0.328084,0,0,0,17,2,0,53.248019092388,0,0,0,0,0,0,274.8, 5.1, 0.6,0,0,1024,1024,1024,1024,0,0,0,0,274.8,0,0,100,4.295,4.298,4.294,4.294,0,0,0,75.38,53.248019092388,0,41,Motors_Started,"Setting new Return-To-Home altitude to 26m (85 ft). Data Recorder File Index is 40. Setting new Maximum Flight Altitude to 30m (98 ft) GPS signal weak. Hovering unstable. Fly with caution (Code: 30002). Aircraft not in flight. Vision systems and obstacle avoidance disabled (Code: 180059)"
200,2023-06-14 17:41:28,0,0,0,,,53.248019092388,0.328084,0,0,0,17,2,0,53.248019092388,0,0,0,0,0,0,274.8, 5.1, 0.6,0,0,1024,1024,1024,1024,0,0,0,0,274.8,0,0,100,4.295,4.298,4.294,4.294,0,0,0,75.38,53.248019092388,0,41,Motors_Started,
400,2023-06-14 17:41:28,0,0,0,,,53.248019092388,0.328084,0,0,0,17,2,0,53.248019092388,0,0,0,0,0,0,274.8, 5.1, 0.6,0,0,1024,1024,1024,1024,0,0,0,0,274.8,0,0,100,4.295,4.298,4.294,4.294,0,0,0,75.38,53.248019092388,0,41,Motors_Started,
600,2023-06-14 17:41:28,0,0,0,,,53.248019092388,0,0,0,0,17,2,0,53.248019092388,0,0,0,0,0,0,274.7, 5.1, 0.6,0,0,1024,1024,1024,1024,0,0,0,0,274.8,0,0,100,4.295,4.298,4.294,4.294,0,0,0,75.38,53.248019092388,0,41,Motors_Started,
800,2023-06-14 17:41:29,0,0,0,,,53.248019092388,0,0,0,0,17,2,0,53.248019092388,0,0,0,0,0,0,274.8, 5.1, 0.6,0,0,1024,1024,1024,1024,0,0,0,0,274.8,0,0,100,4.295,4.298,4.294,4.294,0,0,0,75.38,53.248019092388,0,41,Motors_Started,
1000,2023-06-14 17:41:29,0,0,0,,,53.248019092388,0,0,0,0,17,2,17.25,53.248019092388,0,0,0,0,0,0,274.8, 5.2, 0.6,0,0,1024,1024,1024,1024,0,0,0,0,274.8,0,0,100,4.295,4.298,4.294,4.294,0,0,2.125,75.38,53.248019092388,0,41,Motors_Started,
1200,2023-06-14 17:41:29,0,0,0,,,53.248019092388,0,0,0,0,17,2,17.25,53.248019092388,0,0,0,0,0,0,274.8, 5.1, 0.6,0,0,1024,1024,1024,1024,0,0,0,0,274.8,0.3,0,100,4.295,4.298,4.294,4.294,0,0,2.125,75.38,53.248019092388,0,41,Motors_Started,
1400,2023-06-14 17:41:29,0,0,0,,,53.248019092388,0,0,0,0,17,2,17.25,53.248019092388,0,0,0,0,0,0,274.8, 5.1, 0.6,0,0,1024,1024,1024,1024,0,0,0,0,274.8,0.7,0,100,4.295,4.298,4.294,4.294,0,0,2.125,75.38,53.248019092388,0,41,Motors_Started,
1600,2023-06-14 17:41:29,0,0,0,,,53.248019092388,0,0,0,0,17,2,17.25,53.248019092388,0,0,0,0,0,0,274.8, 5.1, 0.6,0,0,1024,1024,1024,1024,0,0,0,0,274.8,1,0,100,4.295,4.298,4.294,4.294,0,0,2.125,75.38,53.248019092388,0,11,AutoTakeoff,
1800,2023-06-14 17:41:30,0,0,0,,,53.248019092388,0,0,0,0,16,2,17.25,53.248019092388,0,0,0,0,0,0,274.7, 5.1, 0.6,0,0,1024,1024,1024,1024,0,0,0,0,274.8,1.1,0,100,4.295,4.298,4.294,4.294,0,0,2.125,75.38,53.248019092388,0,11,AutoTakeoff,
2000,2023-06-14 17:41:30,0,0,0,,,53.248019092388,0,0,0,0,16,2,17.261,53.248019092388,0,0,0,0,0,0,273.9, 1.6, 0.5,0,0,1024,1024,1024,1024,0,0,0,0,274.8,1.1,0,100,4.311,4.312,4.305,4.304,0,0,4.009,75.38,53.248019092388,0,11,AutoTakeoff,
2200,2023-06-14 17:41:30,0,0,0,,,53.248019092388,0.328084,0,0,0,17,2,17.261,53.248019092388,0,0,0,0,0,-0.671082,274, -1.4, 0.1,0,0,1024,1024,1024,1024,0,0,0,0,274.8,1.1,0,100,4.311,4.312,4.305,4.304,0,0,4.009,75.38,53.248019092388,0,11,AutoTakeoff,
2400,2023-06-14 17:41:30,0,0,0.328084,,,53.576103092388,0.328084,0,0,0,17,2,17.261,53.576103092388,0.328084,0,0,0,0,-0.894776,274, 0.3, 0.2,0,0,1024,1024,1024,1024,0,0,0,0,274.7,1.1,0,100,4.311,4.312,4.305,4.304,0,0,4.009,75.38,53.576103092388,0.328084,11,AutoTakeoff,
2600,2023-06-14 17:41:30,0,0,0.656168,,,53.904187092388,0.656168,0,0,0,17,2,17.261,53.904187092388,0.656168,0,0,0,0,-0.894776,274, 0.6, 0,0,0,1024,1024,1024,1024,0,0,0,0,274.7,1.1,0,100,4.311,4.312,4.305,4.304,0,0,4.009,75.38,53.904187092388,0.656168,11,AutoTakeoff,
2800,2023-06-14 17:41:31,0,0,0.984252,,,54.232271092388,0.984252,0,0,0,17,2,17.261,54.232271092388,0.984252,0,0,0,0,-0.894776,274, 0.3, 0,0,0,1024,1024,1024,1024,0,0,0,0,274.7,1.1,0,100,4.311,4.312,4.305,4.304,0,0,4.009,75.38,54.232271092388,0.984252,11,AutoTakeoff,
3000,2023-06-14 17:41:31,0,0,1.312336,,,54.560355092388,1.312336,0,0,0,17,2,17.052,54.560355092388,1.312336,0,0,0,0,-0.894776,273.8, 0.3, 0,0,0,1024,1024,1273,1024,0,0,38,0,274.6,1.1,0,100,4.252,4.255,4.251,4.252,0,0,5.081,75.38,54.560355092388,1.312336,11,AutoTakeoff,
3200,2023-06-14 17:41:31,0,0,1.312336,,,54.560355092388,1.64042,0,0,0,17,2,17.052,54.560355092388,1.312336,0,0,0,0,-0.894776,273.8, 0.1, 0.1,0,0,1024,1024,1684,1024,0,0,100,0,274.6,1.1,0,100,4.252,4.255,4.251,4.252,0,0,5.081,75.38,54.560355092388,1.312336,11,AutoTakeoff,
3400,2023-06-14 17:41:31,0,0,1.968504,,,55.216523092388,1.968504,0,0,0,18,2,17.052,55.216523092388,1.968504,0,0,0,0,-1.565858,273.8, -0.1, -0.2,0,0,1024,1024,1684,1024,0,0,100,0,274.6,1.1,0,100,4.252,4.255,4.251,4.252,0,0,5.081,75.38,55.216523092388,1.968504,11,AutoTakeoff,
3600,2023-06-14 17:41:31,0,0,2.624672,,,55.872691092388,2.952756,0,0,0,18,2,17.052,55.872691092388,2.624672,0,0,0,0,-3.35541,274.1, -0.1, 0,0,0,1024,1024,1684,1024,0,0,100,0,274.5,1.1,0,100,4.252,4.255,4.251,4.252,0,0,5.081,75.38,55.872691092388,2.624672,11,AutoTakeoff,
3800,2023-06-14 17:41:32,0,0,3.937008,,,57.185027092388,4.265092,0,0,0,18,2,17.052,57.185027092388,3.937008,0,0,0,0,-5.368656,273.9, 0, 0.4,0,0,1024,1024,1681,1024,0,0,100,0,274.5,1.1,0,100,4.252,4.255,4.251,4.252,0,0,5.081,75.38,57.185027092388,3.937008,11,AutoTakeoff,
4000,2023-06-14 17:41:32,0,0,6.233596,,,59.481615092388,6.233596,0,0,0,18,2,16.976,59.481615092388,6.233596,0,0,0,0,-7.605596,274.3, 0.6, 1,0,0,1024,1024,1619,1024,0,0,90,0,274.5,1.1,0,100,4.165,4.168,4.158,4.159,0,0,7.813,75.38,59.481615092388,6.233596,6,P-GPS,
4200,2023-06-14 17:41:32,0,0,9.84252,,,63.090539092388,8.858268,0,0,0,18,2,16.976,63.090539092388,9.84252,0,0,0,0,-9.618842,274.5, -0.1, -0.5,0,0,1024,1024,1150,1024,0,0,19,0,274.5,1.1,0,100,4.165,4.168,4.158,4.159,0,0,7.813,75.38,63.090539092388,9.84252,6,P-GPS,
4400,2023-06-14 17:41:32,0,0,15.419948,,,68.667967092388,12.139108,0,0,0,18,2,16.976,68.667967092388,15.419948,0,0,0,0,-10.737312,274.5, -2.1, -1.7,0,0,1024,1024,1024,1024,0,0,0,0,274.5,1.1,0,100,4.165,4.168,4.158,4.159,0,0,7.813,75.38,68.667967092388,15.419948,6,P-GPS,
4600,2023-06-14 17:41:32,0,0,19.028872,,,72.276891092388,15.091864,0.3131716,0,0,18,2,16.976,72.276891092388,19.028872,0.3131716,0,-0.223694,-0.223694,-9.395148,274.6, 1.9, 4.5,0,0,1024,1024,1024,1024,0,0,0,0,274.5,1.1,0,100,4.165,4.168,4.158,4.159,0,0,7.813,75.38,72.276891092388,19.028872,6,P-GPS,
4800,2023-06-14 17:41:33,0,0,20.997376,,,74.245395092388,17.388452,0.3131716,0,0,17,2,16.976,74.245395092388,20.997376,0.3131716,0,-0.223694,-0.223694,-7.158208,274.9, 4.9, 6.8,0,0,1102,1024,1024,1024,12,0,0,0,274.5,1.1,0,100,4.165,4.168,4.158,4.159,0,0,7.813,75.38,74.245395092388,20.997376,6,P-GPS,
5000,2023-06-14 17:41:33,0,0,20.997376,,,74.245395092388,19.356956,0.447388,0,0,17,2,16.458,74.245395092388,20.997376,0.447388,0,0,-0.447388,-4.921268,275.5, 4.1, 3,0,0,1684,1024,1024,1024,100,0,0,0,274.5,1.1,0,100,4.263,4.268,4.263,4.268,0,0,14.391,75.38,74.245395092388,20.997376,6,P-GPS,
5200,2023-06-14 17:41:33,0,0,22.309712,,,75.557731092388,20.341208,0.894776,0,0,18,2,16.458,75.557731092388,22.309712,0.894776,0,0,-0.894776,-2.908022,274.2, -17.3, 2.2,0,0,1684,1024,1024,1024,100,0,0,0,274.5,1.1,0,100,4.263,4.268,4.263,4.268,0,0,14.391,75.38,75.557731092388,22.309712,6,P-GPS,
5400,2023-06-14 17:41:33,0,0,22.637796,,,75.885815092388,20.997376,2.460634,0,0,18,2,16.458,75.885815092388,22.637796,2.460634,0,0,-2.460634,-1.11847,273.8, -28.2, 1.9,0,0,1684,1024,1024,1024,100,0,0,0,274.5,1.1,0,100,4.263,4.268,4.263,4.268,0,0,14.391,75.38,75.885815092388,22.637796,6,P-GPS,
5600,2023-06-14 17:41:33,0,0,22.637796,,,75.885815092388,21.32546,4.250186,0,0,18,2,16.458,75.885815092388,22.637796,4.250186,0,0,-4.250186,0,273.5, -29.6, 2.7,0,0,1684,1024,1024,1024,100,0,0,0,274.5,1.1,0,100,4.263,4.268,4.263,4.268,0,0,14.391,75.38,75.885815092388,22.637796,6,P-GPS,
5800,2023-06-14 17:41:34,0,0,22.309712,,,75.557731092388,21.32546,6.7331894,0,0,18,2,16.458,75.885815092388,22.637796,6.7331894,0,0.447388,-6.71082,0.223694,277.3, -25.7, 3,0,0,1024,1024,1024,1024,0,0,0,0,274.5,1.1,0,100,4.263,4.268,4.263,4.268,0,0,14.391,75.38,75.557731092388,22.309712,6,P-GPS,
6000,2023-06-14 17:41:34,0,0,22.309712,,,75.557731092388,21.32546,8.9924988,0,0,18,2,17.09,75.885815092388,22.637796,8.9924988,0,0.894776,-8.94776,0,279.2, -14.2, 3.3,0,0,1024,1024,1024,1024,0,0,0,0,274.5,1.1,0,100,4.229,4.215,4.216,4.213,0,0,4.724,75.74,75.557731092388,22.309712,6,P-GPS,
6200,2023-06-14 17:41:34,0,0,22.309712,,,75.557731092388,21.32546,9.1938234,0,0,18,2,17.09,75.885815092388,22.637796,9.1938234,0,0.671082,-9.171454,0,278.2, 23.4, 3.2,0,0,1024,1024,1024,1024,0,0,0,0,274.5,1.1,0,100,4.229,4.215,4.216,4.213,0,0,4.724,75.74,75.557731092388,22.309712,6,P-GPS,
6400,2023-06-14 17:41:34,0,0,21.981628,,,75.229647092388,20.997376,6.7331894,0,0,18,2,17.09,75.885815092388,22.637796,9.1938234,0,0.447388,-6.71082,0,279.3, 29, 4.9,0,0,1024,1024,1024,1024,0,0,0,0,274.5,1.1,0,100,4.229,4.215,4.216,4.213,0,0,4.724,75.74,75.229647092388,21.981628,6,P-GPS,
6600,2023-06-14 17:41:34,0,0,21.981628,,,75.229647092388,20.669292,4.4962494,0,0,18,2,17.09,75.885815092388,22.637796,9.1938234,0,0.447388,-4.47388,0,279.9, 28.8, 5.4,0,0,1024,1024,1641,1024,0,0,93,0,274.5,1.1,0,100,4.229,4.215,4.216,4.213,0,0,4.724,75.74,75.229647092388,21.981628,6,P-GPS,
6800,2023-06-14 17:41:35,0,0,22.309712,,,75.557731092388,20.341208,2.460634,0,0,18,2,17.09,75.885815092388,22.637796,9.1938234,0,0.223694,-2.460634,0,280.5, 26.4, 5.1,0,0,1024,1024,1684,1024,0,0,100,0,274.5,1.1,0,100,4.229,4.215,4.216,4.213,0,0,4.724,75.74,75.557731092388,22.309712,6,P-GPS,
7000,2023-06-14 17:41:35,0,0,22.309712,,,75.557731092388,20.341208,0.4921268,0,0,18,2,16.858,75.885815092388,22.637796,9.1938234,0,0.223694,-0.447388,-1.565858,279.5, 12.4, 2.9,0,0,1024,1024,1684,1024,0,0,100,0,274.5,1.1,0,100,4.205,4.207,4.202,4.206,0,0,8.731,75.74,75.557731092388,22.309712,6,P-GPS,
7200,2023-06-14 17:41:35,0,0,23.622048,,,76.870067092388,21.32546,0.223694,0,0,18,2,16.858,76.870067092388,23.622048,9.1938234,0,0.223694,0,-4.026492,279.1, 4.4, 1.3,0,0,1024,1024,1684,1024,0,0,100,0,274.5,1.1,0,100,4.205,4.207,4.202,4.206,0,0,8.731,75.74,76.870067092388,23.622048,6,P-GPS,
7400,2023-06-14 17:41:35,0,0,25.262468,,,78.510487092388,22.96588,0.223694,0,0,19,2,16.858,78.510487092388,25.262468,9.1938234,0,0,-0.223694,-6.487126,279.7, 4.8, 1.5,0,0,1024,1024,1684,1024,0,0,100,0,274.5,1.1,0,100,4.205,4.207,4.202,4.206,0,0,8.731,75.74,78.510487092388,25.262468,6,P-GPS,
7600,2023-06-14 17:41:35,0,0,29.199476,,,82.447495092388,25.262468,0.223694,0,0,19,2,16.858,82.447495092388,29.199476,9.1938234,0,0,-0.223694,-8.724066,279.8, 6.1, 2.4,0,0,1024,1024,1684,1024,0,0,100,0,274.5,1.1,0,100,4.205,4.207,4.202,4.206,0,0,8.731,75.74,82.447495092388,29.199476,6,P-GPS,
7800,2023-06-14 17:41:36,0,0,33.464568,,,86.712587092388,28.215224,0,0,0,19,2,16.858,86.712587092388,33.464568,9.1938234,0,0,0,-10.961006,279.8, 6.2, 1.8,0,0,1024,1024,1296,1024,0,0,41,0,274.5,1.1,0,100,4.205,4.207,4.202,4.206,0,0,8.731,75.74,86.712587092388,33.464568,6,P-GPS,
8000,2023-06-14 17:41:36,0,0,37.72966,,,90.977679092388,32.152232,0,0,0,19,2,16.549,90.977679092388,37.72966,9.1938234,0,0,0,-12.526864,279.6, 5.1, 2.3,0,0,1024,1024,1024,1024,0,0,0,0,274.5,1.1,0,100,4.081,4.086,4.076,4.079,0,0,12.948,75.38,90.977679092388,37.72966,6,P-GPS,
8200,2023-06-14 17:41:36,0,0,41.338584,,,94.586603092388,36.08924,0,0,0,19,2,16.549,94.586603092388,41.338584,9.1938234,0,0,0,-11.1847,279.7, 6, 3.4,0,0,1024,1024,1024,1024,0,0,0,0,274.5,1.1,0,100,4.081,4.086,4.076,4.079,0,0,12.948,75.38,94.586603092388,41.338584,6,P-GPS,
8400,2023-06-14 17:41:36,0,0,43.963256,,,97.211275092388,39.041996,0,0,0,19,2,16.549,97.211275092388,43.963256,9.1938234,0,0,0,-9.395148,279.8, 6.5, 4.3,0,0,1024,1024,1024,1024,0,0,0,0,274.5,1.1,0,100,4.081,4.086,4.076,4.079,0,0,12.948,75.38,97.211275092388,43.963256,6,P-GPS,
8600,2023-06-14 17:41:36,0,0,45.603676,,,98.851695092388,41.338584,0.223694,0,0,20,2,16.549,98.851695092388,45.603676,9.1938234,0,0,-0.223694,-6.934514,279.9, 8.1, 4.8,0,0,1024,1024,1024,1024,0,0,0,0,274.5,1.1,0,100,4.081,4.086,4.076,4.079,0,0,12.948,75.38,98.851695092388,45.603676,6,P-GPS,
8800,2023-06-14 17:41:37,0,0,46.259844,,,99.507863092388,41.0105,0.223694,0,0,20,2,16.549,99.507863092388,46.259844,9.1938234,0,0,-0.223694,-4.697574,279.7, 7.6, 4.5,0,0,1024,1024,1024,1024,0,0,0,0,274.5,1.1,0,100,4.081,4.086,4.076,4.079,0,0,12.948,75.38,99.507863092388,46.259844,6,P-GPS,"No GPS. Fly with caution GPS signal weak. Hovering unstable. Fly with caution (Code: 30002)"
9000,2023-06-14 17:41:37,0,0,46.259844,,,99.507863092388,41.666668,0.223694,0,0,20,2,16.845,99.507863092388,46.259844,9.1938234,0,0,-0.223694,-2.23694,279.8, 9.5, 4.7,0,0,1024,1024,1024,1024,0,0,0,0,274.5,1.1,0,100,4.26,4.255,4.25,4.277,0,0,13.309,75.74,99.507863092388,46.259844,6,P-GPS,
9200,2023-06-14 17:41:37,0,0,46.259844,,,99.507863092388,41.994752,0,0,0,20,2,16.845,99.507863092388,46.259844,9.1938234,0,0,0,-0.447388,279.6, 9, 4.1,0,0,1024,1024,1024,1024,0,0,0,0,274.5,1.1,0,100,4.26,4.255,4.25,4.277,0,0,13.309,75.74,99.507863092388,46.259844,6,P-GPS,
9400,2023-06-14 17:41:37,0,0,46.259844,,,99.507863092388,41.994752,0,0,0,20,2,16.845,99.507863092388,46.259844,9.1938234,0,0,0,0,279.5, 7.1, 2.9,0,0,1024,1024,1024,1024,0,0,0,0,274.5,1.1,0,100,4.26,4.255,4.25,4.277,0,0,13.309,75.74,99.507863092388,46.259844,6,P-GPS,
9600,2023-06-14 17:41:37,0,0,45.93176,,,99.179779092388,41.994752,0.223694,0,0,20,2,16.845,99.507863092388,46.259844,9.1938234,0,0,0.223694,0,279.5, 4.7, 1.9,0,0,1024,1024,1024,1024,0,0,0,0,274.5,1.1,0,100,4.26,4.255,4.25,4.277,0,0,13.309,75.74,99.179779092388,45.93176,6,P-GPS,
9800,2023-06-14 17:41:38,0,0,45.93176,,,99.179779092388,42.322836,0,0,0,20,2,16.845,99.507863092388,46.259844,9.1938234,0,0,0,0,279.4, 5, 2.4,0,0,1024,1024,1024,1024,0,0,0,0,274.5,0.2,0,100,4.26,4.255,4.25,4.277,0,0,13.309,75.74,99.179779092388,45.93176,6,P-GPS,
10000,2023-06-14 17:41:38,0,0,45.93176,,,99.179779092388,42.65092,0,0,0,20,2,16.962,99.507863092388,46.259844,9.1938234,0,0,0,0,279.5, 7.7, 3.3,0,0,1024,1024,1024,1024,0,0,0,0,274.5,-2.1,0,100,4.21,4.238,4.209,4.242,0,0,5.289,75.92,99.179779092388,45.93176,6,P-GPS,
10200,2023-06-14 17:41:38,52.2063944812942,0.086580062759181,45.93176,45.93176,53.248019092388,99.179779092388,42.65092,0,0,0,20,2,16.962,99.507863092388,46.259844,9.1938234,0,0,0,0,279.5, 7.7, 3.2,0,0,1024,1024,1024,1024,0,0,0,0,274.5,-5,0,100,4.21,4.238,4.209,4.242,0,0,5.289,75.92,99.179779092388,45.93176,6,P-GPS,"GPS signal weak. Hovering unstable. Fly with caution (Code: 30002)"
10400,2023-06-14 17:41:38,52.2063951643872,0.0865819113063395,45.93176,45.93176,53.248019092388,99.179779092388,42.65092,0,0.48263781072,0.48263781072,20,2,16.962,99.507863092388,46.259844,9.1938234,0.48263781072,0,0,0,279.3, 7.1, 2.5,0,0,1024,1024,1024,1024,0,0,0,0,274.5,-7.9,0,100,4.21,4.238,4.209,4.242,0,0,5.289,75.92,99.179779092388,45.93176,6,P-GPS,
10600,2023-06-14 17:41:38,52.2063955796411,0.0865834415424907,45.93176,45.8989516,53.280827492388,99.179779092388,42.65092,0,0.85515422684,0.85682089356,20,2,16.962,99.507863092388,46.259844,9.1938234,0.85515422684,0,0,0,279.4, 6.2, 1.9,0,0,1024,1024,1024,1024,0,0,0,0,274.5,-10.8,0,100,4.21,4.238,4.209,4.242,0,0,5.289,75.92,99.179779092388,45.93176,6,P-GPS,
10800,2023-06-14 17:41:39,52.2063959902311,0.0865849508871364,45.93176,45.8989516,53.280827492388,99.179779092388,42.65092,0,1.22375003916,1.22604662716,20,2,16.962,99.507863092388,46.259844,9.1938234,1.22375003916,0,0,0,279.6, 5.7, 1.7,0,0,1024,1024,1024,1024,0,0,0,0,274.5,-13.7,0,100,4.21,4.238,4.209,4.242,0,0,5.289,75.92,99.179779092388,45.93176,6,P-GPS,
11000,2023-06-14 17:41:39,52.2063963839106,0.0865865127069345,45.93176,45.8989516,53.280827492388,99.179779092388,42.979004,0,1.60049545804,1.60363522192,20,2,16.915,99.507863092388,46.259844,9.1938234,1.60049545804,0,0,0,279.6, 5.9, 2.1,0,0,1024,1024,1024,1024,0,0,0,0,274.5,-16.6,0,100,4.227,4.233,4.229,4.231,0,0,7.249,76.1,99.179779092388,45.93176,6,P-GPS,
11200,2023-06-14 17:41:39,52.2063968066673,0.0865882701774152,45.93176,45.8989516,53.280827492388,99.179779092388,42.979004,0,2.0217028206,2.02576778136,20,5,16.915,99.507863092388,46.259844,9.1938234,2.0217028206,0,0,0,279.5, 5.9, 2.2,0,0,1097,1024,1024,1024,11,0,0,0,274.5,-19.5,0,100,4.227,4.233,4.229,4.231,0,0,7.249,76.1,99.179779092388,45.93176,6,P-GPS,
11400,2023-06-14 17:41:39,52.2063973126696,0.0865902763368432,45.93176,45.8989516,53.280827492388,99.179779092388,42.979004,0,2.50640427968,2.510826852,23,5,16.915,99.507863092388,46.259844,9.1938234,2.50640427968,0,0,0,279.6, 5.8, 2.4,0,0,1024,1024,1024,1024,0,0,0,0,274.5,-22.2,0,100,4.227,4.233,4.229,4.231,0,0,7.249,76.1,99.179779092388,45.93176,6,P-GPS,
11600,2023-06-14 17:41:39,52.2063978768998,0.0865925053768569,45.93176,45.8989516,53.280827492388,99.179779092388,42.979004,0,3.04538723656,3.05005259104,23,5,16.915,99.507863092388,46.259844,9.1938234,3.04538723656,0,0,0,279.6, 0.4, 1.1,0,0,1024,1024,1024,1024,0,0,0,0,274.5,-23.5,0,100,4.227,4.233,4.229,4.231,0,0,7.249,76.1,99.179779092388,45.93176,6,P-GPS,
11800,2023-06-14 17:41:40,52.2063984426183,0.0865947422689871,45.93176,45.8989516,53.280827492388,99.179779092388,43.307088,0.223694,3.5862533956,3.5911090388,23,5,16.915,99.507863092388,46.259844,9.1938234,3.5862533956,0,-0.223694,0,279.6, 8, 2.8,0,0,1024,1024,1024,1024,0,0,0,0,274.5,-23.6,0,100,4.227,4.233,4.229,4.231,0,0,7.249,76.1,99.179779092388,45.93176,6,P-GPS,
12000,2023-06-14 17:41:40,52.2063990052205,0.0865972737959117,45.93176,45.8661432,53.313635892388,99.179779092388,43.307088,0,4.1872048584,4.1931759872,23,5,16.917,99.507863092388,46.259844,9.1938234,4.1872048584,0,0,0,279.8, 8.8, 2.7,0,0,1024,1024,1024,1024,0,0,0,0,274.5,-23.6,0,100,4.23,4.231,4.221,4.227,0,0,7.009,76.1,99.179779092388,45.93176,6,P-GPS,"Setting new Maximum Flight Altitude to 120m (394 ft)"
12200,2023-06-14 17:41:40,52.2063995147938,0.0866001366966591,45.93176,45.8661432,53.313635892388,99.179779092388,42.979004,0,4.8494424124,4.85974425,23,5,16.917,99.507863092388,46.259844,9.1938234,4.8494424124,0,0,0,279.7, 8.6, 2.5,0,0,1024,1024,1024,1024,0,0,0,0,274.5,-23.6,0,100,4.23,4.231,4.221,4.227,0,0,7.009,76.1,99.179779092388,45.93176,6,P-GPS,
12400,2023-06-14 17:41:40,52.2063999364458,0.0866032176882623,45.93176,45.8661432,53.313635892388,99.179779092388,42.979004,0,5.5465224872,5.5655841676,24,5,16.917,99.507863092388,46.259844,9.1938234,5.5465224872,0,0,0,279.7, 7.9, 2.1,0,0,1024,1024,1024,1024,0,0,0,0,274.5,-23.6,0,100,4.23,4.231,4.221,4.227,0,0,7.009,76.1,99.179779092388,45.93176,6,P-GPS,
12600,2023-06-14 17:41:40,52.2064002206867,0.0866048920387551,45.93176,45.8661432,53.313635892388,99.179779092388,42.979004,0,5.9333007148,5.9540356236,24,5,16.917,99.507863092388,46.259844,9.1938234,5.9333007148,0,0,0,279.6, 6.8, 2.3,0,0,1024,1024,1024,1024,0,0,0,0,274.5,-23.6,0,100,4.23,4.231,4.221,4.227,0,0,7.009,76.1,99.179779092388,45.93176,6,P-GPS,
12800,2023-06-14 17:41:41,52.2064001423091,0.0866077745247975,45.93176,45.8661432,53.313635892388,99.179779092388,42.979004,0,6.531168188,6.5991800012,24,5,16.917,99.507863092388,46.259844,9.1938234,6.531168188,0,0,0,279.6, 6.3, 2.6,0,0,1024,1024,1024,1024,0,0,0,0,274.5,-23.6,0,100,4.23,4.231,4.221,4.227,0,0,7.009,76.1,99.179779092388,45.93176,6,P-GPS,"Home Point updated (Code: 3000001)"
13000,2023-06-14 17:41:41,52.2063997924281,0.0866112437920755,45.93176,45.8661432,53.313635892388,99.179779092388,42.979004,0,7.2359582368,7.3852692652,24,3,16.91,99.507863092388,46.259844,9.1938234,7.2359582368,0,0,0,279.6, 6.3, 2.8,0,0,1024,1024,1024,1024,0,0,0,0,274.5,-23.6,0,100,4.227,4.23,4.227,4.231,0,0,7.121,76.28,99.179779092388,45.93176,6,P-GPS,
13200,2023-06-14 17:41:41,52.2063993546858,0.0866148190275415,45.93176,45.8661432,53.313635892388,99.179779092388,42.979004,0,7.9718506488,8.20045958,24,3,16.91,99.507863092388,46.259844,9.1938234,7.9718506488,0,0,0,279.5, 6.3, 2.5,0,0,1024,1024,1024,1024,0,0,0,0,274.5,-23.6,0,100,4.227,4.23,4.227,4.231,0,0,7.121,76.28,99.179779092388,45.93176,6,P-GPS,
13400,2023-06-14 17:41:41,52.2063988357911,0.0866183284789238,45.93176,45.8661432,53.313635892388,99.179779092388,42.979004,0,8.7019687824,9.0076446452,24,5,16.91,99.507863092388,46.259844,9.1938234,8.7019687824,0,0,0,279.6, 6.1, 2.7,0,0,1024,1024,1024,1024,0,0,0,0,274.5,-23.9,0,100,4.227,4.23,4.227,4.231,0,0,7.121,76.28,99.179779092388,45.93176,6,P-GPS,
13600,2023-06-14 17:41:42,52.2063983398138,0.086621507563008,45.93176,45.8989516,53.280827492388,99.179779092388,42.979004,0,9.3728349456,9.7411092356,24,5,16.91,99.507863092388,46.259844,9.1938234,9.3728349456,0,0,0,279.6, 6.3, 2.6,0,0,1024,1024,1024,1024,0,0,0,0,274.5,-26,0,100,4.227,4.23,4.227,4.231,0,0,7.121,76.28,99.179779092388,45.93176,6,P-GPS,
13800,2023-06-14 17:41:42,52.2063978266862,0.0866245750766152,45.93176,45.8989516,53.280827492388,99.179779092388,42.979004,0,10.0269360164,10.4520672636,24,5,16.91,99.507863092388,46.259844,9.1938234,10.0269360164,0,0,0,279.5, 6.3, 2.8,0,0,1024,1024,1024,1024,0,0,0,0,274.5,-28.8,0,100,4.227,4.23,4.227,4.231,0,0,7.121,76.28,99.179779092388,45.93176,6,P-GPS,
14000,2023-06-14 17:41:42,52.2063973445203,0.0866273105768368,45.93176,45.8989516,53.280827492388,99.179779092388,42.979004,0,10.6155187124,11.0884846068,24,5,16.919,99.507863092388,46.259844,9.1938234,10.6155187124,0,0,0,279.7, 6.4, 2.8,0,0,1024,1024,1024,1024,0,0,0,0,274.5,-31.7,0,100,4.231,4.234,4.23,4.23,0,0,6.824,76.46,99.179779092388,45.93176,6,P-GPS,
14200,2023-06-14 17:41:42,52.2063969239028,0.0866297352636014,45.93176,45.8989516,53.280827492388,99.179779092388,42.979004,0,11.1417982568,11.65190326,24,5,16.919,99.507863092388,46.259844,9.1938234,11.1417982568,0,0,0,279.6, 6.2, 2.3,0,0,1024,1024,1024,1024,0,0,0,0,274.5,-34.6,0,100,4.231,4.234,4.23,4.23,0,0,6.824,76.46,99.179779092388,45.93176,6,P-GPS,
14400,2023-06-14 17:41:42,52.206396524999,0.0866318432375552,45.93176,45.8989516,53.280827492388,99.179779092388,42.979004,0,11.6014111324,12.145177554,24,5,16.919,99.507863092388,46.259844,9.1938234,11.6014111324,0,0,0,279.7, 6.5, 2.3,0,0,1024,1024,1024,1024,0,0,0,0,274.5,-37.5,0,100,4.231,4.234,4.23,4.23,0,0,6.824,76.46,99.179779092388,45.93176,6,P-GPS,
14600,2023-06-14 17:41:43,52.2063961411973,0.086633661804178,45.93176,45.8989516,53.280827492388,99.179779092388,42.979004,0,11.9993114076,12.5752300612,24,5,16.919,99.507863092388,46.259844,9.1938234,11.9993114076,0,0,0,279.6, 6.4, 2.5,0,0,1024,1024,1024,1024,0,0,0,0,274.5,-40.4,0,100,4.231,4.234,4.23,4.23,0,0,6.824,76.46,99.179779092388,45.93176,6,P-GPS,
14800,2023-06-14 17:41:43,52.2063957432191,0.0866352778496255,45.93176,45.8989516,53.280827492388,99.179779092388,42.979004,0,12.3539374032,12.9646329608,24,5,16.919,99.507863092388,46.259844,9.1938234,12.3539374032,0,0,0,279.6, 6.3, 3.1,0,0,1024,1024,1024,1024,0,0,0,0,274.5,-43.3,0,100,4.231,4.234,4.23,4.23,0,0,6.824,76.46,99.179779092388,45.93176,6,P-GPS,
15000,2023-06-14 17:41:43,52.2063953802561,0.0866366339355819,45.93176,45.93176,53.248019092388,99.179779092388,42.979004,0,12.6528219272,13.2955056748,24,5,16.923,99.507863092388,46.259844,9.1938234,12.6528219272,0,0,0,279.6, 5.7, 3.3,0,0,1024,1024,1024,1024,0,0,0,0,274.5,-46.2,0,100,4.227,4.231,4.228,4.228,0,0,6.747,76.46,99.179779092388,45.93176,6,P-GPS,
15200,2023-06-14 17:41:43,52.2063950855171,0.086637749476093,45.93176,45.93176,53.248019092388,99.179779092388,42.979004,0,12.8998691792,13.56709361,24,5,16.923,99.507863092388,46.259844,9.1938234,12.8998691792,0,0,0,279.7, 5.8, 3.4,0,0,1024,1024,1024,1024,0,0,0,0,274.5,-49.1,0,100,4.227,4.231,4.228,4.228,0,0,6.747,76.46,99.179779092388,45.93176,6,P-GPS,
15400,2023-06-14 17:41:43,52.2063948511807,0.0866386377167455,45.93176,45.93176,53.248019092388,99.179779092388,42.979004,0,13.097277322,13.7833337744,24,5,16.923,99.507863092388,46.259844,9.1938234,13.097277322,0,0,0,279.7, 5.7, 3.1,0,0,1024,1024,1024,1024,0,0,0,0,274.5,-52.1,0,100,4.227,4.231,4.228,4.228,0,0,6.747,76.46,99.179779092388,45.93176,6,P-GPS,
15600,2023-06-14 17:41:43,52.2063946489139,0.0866393384816714,45.93176,45.93176,53.248019092388,99.179779092388,42.979004,0,13.2534124976,13.956529318,24,5,16.923,99.507863092388,46.259844,9.1938234,13.2534124976,0,0,0,279.6, 5.5, 2.4,0,0,1024,1024,1024,1024,0,0,0,0,274.5,-55,0,100,4.227,4.231,4.228,4.228,0,0,6.747,76.46,99.179779092388,45.93176,6,P-GPS,
15800,2023-06-14 17:41:44,52.2063944163631,0.0866398693955389,45.93176,45.93176,53.248019092388,99.179779092388,42.979004,0,13.3719820552,14.1024282728,24,5,16.923,99.507863092388,46.259844,9.1938234,13.3719820552,0,0,0,279.7, 5.3, 3.2,0,0,1024,1024,1024,1024,0,0,0,0,274.5,-57.9,0,100,4.227,4.231,4.228,4.228,0,0,6.747,76.46,99.179779092388,45.93176,6,P-GPS,
16000,2023-06-14 17:41:44,52.2063941888253,0.0866402294168746,45.93176,45.93176,53.248019092388,99.179779092388,43.307088,0,13.4528875696,14.2180778828,24,5,16.9,99.507863092388,46.259844,9.1938234,13.4528875696,0,0,0,279.8, 5.6, 3.6,0,0,1024,1024,1024,1024,0,0,0,0,274.5,-60.8,0,100,4.221,4.224,4.221,4.223,0,0,6.907,76.46,99.179779092388,45.93176,6,P-GPS,
16200,2023-06-14 17:41:44,52.2063939929836,0.0866404732055664,45.93176,45.93176,53.248019092388,99.179779092388,43.307088,0,13.5081369152,14.3079400904,24,5,16.9,99.507863092388,46.259844,9.1938234,13.5081369152,0,0,0,279.8, 5.8, 3.8,0,0,1024,1024,1024,1024,0,0,0,0,274.5,-63.7,0,100,4.221,4.224,4.221,4.223,0,0,6.907,76.46,99.179779092388,45.93176,6,P-GPS,
16400,2023-06-14 17:41:44,52.2063938570347,0.0866406067098962,45.93176,45.93176,53.248019092388,99.179779092388,43.307088,0,13.5387471524,14.365814108,24,5,16.9,99.507863092388,46.259844,9.1938234,13.5387471524,0,0,0,279.8, 5.8, 3.7,0,0,1024,1024,1024,1024,0,0,0,0,274.5,-66.6,0,100,4.221,4.224,4.221,4.223,0,0,6.907,76.46,99.179779092388,45.93176,6,P-GPS,
16600,2023-06-14 17:41:44,52.2063937695868,0.0866406863371906,45.93176,45.93176,53.248019092388,99.179779092388,42.979004,0,13.5571198564,14.4023626656,24,5,16.9,99.507863092388,46.259844,9.1938234,13.5571198564,0,0,0,279.8, 5.9, 3.5,0,0,1024,1024,1024,1024,0,0,0,0,274.5,-69.6,0,100,4.221,4.224,4.221,4.223,0,0,6.907,76.46,99.179779092388,45.93176,6,P-GPS,
16800,2023-06-14 17:41:45,52.2063936802274,0.0866407449952187,45.93176,45.93176,53.248019092388,99.179779092388,42.979004,0,13.570866576,14.437500462,24,5,16.9,99.507863092388,46.259844,9.1938234,13.570866576,0,0,0,279.7, 5.8, 3.4,0,0,1024,1024,1024,1024,0,0,0,0,274.5,-72.5,0,100,4.221,4.224,4.221,4.223,0,0,6.907,76.46,99.179779092388,45.93176,6,P-GPS,
17000,2023-06-14 17:41:45,52.2063936271454,0.086640795726864,45.93176,45.93176,53.248019092388,99.179779092388,42.979004,0,13.5826447916,14.4599414076,24,5,16.883,99.507863092388,46.259844,9.1938234,13.5826447916,0,0,0,279.8, 5.7, 3.5,0,0,1024,1024,1024,1024,0,0,0,0,274.5,-75.4,0,100,4.219,4.225,4.218,4.222,0,0,7.133,76.64,99.179779092388,45.93176,6,P-GPS,
17200,2023-06-14 17:41:45,52.2063935754435,0.086640822455689,45.93176,45.93176,53.248019092388,99.179779092388,42.979004,0,13.589075238,14.4797248728,24,5,16.883,99.507863092388,46.259844,9.1938234,13.589075238,0,0,0,279.7, 5.6, 3.4,0,0,1024,1024,1024,1024,0,0,0,0,274.5,-78.3,0,100,4.219,4.225,4.218,4.222,0,0,7.133,76.64,99.179779092388,45.93176,6,P-GPS,
17400,2023-06-14 17:41:45,52.206393547047,0.0866408533713774,45.93176,45.93176,53.248019092388,99.179779092388,42.979004,0,13.5962274692,14.4921920648,24,5,16.883,99.507863092388,46.259844,9.1938234,13.5962274692,0,0,0,279.7, 5.5, 3.5,0,0,1024,1024,1024,1024,0,0,0,0,274.5,-81.2,0,100,4.219,4.225,4.218,4.222,0,0,7.133,76.64,99.179779092388,45.93176,6,P-GPS,
17600,2023-06-14 17:41:45,52.206393517428,0.0866408763117549,46.259844,46.259844,53.248019092388,99.507863092388,43.307088,0,13.6016408552,14.5041671308,24,5,16.883,99.507863092388,46.259844,9.1938234,13.6016408552,0,0,0,279.6, 5.4, 3.7,0,0,1024,1024,1024,1024,0,0,0,0,274.5,-84.1,0,100,4.219,4.225,4.218,4.222,0,0,7.133,76.64,99.507863092388,46.259844,6,P-GPS,
17800,2023-06-14 17:41:46,52.2063935227908,0.0866409244571907,46.259844,46.259844,53.248019092388,99.507863092388,43.307088,0,13.6123363936,14.515092328,24,5,16.883,99.507863092388,46.259844,9.1938234,13.6123363936,0,0,0,279.7, 5.3, 3.4,0,0,1024,1024,1024,1024,0,0,0,0,274.5,-87,0,100,4.219,4.225,4.218,4.222,0,0,7.133,76.64,99.507863092388,46.259844,6,P-GPS,
18000,2023-06-14 17:41:46,52.2063935460517,0.0866409970667707,46.259844,46.259844,53.248019092388,99.507863092388,43.307088,0,13.6283797012,14.5333994152,24,5,16.882,99.507863092388,46.259844,9.1938234,13.6283797012,0,0,0,279.6, 5.1, 3.2,0,0,1024,1024,1024,1024,0,0,0,0,274.5,-89.9,0,100,4.219,4.225,4.221,4.224,0,0,7.148,76.64,99.507863092388,46.259844,6,P-GPS,
18200,2023-06-14 17:41:46,52.206393561887,0.0866410661395344,46.259844,46.259844,53.248019092388,99.507863092388,43.307088,0,13.6436684156,14.5499020404,24,5,16.882,99.507863092388,46.259844,9.1938234,13.6436684156,0,0,0,279.7, 4.9, 3.3,0,0,1024,1024,1024,1024,0,0,0,0,274.5,-89.9,0,100,4.219,4.225,4.221,4.224,0,0,7.148,76.64,99.507863092388,46.259844,6,P-GPS,
18400,2023-06-14 17:41:46,52.2063935953642,0.0866411076656717,46.259844,46.259844,53.248019092388,99.507863092388,43.307088,0,13.6526579172,14.5652563716,24,5,16.882,99.507863092388,46.259844,9.1938234,13.6526579172,0,0,0,279.7, 5, 3.6,0,0,1024,1024,1024,1024,0,0,0,0,274.5,-90,0,100,4.219,4.225,4.221,4.224,0,0,7.148,76.64,99.507863092388,46.259844,6,P-GPS,
18600,2023-06-14 17:41:46,52.2063936263323,0.0866411152355769,46.259844,46.259844,53.248019092388,99.507863092388,43.307088,0,13.6540686784,14.5766736948,24,5,16.882,99.507863092388,46.259844,9.1938234,13.6540686784,0,0,0,279.7, 5, 4,0,0,1024,1024,1313,1024,0,0,44,0,274.5,-89.9,0,100,4.219,4.225,4.221,4.224,0,0,7.148,76.64,99.507863092388,46.259844,6,P-GPS,
18800,2023-06-14 17:41:47,52.2063936790898,0.0866411261465852,46.259844,46.259844,53.248019092388,99.507863092388,43.307088,0,13.6561027992,14.5960634592,24,5,16.882,99.507863092388,46.259844,9.1938234,13.6561027992,0,0,0,279.7, 5.4, 3.8,0,0,1024,1024,1684,1024,0,0,100,0,274.5,-90,0,100,4.219,4.225,4.221,4.224,0,0,7.148,76.64,99.507863092388,46.259844,6,P-GPS,
19000,2023-06-14 17:41:47,52.2063937894886,0.0866411491918091,46.259844,46.259844,53.248019092388,99.507863092388,43.307088,0,13.660433508,14.6366802584,24,5,16.884,99.507863092388,46.259844,9.1938234,13.660433508,0,0,-0.894776,279.7, 4.2, 2.4,0,0,1024,1024,1684,1024,0,0,100,0,274.5,-89.9,0,99,4.218,4.224,4.219,4.224,0,0,7.005,76.64,99.507863092388,46.259844,6,P-GPS,
19200,2023-06-14 17:41:47,52.2063938493214,0.0866411598441964,46.916012,46.916012,53.248019092388,100.16403109239,43.963256,0,13.6624348204,14.658629078,24,5,16.884,100.16403109239,46.916012,9.1938234,13.6624348204,0,0,-3.131716,279.9, 5.3, 2.9,0,0,1024,1024,1684,1024,0,0,100,0,274.5,-90,0,99,4.218,4.224,4.219,4.224,0,0,7.005,76.64,100.16403109239,46.916012,6,P-GPS,
19400,2023-06-14 17:41:47,52.2063938331951,0.0866411875725564,48.556432,48.556432,53.248019092388,101.80445109239,45.275592,0,13.6687340332,14.6671920704,24,5,16.884,101.80445109239,48.556432,9.1938234,13.6687340332,0,0,-5.368656,280, 4.8, 4.8,0,0,1024,1024,1684,1024,0,0,100,0,274.5,-89.9,0,99,4.218,4.224,4.219,4.224,0,0,7.005,76.64,101.80445109239,48.556432,6,P-GPS,
19600,2023-06-14 17:41:47,52.2063939428836,0.0866413424515584,50.85302,50.85302,53.248019092388,104.10103909239,47.244096,0,13.7027235356,14.7201120196,24,5,16.884,104.10103909239,50.85302,9.1938234,13.7027235356,0,0,-7.82929,280.1, 5.3, 4.9,0,0,1024,1024,1684,1024,0,0,100,0,274.5,-90,0,99,4.218,4.224,4.219,4.224,0,0,7.005,76.64,104.10103909239,50.85302,6,P-GPS,
19800,2023-06-14 17:41:48,52.206394151496,0.0866416269415964,54.461944,54.461944,53.248019092388,107.70996309239,49.868768,0,13.7654531964,14.8192918128,24,5,16.884,107.70996309239,54.461944,9.1938234,13.7654531964,0,0,-10.06623,279.9, 5.2, 3.9,0,0,1024,1024,1684,1024,0,0,100,0,274.5,-89.9,0,99,4.218,4.224,4.219,4.224,0,0,7.005,76.64,107.70996309239,54.461944,6,P-GPS,
20000,2023-06-14 17:41:48,52.2063943819375,0.0866420363106059,58.398952,58.398952,53.248019092388,111.64697109239,53.477692,0,13.8564965064,14.943570032,24,5,16.532,111.64697109239,58.398952,9.1938234,13.8564965064,0,0,-12.079476,280, 5.5, 4.3,0,0,1024,1024,1684,1024,0,0,100,0,274.5,-89.9,0,99,4.11,4.116,4.104,4.111,0,0,10.982,76.64,111.64697109239,58.398952,6,P-GPS,
20200,2023-06-14 17:41:48,52.2063946146685,0.0866426347525011,62.33596,62.33596,53.248019092388,115.58397909239,57.4147,0,13.9903547784,15.1020674124,24,5,16.532,115.58397909239,62.33596,9.1938234,13.9903547784,0,0,-12.974252,279.9, 4.6, 5.6,0,0,1024,1024,1682,1024,0,0,100,0,274.5,-89.9,0,99,4.11,4.116,4.104,4.111,0,0,10.982,76.64,115.58397909239,62.33596,6,P-GPS,
20400,2023-06-14 17:41:48,52.206394942508,0.0866431997554062,66.272968,66.272968,53.248019092388,119.52098709239,61.679792,0,14.1175857536,15.2760175492,24,5,16.532,119.52098709239,66.272968,9.1938234,14.1175857536,0,0,-13.42164,279.9, 5.8, 6.1,0,0,1024,1024,1678,1024,0,0,99,0,274.5,-90,0,99,4.11,4.116,4.104,4.111,0,0,10.982,76.64,119.52098709239,66.272968,6,P-GPS,
20600,2023-06-14 17:41:48,52.2063954012754,0.0866438609653057,70.209976,70.209976,53.248019092388,123.45799509239,65.944884,0,14.26837316,15.499344328,24,5,16.532,123.45799509239,70.209976,9.1938234,14.26837316,0,0,-13.42164,280, 6.6, 5.1,0,0,1024,1024,1669,1024,0,0,98,0,274.5,-90,0,99,4.11,4.116,4.104,4.111,0,0,10.982,76.64,123.45799509239,70.209976,6,P-GPS,
20800,2023-06-14 17:41:49,52.2063960008064,0.0866446886711809,73.8189,73.7860916,53.280827492388,127.06691909239,69.881892,0.223694,14.4601054496,15.7858600852,24,5,16.532,127.06691909239,73.8189,9.1938234,14.4601054496,0.223694,0,-13.197946,279.9, 5.8, 3.1,0,0,1024,1024,1663,1024,0,0,97,0,274.5,-89.9,0,99,4.11,4.116,4.104,4.111,0,0,10.982,76.64,127.06691909239,73.8189,6,P-GPS,
21000,2023-06-14 17:41:49,52.2063965820639,0.0866455687233349,77.427824,77.3950156,53.280827492388,130.67584309239,74.146984,0.223694,14.6663062436,16.0751645564,24,5,16.512,130.67584309239,77.427824,9.1938234,14.6663062436,0.223694,0,-12.974252,279.7, 4.7, 2.7,0,0,1024,1024,1658,1024,0,0,96,0,274.5,-89.9,0,99,4.138,4.146,4.137,4.146,0,0,15.176,76.64,130.67584309239,77.427824,6,P-GPS,
21200,2023-06-14 17:41:49,52.2063971670241,0.0866463912428115,81.036748,81.0039396,53.280827492388,134.28476709239,78.083992,0,14.8625004756,16.3568902872,24,5,16.512,134.28476709239,81.036748,9.1938234,14.8625004756,0,0,-12.526864,279.7, 5.2, 2.2,0,0,1024,1024,1655,1024,0,0,96,0,274.5,-90,0,99,4.138,4.146,4.137,4.146,0,0,15.176,76.64,134.28476709239,81.036748,6,P-GPS,
21400,2023-06-14 17:41:49,52.2063976133389,0.0866470956843487,84.645672,84.6128636,53.280827492388,137.89369109239,82.021,0,15.03116846,16.5834322892,24,5,16.512,137.89369109239,84.645672,9.1938234,15.03116846,0,0,-12.30317,279.7, 4.2, 1.9,0,0,1024,1024,1651,1024,0,0,95,0,274.5,-89.9,0,99,4.138,4.146,4.137,4.146,0,0,15.176,76.64,137.89369109239,84.645672,6,P-GPS,
21600,2023-06-14 17:41:49,52.2063979440138,0.0866476674743063,88.254596,88.2217876,53.280827492388,141.50261509239,83.66142,0,15.1682091468,16.7592196964,24,5,16.512,141.50261509239,88.254596,9.1938234,15.1682091468,0,0,-12.30317,279.6, 4.3, 2.7,0,0,1024,1024,1650,1024,0,0,95,0,274.5,-90,0,99,4.138,4.146,4.137,4.146,0,0,15.176,76.64,141.50261509239,88.254596,6,P-GPS,
21800,2023-06-14 17:41:50,52.2063981813211,0.0866479727588669,91.535436,91.5026276,53.280827492388,144.78345509239,83.66142,0,15.2436684668,16.8694887288,24,5,16.512,144.78345509239,91.535436,9.1938234,15.2436684668,0,0,-12.30317,279.7, 5.4, 3.5,0,0,1024,1024,1645,1024,0,0,94,0,274.5,-90,0,99,4.138,4.146,4.137,4.146,0,0,15.176,76.64,144.78345509239,91.535436,6,P-GPS,
22000,2023-06-14 17:41:50,52.2063983305337,0.0866481079057892,95.14436,95.1115516,53.280827492388,148.39237909239,83.66142,0.223694,15.2786750296,16.9317262636,24,5,16.602,148.39237909239,95.14436,9.1938234,15.2786750296,0,-0.223694,-11.855782,279.7, 6.1, 3.6,0,0,1024,1024,1641,1024,0,0,93,0,274.5,-90,0,99,4.161,4.161,4.154,4.153,0,0,11.083,76.82,148.39237909239,95.14436,6,P-GPS,
22200,2023-06-14 17:41:50,52.2063984681865,0.0866481482017295,98.097116,98.0643076,53.280827492388,151.34513509239,83.66142,0.223694,15.292323324,16.982776134,24,5,16.602,151.34513509239,98.097116,9.1938234,15.292323324,0,-0.223694,-11.632088,279.7, 6.4, 3.2,0,0,1024,1024,1639,1024,0,0,93,0,274.5,-90,0,99,4.161,4.161,4.154,4.153,0,0,11.083,76.82,151.34513509239,98.097116,6,P-GPS,
22400,2023-06-14 17:41:50,52.206398564826,0.0866481416103901,101.377956,101.3123392,53.313635892388,154.62597509239,83.66142,0.223694,15.2942590196,17.018045164,24,5,16.602,154.62597509239,101.377956,9.1938234,15.2942590196,0,-0.223694,-11.632088,279.8, 7.1, 3.8,0,0,1024,1024,1622,1024,0,0,91,0,274.5,-90,0,99,4.161,4.161,4.154,4.153,0,0,11.083,76.82,154.62597509239,101.377956,6,P-GPS,
22600,2023-06-14 17:41:51,52.2063987028359,0.0866482022185599,104.98688,104.9212632,53.313635892388,158.23489909239,83.66142,0,15.3127301488,17.07021052,24,5,16.602,158.23489909239,104.98688,9.1938234,15.3127301488,0,0,-11.408394,279.6, 7.1, 2.1,0,0,1024,1024,1024,1024,0,0,0,0,274.5,-90,0,99,4.161,4.161,4.154,4.153,0,0,11.083,76.82,158.23489909239,104.98688,6,P-GPS,
22800,2023-06-14 17:41:51,52.2063987804893,0.0866483770882626,107.939636,107.8740192,53.313635892388,161.18765509239,83.66142,0,15.354495242,17.1184716764,24,5,16.602,161.18765509239,107.939636,9.1938234,15.354495242,0,0,-10.513618,279.5, 6, 2,0,0,1024,1024,1024,1024,0,0,0,0,274.5,-90,0,99,4.161,4.161,4.154,4.153,0,0,11.083,76.82,161.18765509239,107.939636,6,P-GPS,
23000,2023-06-14 17:41:51,52.2063987329816,0.0866483873911622,110.236224,110.1706072,53.313635892388,163.48424309239,83.66142,0.223694,15.3550201764,17.1359585536,24,5,16.618,163.48424309239,110.236224,9.1938234,15.3550201764,0,-0.223694,-8.500372,279.4, 6.8, 2.5,0,0,1024,1024,1024,1024,0,0,0,0,274.5,-90,0,99,4.139,4.149,4.14,4.145,0,0,10.998,77,163.48424309239,110.236224,6,P-GPS,
23200,2023-06-14 17:41:51,52.2063985969832,0.0866482717176987,111.54856,111.4829432,53.313635892388,164.79657909239,83.66142,0.3131716,15.3243443224,17.191929684,24,5,16.618,164.79657909239,111.54856,9.1938234,15.3550201764,-0.223694,-0.223694,-6.039738,279.6, 7.1, 3.7,0,0,1024,1024,1024,1024,0,0,0,0,274.5,-90,0,99,4.139,4.149,4.14,4.145,0,0,10.998,77,164.79657909239,111.54856,6,P-GPS,
23400,2023-06-14 17:41:51,52.2063984122633,0.0866480714122758,112.204728,112.1719196,53.280827492388,165.45274709239,83.66142,0.3131716,15.273294452,17.2728351984,24,5,16.618,165.45274709239,112.204728,9.1938234,15.3550201764,-0.223694,-0.223694,-3.579104,279.7, 7.9, 4.3,0,0,1024,1024,1062,1024,0,0,6,0,274.5,-89.9,0,99,4.139,4.149,4.14,4.145,0,0,10.998,77,165.45274709239,112.204728,6,P-GPS,
23600,2023-06-14 17:41:51,52.206398221852,0.0866477953239239,112.860896,112.8280876,53.280827492388,166.10891509239,83.66142,0.223694,15.2054466808,17.3657813956,24,5,16.618,166.10891509239,112.860896,9.1938234,15.3550201764,0,-0.223694,-1.11847,279.7, 7.4, 3.5,0,0,1024,1024,1422,1024,0,0,60,0,274.5,-89.9,0,99,4.139,4.149,4.14,4.145,0,0,10.998,77,166.10891509239,112.860896,6,P-GPS,
23800,2023-06-14 17:41:52,52.2063979787143,0.0866475237369746,112.860896,112.8280876,53.280827492388,166.10891509239,83.66142,0,15.1372380172,17.473261714,24,5,16.618,166.10891509239,112.860896,9.1938234,15.3550201764,0,0,-0.671082,279.4, 4.6, 2.2,0,0,1024,1024,1684,1024,0,0,100,0,274.5,-89.9,0,99,4.139,4.149,4.14,4.145,0,0,10.998,77,166.10891509239,112.860896,6,P-GPS,
24000,2023-06-14 17:41:52,52.2063976189831,0.0866471284663019,113.517064,113.4842556,53.280827492388,166.76508309239,83.66142,0,15.0386159668,17.6314966272,24,5,16.985,166.76508309239,113.517064,9.1938234,15.3550201764,0,0,-2.460634,279.4, 4.6, 1.6,0,0,1024,1024,1684,1024,0,0,100,0,274.5,-90,0,99,4.251,4.25,4.235,4.235,0,0,6.095,77.36,166.76508309239,113.517064,6,P-GPS,
24200,2023-06-14 17:41:52,52.2063971191887,0.0866465994606376,114.501316,114.4685076,53.280827492388,167.74933509239,83.66142,0.223694,14.907808876,17.8488522772,24,5,16.985,167.74933509239,114.501316,9.1938234,15.3550201764,-0.223694,0,-4.697574,279.7, 5.5, 3.4,0,0,1024,1024,1684,1024,0,0,100,0,274.5,-89.9,0,99,4.251,4.25,4.235,4.235,0,0,6.095,77.36,167.74933509239,114.501316,6,P-GPS,
24400,2023-06-14 17:41:52,52.2063965953422,0.0866460941222854,116.797904,116.7650956,53.280827492388,170.04592309239,83.66142,0,14.7838587408,18.07086672,24,5,16.985,170.04592309239,116.797904,9.1938234,15.3550201764,0,0,-6.934514,279.8, 5.4, 4,0,0,1024,1024,1684,1024,0,0,100,0,274.5,-89.9,0,99,4.251,4.25,4.235,4.235,0,0,6.095,77.36,170.04592309239,116.797904,6,P-GPS,
24600,2023-06-14 17:41:52,52.206396228747,0.0866456377681396,120.734912,120.7021036,53.280827492388,173.98293109239,83.66142,0,14.6755582124,18.2391081952,24,5,16.985,173.98293109239,120.734912,9.1938234,15.3550201764,0,0,-9.395148,279.9, 5.8, 3,0,0,1024,1024,1684,1024,0,0,100,0,274.5,-90,0,99,4.251,4.25,4.235,4.235,0,0,6.095,77.36,173.98293109239,120.734912,6,P-GPS,
24800,2023-06-14 17:41:53,52.2063960188325,0.08664528557533,125.000004,124.9671956,53.280827492388,178.24802309239,83.66142,0,14.5937340628,18.3489507184,24,5,16.985,178.24802309239,125.000004,9.1938234,15.3550201764,0,0,-11.632088,279.9, 7, 3.2,0,0,1024,1024,1577,1024,0,0,84,0,274.5,-90,0,99,4.251,4.25,4.235,4.235,0,0,6.095,77.36,178.24802309239,125.000004,6,P-GPS,
25000,2023-06-14 17:41:53,52.2063959553132,0.0866451647434269,129.921264,129.8884556,53.280827492388,183.16928309239,83.66142,0,14.5658469228,18.3845478324,24,5,16.426,183.16928309239,129.921264,9.1938234,15.3550201764,0,0,-12.974252,279.8, 7.8, 3.4,0,0,1024,1024,1024,1024,0,0,0,0,274.5,-90,0,99,4.08,4.087,4.076,4.079,0,0,12.156,77,183.16928309239,129.921264,6,P-GPS,
25200,2023-06-14 17:41:53,52.2063959422536,0.0866452375417303,134.186356,134.1535476,53.280827492388,187.43437509239,83.66142,0,14.5819558472,18.4015097752,24,5,16.426,187.43437509239,134.186356,9.1938234,15.3550201764,0,0,-12.30317,279.9, 9.6, 5.8,0,0,1024,1024,1024,1024,0,0,0,0,274.5,-90,0,99,4.08,4.087,4.076,4.079,0,0,12.156,77,187.43437509239,134.186356,6,P-GPS,
25400,2023-06-14 17:41:53,52.2063958954967,0.0866452779634863,137.139112,137.1063036,53.280827492388,190.38713109239,83.66142,0.3131716,14.5903547976,18.4208011144,24,5,16.426,190.38713109239,137.139112,9.1938234,15.3550201764,-0.223694,-0.223694,-10.289924,280.3, 11.2, 9.6,0,0,1024,1024,370,1024,0,0,-99,0,274.5,-90,0,99,4.08,4.087,4.076,4.079,0,0,12.156,77,190.38713109239,137.139112,6,P-GPS,
25600,2023-06-14 17:41:53,52.2063959179224,0.0866454018009842,139.4357,139.4028916,53.280827492388,192.68371909239,83.66142,0.223694,14.6183403628,18.4496725064,24,5,16.426,192.68371909239,139.4357,9.1938234,15.3550201764,0,-0.223694,-8.052984,280.6, 12, 12.2,0,0,1024,1024,364,1024,0,0,-100,0,274.5,-90,0,99,4.08,4.087,4.076,4.079,0,0,12.156,77,192.68371909239,139.4357,6,P-GPS,
25800,2023-06-14 17:41:54,52.2063961021857,0.0866456043081801,140.748036,140.7152276,53.280827492388,193.99605509239,83.66142,0,14.6661422016,18.5307420628,24,5,16.426,193.99605509239,140.748036,9.1938234,15.3550201764,0,0,-5.59235,280.7, 12.3, 11.6,0,0,1024,1024,364,1024,0,0,-100,0,274.5,-89.9,0,99,4.08,4.087,4.076,4.079,0,0,12.156,77,193.99605509239,140.748036,6,P-GPS,
26000,2023-06-14 17:41:54,52.2063964962058,0.0866459659721083,141.732288,141.6994796,53.280827492388,194.98030709239,83.66142,0.223694,14.7534125456,18.6956698896,24,5,16.778,194.98030709239,141.732288,9.1938234,15.3550201764,0.223694,0,-3.131716,280.5, 11.8, 8.4,0,0,1024,1024,364,1024,0,0,-100,0,274.5,-90,0,99,4.217,4.224,4.222,4.227,0,0,12.134,77.36,194.98030709239,141.732288,6,P-GPS,
26200,2023-06-14 17:41:54,52.2063970581208,0.0866464277992327,141.404204,141.3713956,53.280827492388,194.65222309239,83.66142,0.4921268,14.8680779036,18.9252302644,24,5,16.778,194.98030709239,141.732288,9.1938234,15.3550201764,0.447388,0.223694,-0.671082,280.1, 10.1, 3.9,0,0,1024,1024,364,1024,0,0,-100,0,274.5,-89.9,0,99,4.217,4.224,4.222,4.227,0,0,12.134,77.36,194.65222309239,141.404204,6,P-GPS,
26400,2023-06-14 17:41:54,52.206397605758,0.0866469308309656,141.404204,141.3713956,53.280827492388,194.65222309239,83.66142,0.4921268,14.9941933932,19.154528172,24,5,16.778,194.98030709239,141.732288,9.1938234,15.3550201764,0.447388,0.223694,1.342164,279.7, 6.2, 0.5,0,0,1024,1024,364,1024,0,0,-100,0,274.5,-89.9,0,99,4.217,4.224,4.222,4.227,0,0,12.134,77.36,194.65222309239,141.404204,6,P-GPS,
26600,2023-06-14 17:41:54,52.2063980947242,0.0866474010947248,140.748036,140.7152276,53.280827492388,193.99605509239,83.66142,0.6263432,15.1135503524,19.3615819844,24,5,16.778,194.98030709239,141.732288,9.1938234,15.3550201764,0.447388,0.447388,3.579104,280, 3.4, -2.7,0,0,1024,1024,398,1024,0,0,-95,0,274.5,-89.9,0,99,4.217,4.224,4.222,4.227,0,0,12.134,77.36,193.99605509239,140.748036,6,P-GPS,
26800,2023-06-14 17:41:55,52.2063983777555,0.0866477735927741,139.4357,139.4028916,53.280827492388,192.68371909239,83.66142,0.4921268,15.2058403816,19.494259154,24,5,16.778,194.98030709239,141.732288,9.1938234,15.3550201764,0.223694,0.447388,5.368656,279.9, 1.7, -3.7,0,0,1024,1024,988,1024,0,0,-5,0,274.5,-89.9,0,99,4.217,4.224,4.222,4.227,0,0,12.134,77.36,192.68371909239,139.4357,6,P-GPS,
27000,2023-06-14 17:41:55,52.2063984121375,0.0866480069807097,137.467196,137.4343876,53.280827492388,190.71521509239,83.66142,0.447388,15.2589571812,19.5479336964,24,5,17.014,194.98030709239,141.732288,9.1938234,15.3550201764,0,0.447388,6.934514,280.2, -1.7, -3.3,0,0,1024,1024,1024,1024,0,0,0,0,274.5,-89.9,0,99,4.258,4.263,4.26,4.26,0,0,3.848,77.72,190.71521509239,137.467196,6,P-GPS,
27200,2023-06-14 17:41:55,52.206398165697,0.0866477959460121,135.498692,135.4658836,53.280827492388,188.74671109239,83.66142,0.223694,15.2037734524,19.6494756944,24,5,17.014,194.98030709239,141.732288,9.1938234,15.3550201764,-0.223694,0,5.59235,280.8, -4.2, -5.1,0,0,1024,1024,1024,1024,0,0,0,0,274.5,-90,0,99,4.258,4.263,4.26,4.26,0,0,3.848,77.72,188.74671109239,135.498692,6,P-GPS,
27400,2023-06-14 17:41:55,52.2063974518529,0.0866466349685955,134.186356,134.1535476,53.280827492388,187.43437509239,83.66142,0.8052984,14.924049034,20.0171922416,24,5,17.014,194.98030709239,141.732288,9.1938234,15.3550201764,-0.671082,-0.447388,3.131716,279.8, 0.3, 2.5,0,0,1024,1024,1024,1024,0,0,0,0,274.5,-90,0,99,4.258,4.263,4.26,4.26,0,0,3.848,77.72,187.43437509239,134.186356,6,P-GPS,
27600,2023-06-14 17:41:55,52.2063966661635,0.0866449629911246,133.858272,133.8254636,53.280827492388,187.10629109239,83.66142,0.7158208,14.5327104388,20.4882552488,24,5,17.014,194.98030709239,141.732288,9.1938234,15.3550201764,-0.223694,-0.671082,1.11847,279.2, 4.9, 8.7,0,0,1024,1024,1016,1024,0,0,-1,0,274.5,-90,0,99,4.258,4.263,4.26,4.26,0,0,3.848,77.72,187.10629109239,133.858272,6,P-GPS,
27800,2023-06-14 17:41:56,52.206396300538,0.0866433851027524,133.530188,133.4973796,53.280827492388,186.77820709239,83.66142,0.447388,14.1735896924,20.8654534236,24,5,17.014,194.98030709239,141.732288,9.1938234,15.3550201764,0,-0.447388,0.223694,280.5, 9.7, 5.2,0,0,1024,1024,970,1024,0,0,-8,0,274.5,-89.9,0,99,4.258,4.263,4.26,4.26,0,0,3.848,77.72,186.77820709239,133.530188,6,P-GPS,
28000,2023-06-14 17:41:56,52.2063960851907,0.0866422467931127,133.858272,133.8254636,53.280827492388,187.10629109239,83.66142,0.223694,13.9158140936,21.1317920148,24,5,16.655,194.98030709239,141.732288,9.1938234,15.3550201764,0,-0.223694,0,280.4, 9.9, 4,0,0,1024,1024,364,1024,0,0,-100,0,274.5,-90,0,99,4.182,4.192,4.187,4.198,0,0,6.994,77.54,187.10629109239,133.858272,6,P-GPS,
28200,2023-06-14 17:41:56,52.2063959485187,0.0866414447396402,133.858272,133.8254636,53.280827492388,187.10629109239,83.66142,0.223694,13.7346133004,21.3179468764,24,5,16.655,194.98030709239,141.732288,9.1938234,15.3550201764,0,-0.223694,1.11847,280.6, 12, 5.4,0,0,1024,1024,963,1024,0,0,-9,0,274.5,-90,0,99,4.182,4.192,4.187,4.198,0,0,6.994,77.54,187.10629109239,133.858272,6,P-GPS,
28400,2023-06-14 17:41:56,52.2063958814185,0.0866408064281796,133.202104,133.1692956,53.280827492388,186.45012309239,83.66142,0.223694,13.5910765504,21.4627303456,24,5,16.655,194.98030709239,141.732288,9.1938234,15.3550201764,0,-0.223694,2.460634,280.6, 10.7, 5.3,0,0,1024,1024,1024,1024,0,0,0,0,274.5,-89.9,0,99,4.182,4.192,4.187,4.198,0,0,6.994,77.54,186.45012309239,133.202104,6,P-GPS,
28600,2023-06-14 17:41:57,52.2063959789507,0.0866407604565578,132.87402,132.8412116,53.280827492388,186.12203909239,83.66142,0,13.582185474,21.4997710292,24,5,16.655,194.98030709239,141.732288,9.1938234,15.3550201764,0,0,0.671082,280.2, 8.1, 3.5,0,0,1024,1024,948,1024,0,0,-12,0,274.5,-90,0,99,4.182,4.192,4.187,4.198,0,0,6.994,77.54,186.12203909239,132.87402,6,P-GPS,
28800,2023-06-14 17:41:57,52.2063961466919,0.0866410314284087,132.87402,132.8412116,53.280827492388,186.12203909239,83.66142,0.223694,13.6453088356,21.5858930792,24,5,16.655,194.98030709239,141.732288,9.1938234,15.3550201764,0,0.223694,0,280.2, 8.2, 3.3,0,0,1024,1024,440,1024,0,0,-88,0,274.5,-90,0,99,4.182,4.192,4.187,4.198,0,0,6.994,77.54,186.12203909239,132.87402,6,P-GPS,
29000,2023-06-14 17:41:57,52.2063963290335,0.0866414228267567,132.87402,132.8412116,53.280827492388,186.12203909239,83.66142,0.223694,13.7358272112,21.6958340276,24,5,16.795,194.98030709239,141.732288,9.1938234,15.3550201764,0,0.223694,0.447388,280.2, 6.9, 3.1,0,0,1024,1024,830,1024,0,0,-29,0,274.5,-90,0,99,4.19,4.2,4.197,4.201,0,0,7.812,77.54,186.12203909239,132.87402,6,P-GPS,
29200,2023-06-14 17:41:57,52.2063964852217,0.0866417647516155,132.217852,132.1850436,53.280827492388,185.46587109239,83.66142,0,13.8150923056,21.791175238,24,5,16.795,194.98030709239,141.732288,9.1938234,15.3550201764,0,0,2.684328,280.2, 5.6, 2.3,0,0,1024,1024,1024,1024,0,0,0,0,274.5,-90,0,99,4.19,4.2,4.197,4.201,0,0,7.812,77.54,185.46587109239,132.217852,6,P-GPS,
29400,2023-06-14 17:41:57,52.2063966171656,0.0866420487034423,131.561684,131.5288756,53.280827492388,184.80970309239,83.66142,0,13.8811028064,21.8708340332,24,5,16.795,194.98030709239,141.732288,9.1938234,15.3550201764,0,0,2.013246,280, 2.9, 1.9,0,0,1024,1024,1024,1024,0,0,0,0,274.5,-89.9,0,99,4.19,4.2,4.197,4.201,0,0,7.812,77.54,184.80970309239,131.561684,6,P-GPS,
29600,2023-06-14 17:41:57,52.2063966341299,0.0866421555837934,131.2336,131.2007916,53.280827492388,184.48161909239,83.66142,0,13.9053154056,21.8955387584,24,5,16.795,194.98030709239,141.732288,9.1938234,15.3550201764,0,0,0.447388,280.1, 7.1, 3.8,0,0,1024,1024,1024,1024,0,0,0,0,274.5,-90,0,99,4.19,4.2,4.197,4.201,0,0,7.812,77.54,184.48161909239,131.2336,6,P-GPS,
29800,2023-06-14 17:41:58,52.2063966612676,0.0866423147684848,131.2336,131.2007916,53.280827492388,184.48161909239,83.66142,0,13.9414046456,21.9324810168,24,5,16.795,194.98030709239,141.732288,9.1938234,15.3550201764,0,0,0,280.4, 6.6, 3.6,0,0,1668,1024,1024,1024,98,0,0,0,274.5,-89.9,0,99,4.19,4.2,4.197,4.201,0,0,7.812,77.54,184.48161909239,131.2336,6,P-GPS,
30000,2023-06-14 17:41:58,52.2063967538419,0.0866424940696925,131.2336,131.2007916,53.280827492388,184.48161909239,83.66142,0,13.9833993976,21.98490884,24,5,16.598,194.98030709239,141.732288,9.1938234,15.3550201764,0,0,0,280.2, 1.6, 0.1,0,0,1684,1024,1024,1024,100,0,0,0,274.5,-89.9,0,99,4.189,4.198,4.196,4.199,0,0,7.541,77.72,184.48161909239,131.2336,6,P-GPS,
30200,2023-06-14 17:41:58,52.2063967888041,0.0866420142579273,130.905516,130.8727076,53.280827492388,184.15353509239,83.66142,0.894776,13.8771001816,22.0929469012,24,5,16.598,194.98030709239,141.732288,9.1938234,15.3550201764,0,-0.894776,-0.223694,280.3, -20.4, 0.2,0,0,1684,1024,1024,1024,100,0,0,0,274.5,-89.9,0,99,4.189,4.198,4.196,4.199,0,0,7.541,77.72,184.15353509239,130.905516,6,P-GPS,
30400,2023-06-14 17:41:58,52.2063969232806,0.0866392785515078,130.905516,130.8727076,53.280827492388,184.15353509239,83.66142,3.131716,13.2698166976,22.7065624064,24,5,16.598,194.98030709239,141.732288,9.1938234,15.3550201764,0.223694,-3.131716,0,280.1, -24.9, 1.3,0,0,1684,1024,1024,1024,100,0,0,0,274.5,-89.9,0,99,4.189,4.198,4.196,4.199,0,0,7.541,77.72,184.15353509239,130.905516,6,P-GPS,
30600,2023-06-14 17:41:58,52.2063972816403,0.0866336252617364,130.905516,130.8727076,53.280827492388,184.15353509239,83.66142,5.1673314,12.01935734,23.9772973552,24,5,16.598,194.98030709239,141.732288,9.1938234,15.3550201764,0.447388,-5.144962,0,279.4, -23.7, 2.9,0,0,1684,1024,1024,1024,100,0,0,0,274.5,-89.9,0,99,4.189,4.198,4.196,4.199,0,0,7.541,77.72,184.15353509239,130.905516,6,P-GPS,
30800,2023-06-14 17:41:59,52.2063979059944,0.0866252438773891,130.905516,130.8727076,53.280827492388,184.15353509239,83.66142,7.4266408,10.1788717168,25.8650598828,24,5,16.598,194.98030709239,141.732288,9.1938234,15.3550201764,0.894776,-7.381902,0,278.5, -23.9, 5.4,0,0,1684,1024,1024,1024,100,0,0,0,274.5,-89.9,0,99,4.189,4.198,4.196,4.199,0,0,7.541,77.72,184.15353509239,130.905516,6,P-GPS,
31000,2023-06-14 17:41:59,52.2063988865142,0.0866141509746713,130.577432,130.5118152,53.313635892388,183.82545109239,83.66142,9.4846256,7.7893047112,28.3709654748,23,5,16.801,194.98030709239,141.732288,9.4846256,15.3550201764,1.342164,-9.395148,0,278.7, -21.4, 5.4,0,0,1684,1024,1024,1024,100,0,0,0,274.5,-90,0,99,4.182,4.193,4.177,4.18,0,0,7.473,77.9,183.82545109239,130.577432,6,P-GPS,
31200,2023-06-14 17:41:59,52.2064002690913,0.0866005265258071,130.577432,130.5118152,53.313635892388,183.82545109239,83.66142,11.3189164,5.039206198,31.4586952324,23,5,16.801,194.98030709239,141.732288,11.3189164,15.3550201764,1.789552,-11.1847,0,279.6, -18.6, 4,0,0,1679,1024,1024,1024,99,0,0,0,274.5,-90,0,99,4.182,4.193,4.177,4.18,0,0,7.473,77.9,183.82545109239,130.577432,6,P-GPS,
31400,2023-06-14 17:41:59,52.2064019378854,0.0865847535099841,130.577432,130.4790068,53.346444292388,183.82545109239,83.66142,12.9071438,2.91569235052,35.037402696,23,5,16.801,194.98030709239,141.732288,12.9071438,15.3550201764,2.013246,-12.750558,0,279.5, -19.1, 3.6,0,0,1608,1024,1024,1024,88,0,0,0,274.5,-90,0,99,4.182,4.193,4.177,4.18,0,0,7.473,77.9,183.82545109239,130.577432,6,P-GPS,
31600,2023-06-14 17:41:59,52.2064038573986,0.0865669865851534,130.249348,130.1509228,53.346444292388,183.49736709239,83.66142,14.316416,4.500000144,39.071195476,23,5,16.801,194.98030709239,141.732288,14.316416,15.3550201764,2.460634,-14.092722,-0.223694,279.7, -17.3, 3.9,0,0,1351,1024,1024,1024,50,0,0,0,274.5,-89.9,0,99,4.182,4.193,4.177,4.18,0,0,7.473,77.9,183.49736709239,130.249348,6,P-GPS,
31800,2023-06-14 17:42:00,52.2064060102797,0.0865475302032207,130.249348,130.1181144,53.379252692388,183.49736709239,83.66142,15.4572554,8.4024937072,43.491799292,23,5,16.801,194.98030709239,141.732288,15.4572554,15.3550201764,2.684328,-15.211192,-0.223694,280.1, -8, 3.6,0,0,1024,1024,1024,1024,0,0,0,0,274.5,-90,0,99,4.182,4.193,4.177,4.18,0,0,7.473,77.9,183.49736709239,130.249348,6,P-GPS,
32000,2023-06-14 17:42:00,52.2064082687437,0.0865274389514084,130.249348,130.085306,53.412061092388,183.49736709239,83.66142,15.2335614,12.7961946352,48.058728572,23,5,16.738,194.98030709239,141.732288,15.4572554,15.3550201764,2.684328,-14.987498,-0.223694,280.2, 20.6, 0.6,0,0,1024,1024,1024,1024,0,0,0,0,274.5,-90,0,99,4.195,4.204,4.192,4.192,0,0,8.412,77.9,183.49736709239,130.249348,6,P-GPS,
32200,2023-06-14 17:42:00,52.2064102153829,0.0865095120284534,130.249348,130.0524976,53.444869492388,183.49736709239,83.66142,13.1755766,16.7862866264,52.129594844,23,5,16.738,194.98030709239,141.732288,15.4572554,16.7862866264,2.23694,-12.974252,0,280.7, 28.6, 1.7,0,0,1024,1024,1024,1024,0,0,0,0,274.5,-89.9,0,99,4.195,4.204,4.192,4.192,0,0,8.412,77.9,183.49736709239,130.249348,6,P-GPS,
32400,2023-06-14 17:42:00,52.2064118905208,0.0864938761551279,130.249348,130.0524976,53.444869492388,183.49736709239,83.66142,10.6702038,20.2899940876,55.678479472,23,5,16.738,194.98030709239,141.732288,15.4572554,20.2899940876,1.789552,-10.513618,-0.223694,280.8, 28.4, 2.8,0,0,1024,1024,1024,1024,0,0,0,0,274.5,-90,0,99,4.195,4.204,4.192,4.192,0,0,8.412,77.9,183.49736709239,130.249348,6,P-GPS,
32600,2023-06-14 17:42:00,52.2064132540438,0.0864818025827259,130.249348,130.0196892,53.477677892388,183.49736709239,83.66142,8.388525,23.0125663532,58.4235583,24,5,16.738,194.98030709239,141.732288,15.4572554,23.0125663532,1.342164,-8.276678,-0.223694,281, 28.6, 2.9,0,0,1024,1024,1024,1024,0,0,0,0,274.5,-89.9,0,99,4.195,4.204,4.192,4.192,0,0,8.412,77.9,183.49736709239,130.249348,6,P-GPS,
32800,2023-06-14 17:42:01,52.2064143317865,0.0864726284937041,130.249348,130.0196892,53.477677892388,183.49736709239,83.66142,6.151585,25.0889443724,60.51181296,24,5,16.738,194.98030709239,141.732288,15.4572554,25.0889443724,1.11847,-6.039738,-0.223694,280.9, 29.1, 2.9,0,0,1024,1024,1024,1024,0,0,0,0,274.5,-89.9,0,99,4.195,4.204,4.192,4.192,0,0,8.412,77.9,183.49736709239,130.249348,6,P-GPS,
33000,2023-06-14 17:42:01,52.2064151523871,0.086466291413628,130.249348,130.0196892,53.477677892388,183.49736709239,83.66142,4.0712308,26.5322186968,61.959975736,24,5,16.709,194.98030709239,141.732288,15.4572554,26.5322186968,0.671082,-4.026492,-0.223694,280.7, 29.4, 2.5,0,0,1024,1024,1024,1024,0,0,0,0,274.5,-90,0,99,4.174,4.178,4.173,4.176,0,0,8.361,77.9,183.49736709239,130.249348,6,P-GPS,
33200,2023-06-14 17:42:01,52.2064157086,0.086462656174606,130.249348,129.9868808,53.510486292388,183.49736709239,83.66142,2.2816788,27.3691609808,62.797902272,24,5,16.709,194.98030709239,141.732288,15.4572554,27.3691609808,0.447388,-2.23694,-0.223694,280.6, 22.8, 2.2,0,0,1024,1024,1024,1024,0,0,0,0,274.5,-90,0,99,4.174,4.178,4.173,4.176,0,0,8.361,77.9,183.49736709239,130.249348,6,P-GPS,
33400,2023-06-14 17:42:01,52.2064160245326,0.0864609784445664,130.577432,130.3149648,53.510486292388,183.82545109239,83.66142,1.1408394,27.7615822532,63.190290736,24,5,16.709,194.98030709239,141.732288,15.4572554,27.7615822532,0.223694,-1.11847,-0.223694,280.3, 14.6, 1.7,0,0,1024,1024,1024,1024,0,0,0,0,274.5,-90,0,99,4.174,4.178,4.173,4.176,0,0,8.361,77.9,183.82545109239,130.577432,6,P-GPS,
33600,2023-06-14 17:42:01,52.206416194393,0.0864601886301557,130.577432,130.3149648,53.510486292388,183.82545109239,83.66142,0.671082,27.948491708,63.377298616,24,5,16.709,194.98030709239,141.732288,15.4572554,27.948491708,0,-0.671082,-0.223694,280.2, 10.9, 2.1,0,0,1024,1024,1024,1024,0,0,0,0,274.5,-89.9,0,99,4.174,4.178,4.173,4.176,0,0,8.361,77.9,183.82545109239,130.577432,6,P-GPS,
33800,2023-06-14 17:42:02,52.2064162760227,0.0864598285738712,130.577432,130.3149648,53.510486292388,183.82545109239,83.66142,0.447388,28.0341544404,63.463256624,25,5,16.709,194.98030709239,141.732288,15.4572554,28.0341544404,0,-0.447388,-0.223694,280.3, 9.4, 2.3,0,0,1024,1024,1024,1024,0,0,0,0,274.5,-90,0,99,4.174,4.178,4.173,4.176,0,0,8.361,77.9,183.82545109239,130.577432,6,P-GPS,
34000,2023-06-14 17:42:02,52.2064162995817,0.0864596979353412,130.905516,130.6430488,53.510486292388,184.15353509239,83.66142,0.223694,28.0646006356,63.493768436,25,5,16.748,194.98030709239,141.732288,15.4572554,28.0646006356,0,-0.223694,-0.223694,280.2, 8.7, 2.9,0,0,1024,1024,1024,1024,0,0,0,0,274.5,-89.9,0,99,4.198,4.205,4.198,4.206,0,0,8.56,78.08,184.15353509239,130.905516,6,P-GPS,
