time(millisecond),datetime(utc),latitude,longitude,height_above_takeoff(feet),height_above_ground_at_drone_location(feet),ground_elevation_at_drone_location(feet),altitude_above_seaLevel(feet),height_sonar(feet),speed(mph),distance(feet),mileage(feet),satellites,gpslevel,voltage(v),max_altitude(feet),max_ascent(feet),max_speed(mph),max_distance(feet), xSpeed(mph), ySpeed(mph), zSpeed(mph), compass_heading(degrees), pitch(degrees), roll(degrees),isPhoto,isVideo,rc_elevator,rc_aileron,rc_throttle,rc_rudder,rc_elevator(percent),rc_aileron(percent),rc_throttle(percent),rc_rudder(percent),gimbal_heading(degrees),gimbal_pitch(degrees),gimbal_roll(degrees),battery_percent,voltageCell1,voltageCell2,voltageCell3,voltageCell4,voltageCell5,voltageCell6,current(A),battery_temperature(f),altitude(feet),ascent(feet),flycStateRaw,flycState,message
0,2023-06-20 14:49:41,0,0,0,,,54.026183815452,0.328084,0,0,0,7,0,0,54.026183815452,0,0,0,0,0,0,275.3, 4.9, 0,0,0,1024,1024,1024,1024,0,0,0,0,275.5,0,0.1,100,4.32,4.326,4.324,4.327,0,0,0,76.64,54.026183815452,0,41,Motors_Started,
200,2023-06-20 14:49:42,0,0,0,,,54.026183815452,0.328084,0,0,0,7,0,0,54.026183815452,0,0,0,0,0,0,275.3, 4.9, 0,0,0,1024,1024,1024,1024,0,0,0,0,275.4,0,0,100,4.32,4.326,4.324,4.327,0,0,0,76.64,54.026183815452,0,41,Motors_Started,
400,2023-06-20 14:49:42,0,0,0,,,54.026183815452,0,0,0,0,7,0,0,54.026183815452,0,0,0,0,0,0,275.3, 4.9, 0,0,0,1024,1024,1024,1024,0,0,0,0,275.4,0,0,100,4.32,4.326,4.324,4.327,0,0,0,76.64,54.026183815452,0,41,Motors_Started,
600,2023-06-20 14:49:42,0,0,0,,,54.026183815452,0,0,0,0,7,0,0,54.026183815452,0,0,0,0,0,0,275.3, 4.9, 0,0,0,1024,1024,1024,1024,0,0,0,0,275.4,0,0,100,4.32,4.326,4.324,4.327,0,0,0,76.64,54.026183815452,0,41,Motors_Started,"Setting new Return-To-Home altitude to 26m (85 ft). Data Recorder File Index is 43. Setting new Maximum Flight Altitude to 30m (98 ft). No GPS. Fly with caution GPS signal weak. Hovering unstable. Fly with caution (Code: 30002)"
800,2023-06-20 14:49:42,0,0,0,,,54.026183815452,0,0,0,0,7,0,0,54.026183815452,0,0,0,0,0,0,275.3, 4.9, 0,0,0,1024,1024,1024,1024,0,0,0,0,275.4,0,0,100,4.32,4.326,4.324,4.327,0,0,0,76.64,54.026183815452,0,41,Motors_Started,
1000,2023-06-20 14:49:42,0,0,0,,,54.026183815452,0,0,0,0,7,0,0,54.026183815452,0,0,0,0,0,0,275.3, 4.9, 0,0,0,1024,1024,1024,1024,0,0,0,0,275.4,0,0,100,4.32,4.326,4.324,4.327,0,0,0,76.64,54.026183815452,0,41,Motors_Started,
1200,2023-06-20 14:49:43,0,0,0,,,54.026183815452,0,0,0,0,7,0,0,54.026183815452,0,0,0,0,0,0,275.3, 4.9, 0,0,0,1024,1024,1024,1024,0,0,0,0,275.4,0,0,100,4.32,4.326,4.324,4.327,0,0,0,76.64,54.026183815452,0,41,Motors_Started,
1400,2023-06-20 14:49:43,0,0,0,,,54.026183815452,0,0,0,0,7,0,0,54.026183815452,0,0,0,0,0,0,275.4, 4.9, 0,0,0,1024,1024,1024,1024,0,0,0,0,275.4,0,0,100,4.32,4.326,4.324,4.327,0,0,0,76.64,54.026183815452,0,41,Motors_Started,
1600,2023-06-20 14:49:43,0,0,0,,,54.026183815452,0,0,0,0,7,0,17.182,54.026183815452,0,0,0,0,0,0,275.3, 4.9, 0,0,0,1024,1024,1024,1024,0,0,0,0,275.4,0,0,100,4.32,4.326,4.324,4.327,0,0,4.473,76.64,54.026183815452,0,11,AutoTakeoff,
1800,2023-06-20 14:49:43,0,0,0,,,54.026183815452,0,0,0,0,7,0,17.182,54.026183815452,0,0,0,0,0,0,275.3, 4.8, 0.1,0,0,1024,1024,1024,1024,0,0,0,0,275.4,0,0,100,4.32,4.326,4.324,4.327,0,0,4.473,76.64,54.026183815452,0,11,AutoTakeoff,
2000,2023-06-20 14:49:43,0,0,0,,,54.026183815452,0,0,0,0,7,0,17.182,54.026183815452,0,0,0,0,0,0,274, 0.2, 0.3,0,0,1024,1024,1024,1024,0,0,0,0,275.4,0,0,100,4.32,4.326,4.324,4.327,0,0,4.473,76.64,54.026183815452,0,11,AutoTakeoff,
2200,2023-06-20 14:49:44,0,0,0,,,54.026183815452,0.328084,0,0,0,7,0,17.182,54.026183815452,0,0,0,0,0,-0.894776,273.6, -1.3, -0.7,0,0,1024,1024,1264,1024,0,0,36,0,275.2,0,0,100,4.32,4.326,4.324,4.327,0,0,4.473,76.64,54.026183815452,0,11,AutoTakeoff,
2400,2023-06-20 14:49:44,0,0,0.328084,,,54.354267815452,0.328084,0,0,0,7,0,17.182,54.354267815452,0.328084,0,0,0,0,-1.11847,273.8, 1, -0.8,0,0,1024,1024,1610,1024,0,0,89,0,275.1,0,0,100,4.32,4.326,4.324,4.327,0,0,4.473,76.64,54.354267815452,0.328084,11,AutoTakeoff,
2600,2023-06-20 14:49:44,0,0,0.656168,,,54.682351815452,0.984252,0,0,0,7,0,17.177,54.682351815452,0.656168,0,0,0,0,-1.565858,273.5, 0.8, 0,0,0,1024,1024,1684,1024,0,0,100,0,275,0,0,100,4.261,4.263,4.258,4.262,0,0,3.676,76.64,54.682351815452,0.656168,11,AutoTakeoff,
2800,2023-06-20 14:49:44,0,0,1.312336,,,55.338519815452,1.64042,0.223694,0,0,7,0,17.177,55.338519815452,1.312336,0.223694,0,0.223694,0,-2.908022,274, 1, -3.3,0,0,1024,1024,1684,1024,0,0,100,0,274.9,0,0,100,4.261,4.263,4.258,4.262,0,0,3.676,76.64,55.338519815452,1.312336,11,AutoTakeoff,
3000,2023-06-20 14:49:44,0,0,2.296588,,,56.322771815452,2.624672,0,0,0,8,0,17.177,56.322771815452,2.296588,0.223694,0,0,0,-4.697574,273.9, -0.1, -3.2,0,1,1024,1024,1684,1024,0,0,100,0,274.9,0,0,100,4.261,4.263,4.258,4.262,0,0,3.676,76.64,56.322771815452,2.296588,11,AutoTakeoff,
3200,2023-06-20 14:49:45,0,0,4.265092,,,58.291275815452,4.593176,0,0,0,8,0,17.177,58.291275815452,4.265092,0.223694,0,0,0,-6.71082,273.9, 1.1, -4.2,0,1,1024,1024,1642,1024,0,0,94,0,274.8,0,0,100,4.261,4.263,4.258,4.262,0,0,3.676,76.64,58.291275815452,4.265092,6,P-GPS,
3400,2023-06-20 14:49:45,0,0,7.545932,,,61.572115815452,6.889764,0.223694,0,0,8,0,17.177,61.572115815452,7.545932,0.223694,0,0,0.223694,-8.724066,274.2, 0.3, -3.9,0,1,1024,1024,1549,1024,0,0,80,0,274.8,0,0,100,4.261,4.263,4.258,4.262,0,0,3.676,76.64,61.572115815452,7.545932,6,P-GPS,
3600,2023-06-20 14:49:45,0,0,11.48294,,,65.509123815452,9.84252,0.3131716,0,0,8,0,16.801,65.509123815452,11.48294,0.3131716,0,0.223694,0.223694,-10.513618,274.9, -2.6, -7.4,0,1,1024,1024,1024,1024,0,0,0,0,274.8,0,0,100,4.146,4.152,4.147,4.145,0,0,9.575,76.46,65.509123815452,11.48294,6,P-GPS,
3800,2023-06-20 14:49:45,0,0,15.419948,,,69.446131815452,12.795276,0,0,0,8,0,16.801,69.446131815452,15.419948,0.3131716,0,0,0,-9.618842,274.5, -4, -9.5,0,1,1024,1024,1024,1024,0,0,0,0,274.8,0,0,100,4.146,4.152,4.147,4.145,0,0,9.575,76.46,69.446131815452,15.419948,6,P-GPS,
4000,2023-06-20 14:49:45,0,0,18.372704,,,72.398887815452,15.419948,0,0,0,8,0,16.801,72.398887815452,18.372704,0.3131716,0,0,0,-8.052984,274.5, -4.4, -8.5,0,1,1024,1024,1024,1024,0,0,0,0,274.8,0,0,100,4.146,4.152,4.147,4.145,0,0,9.575,76.46,72.398887815452,18.372704,6,P-GPS,
4200,2023-06-20 14:49:46,0,0,18.372704,,,72.398887815452,17.716536,0,0,0,8,0,16.801,72.398887815452,18.372704,0.3131716,0,0,0,-5.816044,274.4, -3.2, -8.6,0,1,1024,1024,1024,1024,0,0,0,0,274.8,0,0,100,4.146,4.152,4.147,4.145,0,0,9.575,76.46,72.398887815452,18.372704,6,P-GPS,
4400,2023-06-20 14:49:46,0,0,20.013124,,,74.039307815452,19.028872,0,0,0,8,2,16.801,74.039307815452,20.013124,0.3131716,0,0,0,-3.579104,274.2, -1.9, -9.4,0,1,1024,1024,1654,1024,0,0,95,0,274.8,0,0,100,4.146,4.152,4.147,4.145,0,0,9.575,76.46,74.039307815452,20.013124,6,P-GPS,
4600,2023-06-20 14:49:46,0,0,20.669292,,,74.695475815452,19.68504,0,0,0,8,2,16.978,74.695475815452,20.669292,0.3131716,0,0,0,-1.342164,274.2, -1.3, -9.8,0,1,1024,1024,1684,1024,0,0,100,0,274.8,0,0,100,4.291,4.294,4.29,4.294,0,0,11.235,76.64,74.695475815452,20.669292,6,P-GPS,
4800,2023-06-20 14:49:46,0,0,21.32546,,,75.351643815452,20.341208,0.223694,0,0,8,2,16.978,75.351643815452,21.32546,0.3131716,0,0,-0.223694,-2.23694,274.4, -0.6, -7,0,1,1024,1024,1684,1024,0,0,100,0,274.8,0,0,100,4.291,4.294,4.29,4.294,0,0,11.235,76.64,75.351643815452,21.32546,6,P-GPS,
5000,2023-06-20 14:49:46,0,0,22.309712,,,76.335895815452,21.32546,0.223694,0,0,8,2,16.978,76.335895815452,22.309712,0.3131716,0,-0.223694,0,-4.250186,274.3, 0.8, -6.4,0,1,1024,1024,1684,1024,0,0,100,0,274.8,0,0,100,4.291,4.294,4.29,4.294,0,0,11.235,76.64,76.335895815452,22.309712,6,P-GPS,
5200,2023-06-20 14:49:46,52.2063967779097,0.0867391370889679,24.278216,24.278216,54.026183815452,78.304399815452,22.96588,0.223694,0,0,8,2,16.978,78.304399815452,24.278216,0.3131716,0,-0.223694,0,-6.487126,274.1, 0.5, -5.7,0,1,1024,1024,1684,1024,0,0,100,0,274.8,0,0,100,4.291,4.294,4.29,4.294,0,0,11.235,76.64,78.304399815452,24.278216,6,P-GPS,"No GPS. Fly with caution GPS signal weak. Hovering unstable. Fly with caution (Code: 30002)"
5400,2023-06-20 14:49:47,52.2063962657314,0.0867392717129668,27.230972,27.230972,54.026183815452,81.257155815452,25.262468,0.223694,0.18927658086,0.18927658086,8,2,16.978,81.257155815452,27.230972,0.3131716,0.18927658086,-0.223694,0,-8.94776,274.7, -2.2, -4.9,0,1,1024,1024,1684,1024,0,0,100,0,274.8,0,0,100,4.291,4.294,4.29,4.294,0,0,11.235,76.64,81.257155815452,27.230972,6,P-GPS,
5600,2023-06-20 14:49:47,52.2063956300838,0.086739095859274,31.824148,31.824148,54.026183815452,85.850331815452,28.543308,0.223694,0.41888452784,0.42450132592,8,2,16.782,85.850331815452,31.824148,0.3131716,0.41888452784,-0.223694,0,-11.1847,274.7, -0.3, -5.1,0,1,1024,1024,1167,1024,0,0,22,0,274.8,0,0,100,4.161,4.161,4.137,4.154,0,0,7.849,76.64,85.850331815452,31.824148,6,P-GPS,
5800,2023-06-20 14:49:47,52.2063949543942,0.0867388998593206,35.761156,35.7939644,53.993375415452,89.787339815452,32.152232,0,0.66741800036,0.67489175388,8,2,16.782,89.787339815452,35.761156,0.3131716,0.66741800036,0,0,-12.30317,274.4, -0.3, -6.1,0,1,1024,1024,1024,1024,0,0,0,0,274.8,0,0,100,4.161,4.161,4.137,4.154,0,0,7.849,76.64,89.787339815452,35.761156,6,P-GPS,
6000,2023-06-20 14:49:47,52.2063943179779,0.0867387245180092,39.041996,39.0748044,53.993375415452,93.068179815452,35.761156,0,0.90223428084,0.91037404488,8,2,16.782,93.068179815452,39.041996,0.3131716,0.90223428084,0,0,-10.513618,274.2, -1.9, -7.8,0,1,1024,1024,1024,1024,0,0,0,0,274.8,0,0,100,4.161,4.161,4.137,4.154,0,0,7.849,76.64,93.068179815452,39.041996,6,P-GPS,
6200,2023-06-20 14:49:48,52.2063936818577,0.0867385370745195,41.666668,41.6994764,53.993375415452,95.692851815452,38.713912,0,1.1375328448,1.14621394744,8,3,16.782,95.692851815452,41.666668,0.3131716,1.1375328448,0,0,-8.500372,273.9, -2.9, -8.3,0,1,1024,1024,1024,1024,0,0,0,0,274.8,0,0,100,4.161,4.161,4.137,4.154,0,0,7.849,76.64,95.692851815452,41.666668,6,P-GPS,
6400,2023-06-20 14:49:48,52.2063930934798,0.0867383104696876,43.307088,43.3727048,53.960567015452,97.333271815452,40.682416,0.223694,1.35690949224,1.3667815398,8,3,16.782,97.333271815452,43.307088,0.3131716,1.35690949224,0.223694,0,-6.263432,274.4, -3.7, -11.3,0,1,1024,1024,1024,1024,0,0,0,0,274.8,0,0,100,4.161,4.161,4.137,4.154,0,0,7.849,76.64,97.333271815452,43.307088,6,P-GPS,
6600,2023-06-20 14:49:48,52.2063925797442,0.0867380792688223,44.619424,44.6850408,53.960567015452,98.645607815452,39.698164,0.447388,1.5498524118,1.56121724156,8,3,16.906,98.645607815452,44.619424,0.447388,1.5498524118,0.447388,0,-3.579104,274.6, -4.3, -14.3,0,1,1684,1024,1024,1024,100,0,0,0,274.8,0,0,100,4.258,4.26,4.258,4.267,0,0,12.852,76.82,98.645607815452,44.619424,6,P-GPS,"Setting new Maximum Flight Altitude to 120m (394 ft)"
6800,2023-06-20 14:49:48,52.206392128707,0.0867377828401998,44.947508,45.0131248,53.960567015452,98.973691815452,40.026248,0.447388,1.72307092128,1.73862210288,8,3,16.906,98.973691815452,44.947508,0.447388,1.72307092128,0.447388,0,-1.342164,274.9, -3.9, -12.4,0,1,1684,1024,1024,1024,100,0,0,0,274.8,0,0,100,4.258,4.26,4.258,4.267,0,0,12.852,76.82,98.973691815452,44.947508,6,P-GPS,
7000,2023-06-20 14:49:48,52.2063916781646,0.0867372010289982,45.275592,45.3412088,53.960567015452,99.301775815452,39.698164,0.7158208,1.91033142596,1.94824809384,8,3,16.906,99.301775815452,45.275592,0.7158208,1.91033142596,0.671082,-0.223694,-0.223694,275.8, -24.1, -6.2,0,1,1684,1024,1024,1024,100,0,0,0,274.8,0,0,100,4.258,4.26,4.258,4.267,0,0,12.852,76.82,99.301775815452,45.275592,6,P-GPS,
7200,2023-06-20 14:49:49,52.2063915430411,0.0867350856680785,44.947508,45.0131248,53.960567015452,98.973691815452,39.37008,2.1922012,2.11386489704,2.42377632428,8,3,16.906,99.301775815452,45.275592,2.1922012,2.11386489704,0.894776,-2.013246,0,276.4, -28.5, -5.7,0,0,1684,1024,1024,1024,100,0,0,0,274.8,0,0,100,4.258,4.26,4.258,4.267,0,0,12.852,76.82,98.973691815452,44.947508,6,P-GPS,
7400,2023-06-20 14:49:49,52.2063918565382,0.0867302138431204,44.947508,45.0131248,53.960567015452,98.973691815452,34.120736,4.4515106,2.68412410164,3.519028984,8,3,16.906,99.301775815452,45.275592,4.4515106,2.68412410164,1.342164,-4.250186,0,277.2, -28.1, -8.2,0,0,1684,1024,1024,1024,100,0,0,0,274.8,0,0,100,4.258,4.26,4.258,4.267,0,0,12.852,76.82,98.973691815452,44.947508,6,P-GPS,
7600,2023-06-20 14:49:49,52.2063925426345,0.0867225906910441,44.619424,44.6850408,53.960567015452,98.645607815452,34.120736,6.4647566,4.0092849052,5.2417652596,8,3,16.973,99.301775815452,45.275592,6.4647566,4.0092849052,1.565858,-6.263432,0,276.9, -27.7, -9.7,0,0,1684,1024,1024,1024,100,0,0,0,274.8,0,0,100,4.213,4.218,4.226,4.225,0,0,4.726,77,98.645607815452,44.619424,6,P-GPS,
7800,2023-06-20 14:49:49,52.2063935504931,0.0867125130481709,44.619424,44.6522324,53.993375415452,98.645607815452,34.44882,8.4780026,6.0681104304,7.5248033904,8,3,16.973,99.301775815452,45.275592,8.4780026,6.0681104304,1.789552,-8.276678,0,277.2, -27.4, -9.9,0,0,1601,1024,1024,1024,87,0,0,0,274.8,0,0,100,4.213,4.218,4.226,4.225,0,0,4.726,77,98.645607815452,44.619424,6,P-GPS,
8000,2023-06-20 14:49:49,52.2063949581556,0.0867000942428075,44.619424,44.6522324,53.993375415452,98.645607815452,35.104988,10.2228158,8.7546590728,10.3485567616,8,3,16.973,99.301775815452,45.275592,10.2228158,8.7546590728,1.789552,-10.06623,0,277.2, -27.6, -10.8,0,0,1024,1024,1024,1024,0,0,0,0,274.8,0,0,100,4.213,4.218,4.226,4.225,0,0,4.726,77,98.645607815452,44.619424,6,P-GPS,
8200,2023-06-20 14:49:50,52.2063966453153,0.0866854246209637,44.619424,44.619424,54.026183815452,98.645607815452,35.761156,11.7663044,12.0094820116,13.6857615928,8,3,16.973,99.301775815452,45.275592,11.7663044,12.0094820116,1.789552,-11.632088,0,276.1, -14.9, -11.3,0,0,1024,1024,1024,1024,0,0,0,0,274.8,0,0,100,4.213,4.218,4.226,4.225,0,0,4.726,77,98.645607815452,44.619424,6,P-GPS,
8400,2023-06-20 14:49:50,52.206398353824,0.0866698894968587,44.619424,44.619424,54.026183815452,98.645607815452,36.417324,11.4978716,15.4935044328,17.2146987136,8,3,16.973,99.301775815452,45.275592,11.7663044,15.4935044328,1.342164,-11.408394,-0.223694,274.1, 22, -9.4,0,0,1046,1024,1024,1024,3,0,0,0,274.8,0,0,100,4.213,4.218,4.226,4.225,0,0,4.726,77,98.645607815452,44.619424,6,P-GPS,
8600,2023-06-20 14:49:50,52.2063999852475,0.0866565905334764,44.619424,44.5866156,54.058992215452,98.645607815452,38.057744,9.2161928,18.4933732952,20.2471463172,8,3,16.874,99.301775815452,45.275592,11.7663044,18.4933732952,0.894776,-9.171454,-0.223694,273.4, 27.1, -8.3,0,0,1024,1024,1024,1024,0,0,0,0,274.8,0,0,100,4.202,4.207,4.198,4.217,0,0,8.902,77,98.645607815452,44.619424,6,P-GPS,
8800,2023-06-20 14:49:50,52.2064014765596,0.0866464368036829,44.619424,44.5866156,54.058992215452,98.645607815452,38.057744,6.7331894,20.7973103768,22.581693636,8,3,16.874,99.301775815452,45.275592,11.7663044,20.7973103768,0.671082,-6.71082,0,273.5, 28.8, -5.5,0,0,1024,1024,1024,1024,0,0,0,0,274.8,0,0,100,4.202,4.207,4.198,4.217,0,0,8.902,77,98.645607815452,44.619424,6,P-GPS,
9000,2023-06-20 14:49:50,52.2064028206126,0.0866395540950137,44.619424,44.5538072,54.091800615452,98.645607815452,37.72966,4.2725554,22.3743117396,24.1968183596,8,3,16.874,99.301775815452,45.275592,11.7663044,22.3743117396,0.447388,-4.250186,0,272.5, 28.1, -7.9,0,0,1024,1024,1024,1024,0,0,0,0,274.8,0,0,100,4.202,4.207,4.198,4.217,0,0,8.902,77,98.645607815452,44.619424,6,P-GPS,
9200,2023-06-20 14:49:51,52.206403921379,0.086635753180965,44.619424,44.5538072,54.091800615452,98.645607815452,42.322836,2.0356154,23.2617133428,25.1367790196,8,3,16.874,99.301775815452,45.275592,11.7663044,23.2617133428,0.223694,-2.013246,0,272.6, 20.9, -9.1,0,0,1684,1024,1024,1024,100,0,0,0,274.8,0,0,100,4.202,4.207,4.198,4.217,0,0,8.902,77,98.645607815452,44.619424,6,P-GPS,
9400,2023-06-20 14:49:51,52.2064047319593,0.0866343203381953,44.619424,44.5209988,54.124609015452,98.645607815452,42.65092,0.671082,23.6146004932,25.5727698472,8,3,16.874,99.301775815452,45.275592,11.7663044,23.6146004932,0,-0.671082,0,277, 2.9, -4.2,0,0,1684,1024,1024,1024,100,0,0,0,274.8,0,0,100,4.202,4.207,4.198,4.217,0,0,8.902,77,98.645607815452,44.619424,6,P-GPS,
9600,2023-06-20 14:49:51,52.2064055032925,0.0866334214703638,44.619424,44.5209988,54.124609015452,98.645607815452,42.979004,1.2079476,23.8500007632,25.9185703832,8,3,16.986,99.301775815452,45.275592,11.7663044,23.8500007632,0.447388,-1.11847,0,275.7, -22.6, -5.3,0,0,1684,1024,1024,1024,100,0,0,0,274.8,0,0,100,4.238,4.238,4.234,4.247,0,0,7.121,77.18,98.645607815452,44.619424,6,P-GPS,
9800,2023-06-20 14:49:51,52.2064063862968,0.0866308070313773,44.29134,44.1929148,54.124609015452,98.317523815452,42.979004,2.9751302,24.4735244052,26.5860244728,8,3,16.986,99.301775815452,45.275592,11.7663044,24.4735244052,0.671082,-2.908022,0,276.4, -27.3, -6.5,0,0,1684,1024,1024,1024,100,0,0,0,274.8,0,0,100,4.238,4.238,4.234,4.247,0,0,7.121,77.18,98.317523815452,44.29134,6,P-GPS,
10000,2023-06-20 14:49:51,52.2064072779933,0.0866254867554371,44.29134,44.1601064,54.157417415452,98.317523815452,36.417324,5.0107456,25.697835468,27.8192594204,8,3,16.986,99.301775815452,45.275592,11.7663044,25.697835468,0.894776,-4.921268,0,276.9, -28.1, -8.3,0,0,1684,1024,1024,1024,100,0,0,0,274.8,0,0,100,4.238,4.238,4.234,4.247,0,0,7.121,77.18,98.317523815452,44.29134,6,P-GPS,
10200,2023-06-20 14:49:52,52.2064081942298,0.0866174421896041,44.29134,44.1601064,54.157417415452,98.317523815452,36.08924,7.2029468,27.5263132168,29.6487214212,8,3,16.986,99.301775815452,45.275592,11.7663044,27.5263132168,0.894776,-7.158208,0,276.9, -28.3, -9.4,0,0,1684,1024,1024,1024,100,0,0,0,274.8,0,0,100,4.238,4.238,4.234,4.247,0,0,7.121,77.18,98.317523815452,44.29134,6,P-GPS,
10400,2023-06-20 14:49:52,52.2064091224052,0.0866068476302768,44.29134,44.1601064,54.157417415452,98.317523815452,36.08924,8.9924988,29.9190954456,32.0416020752,8,3,16.986,99.301775815452,45.275592,11.7663044,29.9190954456,0.894776,-8.94776,0,276.8, -28, -9.8,0,0,1684,1024,1024,1024,100,0,0,0,274.8,0,0,100,4.238,4.238,4.234,4.247,0,0,7.121,77.18,98.317523815452,44.29134,6,P-GPS,
10600,2023-06-20 14:49:52,52.2064100856514,0.0865938065047813,44.29134,44.127298,54.190225815452,98.317523815452,36.745408,10.8044202,32.854659844,34.97867566,8,3,16.871,99.301775815452,45.275592,11.7663044,32.854659844,1.11847,-10.737312,0,276.7, -27.5, -9.5,0,0,1684,1024,1024,1024,100,0,0,0,274.8,0,0,100,4.215,4.222,4.217,4.225,0,0,7.933,77.18,98.317523815452,44.29134,6,P-GPS,
10800,2023-06-20 14:49:52,52.2064116748543,0.0865785021262932,44.29134,44.127298,54.190225815452,98.317523815452,36.745408,12.4597558,36.324804312,38.449148212,8,3,16.871,99.301775815452,45.275592,12.4597558,36.324804312,2.013246,-12.30317,0,281.7, -27.6, -8.9,0,0,1684,1024,1024,1024,100,0,0,0,274.8,0,0,100,4.215,4.222,4.217,4.225,0,0,7.933,77.18,98.317523815452,44.29134,6,P-GPS,
11000,2023-06-20 14:49:52,52.2064134769211,0.0865610850400415,44.29134,44.0944896,54.223034215452,98.317523815452,48.228348,14.2269384,40.273623336,42.398623404,8,3,16.871,99.301775815452,45.275592,14.2269384,40.273623336,3.131716,-13.869028,0,284.7, -26.5, -8.1,0,0,1024,1024,1024,1024,0,0,0,0,274.8,0,0,100,4.215,4.222,4.217,4.225,0,0,7.933,77.18,98.317523815452,44.29134,6,P-GPS,
11200,2023-06-20 14:49:53,52.2064155448648,0.0865417420400971,44.29134,44.0616812,54.255842615452,98.317523815452,48.556432,15.3677778,44.662731088,46.788715408,9,3,16.871,99.301775815452,45.275592,15.3677778,44.662731088,3.35541,-14.987498,0,284.1, -16.3, -7.7,0,0,1024,1024,1024,1024,0,0,0,0,274.8,0,0,100,4.215,4.222,4.217,4.225,0,0,7.933,77.18,98.317523815452,44.29134,6,P-GPS,
11400,2023-06-20 14:49:53,52.2064176661193,0.086521802576852,44.29134,44.0616812,54.255842615452,98.317523815452,49.540684,14.875651,49.187009448,51.313649936,9,3,16.871,99.301775815452,45.275592,15.3677778,49.187009448,3.131716,-14.54011,-0.223694,282.8, 21.4, -5.5,0,0,1024,1024,1024,1024,0,0,0,0,274.8,0,0,100,4.215,4.222,4.217,4.225,0,0,7.933,77.18,98.317523815452,44.29134,6,P-GPS,
11600,2023-06-20 14:49:53,52.2064194377586,0.086504116245442,43.963256,43.7007888,54.288651015452,97.989439815452,49.540684,12.5939722,53.19389934,55.320539828,9,3,16.869,99.301775815452,45.275592,15.3677778,53.19389934,2.684328,-12.30317,0,283.2, 28.2, -4.1,0,0,1024,1024,1024,1024,0,0,0,0,274.8,0,0,100,4.225,4.223,4.208,4.21,0,0,8.279,77.36,97.989439815452,43.963256,6,P-GPS,
11800,2023-06-20 14:49:53,52.2064207676435,0.0864895701010215,43.635172,43.3398964,54.321459415452,97.661355815452,36.417324,10.0438606,56.481957188,58.608597676,9,3,16.869,99.301775815452,45.275592,15.3677778,56.481957188,2.013246,-9.842536,0,282.6, 29.1, -4,0,0,1024,1024,1169,1024,0,0,22,0,274.8,0,0,100,4.225,4.223,4.208,4.21,0,0,8.279,77.36,97.661355815452,43.635172,6,P-GPS,
12000,2023-06-20 14:49:53,52.2064216425489,0.0864784800243587,43.635172,43.3398964,54.321459415452,97.661355815452,36.417324,7.2924244,58.9813011,61.10892584,9,3,16.869,99.301775815452,45.275592,15.3677778,58.9813011,1.342164,-7.158208,0,282.6, 29.3, -3,0,0,1024,1024,1481,1024,0,0,69,0,274.8,0,0,100,4.225,4.223,4.208,4.21,0,0,8.279,77.36,97.661355815452,43.635172,6,P-GPS,
12200,2023-06-20 14:49:53,52.2064221030391,0.0864708698365206,43.635172,43.3398964,54.321459415452,97.661355815452,36.745408,4.5186188,60.688322152,62.818571564,9,3,16.869,99.301775815452,45.275592,15.3677778,60.688322152,0.671082,-4.47388,-0.447388,282.6, 29.5, -3.1,0,0,1024,1024,1684,1024,0,0,100,0,274.8,0,0,100,4.225,4.223,4.208,4.21,0,0,8.279,77.36,97.661355815452,43.635172,6,P-GPS,
12400,2023-06-20 14:49:54,52.2064221116552,0.0864674442440715,44.29134,43.9960644,54.321459415452,98.317523815452,41.0105,1.3645334,61.445868108,63.584647704,9,3,16.869,99.301775815452,45.275592,15.3677778,61.445868108,0.223694,-1.342164,-2.460634,283, 13.6, -4.2,0,0,1024,1024,1684,1024,0,0,100,0,274.8,0,0,100,4.225,4.223,4.208,4.21,0,0,8.279,77.36,98.317523815452,44.29134,6,P-GPS,
12600,2023-06-20 14:49:54,52.2064218465889,0.0864667848031262,45.275592,44.9803164,54.321459415452,99.301775815452,42.322836,0.223694,61.577429792,63.760828812,9,3,16.981,99.301775815452,45.275592,15.3677778,61.577429792,0,-0.223694,-4.697574,285.2, -1.2, -6.4,0,0,1024,1024,1684,1024,0,0,100,0,274.8,0,0,100,4.229,4.208,4.173,4.167,0,0,6.936,77.36,99.301775815452,45.275592,6,P-GPS,
12800,2023-06-20 14:49:54,52.2064214400745,0.0864665257350435,46.916012,46.6207364,54.321459415452,100.94219581545,44.619424,0.447388,61.612862864,63.919949552,9,3,16.981,100.94219581545,46.916012,15.3677778,61.612862864,0,-0.447388,-6.934514,283.4, -3.5, -6,0,0,1024,1024,1684,1024,0,0,100,0,274.8,0,0,100,4.229,4.208,4.173,4.167,0,0,6.936,77.36,100.94219581545,46.916012,6,P-GPS,
13000,2023-06-20 14:49:54,52.2064209090145,0.0864659640946759,49.2126,48.9173244,54.321459415452,103.23878381545,46.916012,0.4921268,61.708991476,64.150920688,9,3,16.981,103.23878381545,49.2126,15.3677778,61.708991476,-0.223694,-0.447388,-9.171454,283.7, -2.2, -4.2,0,0,1024,1024,1684,1024,0,0,100,0,274.8,0,0,100,4.229,4.208,4.173,4.167,0,0,6.936,77.36,103.23878381545,49.2126,6,P-GPS,
13200,2023-06-20 14:49:55,52.2064203888837,0.0864651679901445,52.821524,52.5590568,54.288651015452,106.84770781545,50.196852,0.7158208,61.85859778,64.4110913,9,3,16.981,106.84770781545,52.821524,15.3677778,61.85859778,-0.223694,-0.671082,-11.408394,283.8, -0.6, -2,0,0,1024,1024,1684,1024,0,0,100,0,274.8,0,0,100,4.229,4.208,4.173,4.167,0,0,6.936,77.36,106.84770781545,52.821524,6,P-GPS,
13400,2023-06-20 14:49:55,52.206420123102,0.086464442538003,57.742784,57.4803168,54.288651015452,111.76896781545,53.805776,0.447388,62.005907496,64.600067684,9,3,16.981,111.76896781545,57.742784,15.3677778,62.005907496,0,-0.447388,-12.750558,283.5, 0.7, -3.6,0,0,1024,1024,1658,1024,0,0,96,0,274.8,0,0,100,4.229,4.208,4.173,4.167,0,0,6.936,77.36,111.76896781545,57.742784,6,P-GPS,
13600,2023-06-20 14:49:55,52.2064200117987,0.0864639003011806,62.664044,62.4015768,54.288651015452,116.69022781545,57.742784,0.447388,62.120408812,64.728020444,9,3,16.487,116.69022781545,62.664044,15.3677778,62.120408812,0,-0.447388,-13.197946,283.7, 0.7, -4.5,0,0,1024,1024,1645,1024,0,0,94,0,274.8,0,0,100,4.096,4.102,4.098,4.107,0,0,14.521,77.18,116.69022781545,62.664044,6,P-GPS,
13800,2023-06-20 14:49:55,52.2064201007831,0.0864635335909526,67.585304,67.3228368,54.288651015452,121.61148781545,61.351708,0.3131716,62.206038736,64.81627504,9,3,16.487,121.61148781545,67.585304,15.3677778,62.206038736,0.223694,-0.223694,-12.750558,283.3, 1.1, -6.9,0,0,1024,1024,1024,1024,0,0,0,0,274.8,0,0,100,4.096,4.102,4.098,4.107,0,0,14.521,77.18,121.61148781545,67.585304,6,P-GPS,
14000,2023-06-20 14:49:55,52.2064203701179,0.0864633473001437,72.17848,71.9160128,54.288651015452,126.20466381545,64.632548,0.4921268,62.260828764,64.92290234,9,3,16.487,126.20466381545,72.17848,15.3677778,62.260828764,0.447388,-0.223694,-11.1847,283.1, 2.9, -10.1,0,0,1024,1024,1024,1024,0,0,0,0,274.8,0,0,100,4.096,4.102,4.098,4.107,0,0,14.521,77.18,126.20466381545,72.17848,6,P-GPS,
14200,2023-06-20 14:49:56,52.2064207745527,0.0864634143458228,75.45932,75.1640444,54.321459415452,129.48550381545,66.929136,0.447388,62.266406192,65.071196308,9,3,16.487,129.48550381545,75.45932,15.3677778,62.266406192,0.447388,0,-8.94776,283.3, 3, -13.4,0,0,1024,1024,1123,1024,0,0,15,0,274.8,0,0,100,4.096,4.102,4.098,4.107,0,0,14.521,77.18,129.48550381545,75.45932,6,P-GPS,
14400,2023-06-20 14:49:56,52.2064212668774,0.0864637430318125,77.755908,77.4606324,54.321459415452,131.78209181545,68.89764,0.671082,62.219162096,65.265422036,9,3,16.487,131.78209181545,77.755908,15.3677778,62.266406192,0.671082,0,-6.71082,284, 1.9, -16.3,0,0,1024,1024,1679,1024,0,0,99,0,274.8,0,0,100,4.096,4.102,4.098,4.107,0,0,14.521,77.18,131.78209181545,77.755908,6,P-GPS,
14600,2023-06-20 14:49:56,52.2064217227565,0.0864642679620146,79.068244,78.7729684,54.321459415452,133.09442781545,69.553808,0.3131716,62.127298576,65.468834116,9,3,16.742,133.09442781545,79.068244,15.3677778,62.266406192,0.223694,0.223694,-5.144962,284.5, 0.9, -16.9,0,0,1024,1024,1684,1024,0,0,100,0,274.8,0,0,100,4.213,4.223,4.218,4.227,0,0,12.976,77.54,133.09442781545,79.068244,6,P-GPS,
14800,2023-06-20 14:49:56,52.2064216507538,0.0864648273377033,80.38058,80.0853044,54.321459415452,134.40676381545,70.209976,0.3131716,61.9996739,65.596786876,9,3,16.742,134.40676381545,80.38058,15.3677778,62.266406192,-0.223694,0.223694,-6.934514,284.3, -1, -11.7,0,0,1024,1024,1684,1024,0,0,100,0,274.8,0,0,100,4.213,4.223,4.218,4.227,0,0,12.976,77.54,134.40676381545,80.38058,6,P-GPS,
15000,2023-06-20 14:49:56,52.2064211807737,0.0864652973005139,82.349084,82.0538084,54.321459415452,136.37526781545,72.506564,0.447388,61.870736888,65.797902368,9,3,16.742,136.37526781545,82.349084,15.3677778,62.266406192,-0.447388,0,-9.171454,283.2, -2.8, -7.8,0,0,1024,1024,1684,1024,0,0,100,0,274.8,0,0,100,4.213,4.223,4.218,4.227,0,0,12.976,77.54,136.37526781545,82.349084,6,P-GPS,
15200,2023-06-20 14:49:57,52.2064206592443,0.0864655192390462,84.973756,84.6784804,54.321459415452,138.99993981545,76.115488,0.447388,61.7946214,65.994424684,9,3,16.742,138.99993981545,84.973756,15.3677778,62.266406192,-0.447388,0,-11.408394,283.5, -2.4, -6.4,0,0,1024,1024,1684,1024,0,0,100,0,274.8,0,0,100,4.213,4.223,4.218,4.227,0,0,12.976,77.54,138.99993981545,84.973756,6,P-GPS,
15400,2023-06-20 14:49:57,52.2064202276246,0.0864655262847139,88.58268,88.3202128,54.288651015452,142.60886381545,80.708664,0.223694,61.770999352,66.151905004,9,3,16.742,142.60886381545,88.58268,15.3677778,62.266406192,-0.223694,0,-12.974252,283.4, -1.5, -6.4,0,0,1024,1024,1684,1024,0,0,100,0,274.8,0,0,100,4.213,4.223,4.218,4.227,0,0,12.976,77.54,142.60886381545,88.58268,6,P-GPS,
15600,2023-06-20 14:49:57,52.206419959365,0.0864655058187268,92.191604,91.9291368,54.288651015452,146.21778781545,83.66142,0,61.762141084,66.25000212,9,3,16.414,146.21778781545,92.191604,15.3677778,62.266406192,0,0,-13.197946,283.4, -1.7, -7.4,0,0,1024,1024,1674,1024,0,0,98,0,274.8,0,0,99,4.09,4.092,4.084,4.092,0,0,11.76,77.54,146.21778781545,92.191604,6,P-GPS,
15800,2023-06-20 14:49:57,52.2064198233783,0.08646554733784,96.128612,95.8661448,54.288651015452,150.15479581545,83.66142,0,61.746064968,66.300198972,9,3,16.414,150.15479581545,96.128612,15.3677778,62.266406192,0,0,-13.197946,283, -1.9, -8,0,0,1024,1024,1670,1024,0,0,98,0,274.8,0,0,99,4.09,4.092,4.084,4.092,0,0,11.76,77.54,150.15479581545,96.128612,6,P-GPS,
16000,2023-06-20 14:49:57,52.2064197954031,0.0864656243648817,99.737536,99.4750688,54.288651015452,153.76371981545,83.66142,0,61.727692264,66.320212096,9,3,16.414,153.76371981545,99.737536,15.3677778,62.266406192,0,0,-12.974252,283.1, -2.2, -8.3,0,0,1024,1024,1649,1024,0,0,95,0,274.8,0,0,99,4.09,4.092,4.084,4.092,0,0,11.76,77.54,153.76371981545,99.737536,6,P-GPS,
16200,2023-06-20 14:49:58,52.2064198252523,0.0864656767880044,103.018376,102.7559088,54.288651015452,157.04455981545,83.66142,0,61.71752166,66.336288212,9,3,16.414,157.04455981545,103.018376,15.3677778,62.266406192,0,0,-12.750558,283.1, -2.1, -9,0,0,1024,1024,1645,1024,0,0,94,0,274.8,0,0,99,4.09,4.092,4.084,4.092,0,0,11.76,77.54,157.04455981545,103.018376,6,P-GPS,
16400,2023-06-20 14:49:58,52.2064199575531,0.0864657351104759,106.6273,106.3648328,54.288651015452,160.65348381545,83.66142,0.223694,61.711288064,66.386485064,9,3,16.414,160.65348381545,106.6273,15.3677778,62.266406192,0.223694,0,-12.30317,283.1, -2, -10,0,0,1024,1024,1600,1024,0,0,87,0,274.8,0,0,99,4.09,4.092,4.084,4.092,0,0,11.76,77.54,160.65348381545,106.6273,6,P-GPS,
16600,2023-06-20 14:49:58,52.2064201513814,0.0864657817460858,109.90814,109.6456728,54.288651015452,163.93432381545,83.66142,0.223694,61.710631896,66.458007376,9,3,16.603,163.93432381545,109.90814,15.3677778,62.266406192,0.223694,0,-11.632088,283.1, -1.6, -11.5,0,0,1024,1024,1499,1024,0,0,72,0,274.8,0,0,99,4.16,4.173,4.17,4.174,0,0,13.674,77.72,163.93432381545,109.90814,6,P-GPS,
16800,2023-06-20 14:49:58,52.2064203719298,0.0864658512241978,112.860896,112.5984288,54.288651015452,166.88707981545,83.66142,0.223694,61.706366804,66.539700292,9,3,16.603,166.88707981545,112.860896,15.3677778,62.266406192,0.223694,0,-10.737312,283.2, -2.2, -12.6,0,0,1024,1024,1109,1024,0,0,13,0,274.8,0,0,99,4.16,4.173,4.17,4.174,0,0,13.674,77.72,166.88707981545,112.860896,6,P-GPS,
17000,2023-06-20 14:49:58,52.2064206609235,0.0864659655485438,115.813652,115.5183764,54.321459415452,169.83983581545,83.66142,0.223694,61.695868116,66.648296096,9,3,16.603,169.83983581545,115.813652,15.3677778,62.266406192,0.223694,0,-8.724066,283.2, -2.6, -14.9,0,0,1024,1024,1024,1024,0,0,0,0,274.8,0,0,99,4.16,4.173,4.17,4.174,0,0,13.674,77.72,169.83983581545,115.813652,6,P-GPS,
17200,2023-06-20 14:49:59,52.2064210293794,0.0864661311776526,117.782156,117.4868804,54.321459415452,171.80833981545,83.66142,0.447388,61.678479664,66.787731796,11,3,16.603,171.80833981545,117.782156,15.3677778,62.266406192,0.447388,0,-6.263432,283.6, -2.9, -17.5,0,0,1024,1024,1024,1024,0,0,0,0,274.8,0,0,99,4.16,4.173,4.17,4.174,0,0,13.674,77.72,171.80833981545,117.782156,6,P-GPS,
17400,2023-06-20 14:49:59,52.2064214485793,0.0864663400034146,119.422576,119.1273004,54.321459415452,173.44875981545,83.66142,0.447388,61.654201448,66.947508704,11,3,16.603,173.44875981545,119.422576,15.3677778,62.266406192,0.447388,0,-3.802798,284, -3.1, -20.9,0,0,1024,1024,1024,1024,0,0,0,0,274.8,0,0,99,4.16,4.173,4.17,4.174,0,0,13.674,77.72,173.44875981545,119.422576,6,P-GPS,
17600,2023-06-20 14:49:59,52.2064218961227,0.0864666042718711,120.078744,119.7834684,54.321459415452,174.10492781545,83.66142,0.7158208,61.620080712,67.121393224,11,3,16.898,174.10492781545,120.078744,15.3677778,62.266406192,0.671082,0.223694,-1.342164,284.6, -3.2, -25.4,0,0,1024,1024,1024,1024,0,0,0,0,274.8,0,0,99,4.233,4.245,4.241,4.245,0,0,8.438,78.08,174.10492781545,120.078744,6,P-GPS,
17800,2023-06-20 14:49:59,52.2064220933884,0.0864668026968854,120.406828,120.1115524,54.321459415452,174.43301181545,83.66142,0,61.586944228,67.205710812,11,3,16.898,174.43301181545,120.406828,15.3677778,62.266406192,0,0,0,285.1, -2.6, -26,0,0,1024,1024,1024,1024,0,0,0,0,274.8,-1.6,0,99,4.233,4.245,4.241,4.245,0,0,8.438,78.08,174.43301181545,120.406828,6,P-GPS,
18000,2023-06-20 14:49:59,52.2064215787619,0.0864666681302243,120.406828,120.1115524,54.321459415452,174.43301181545,83.66142,0.447388,61.588584648,67.395999532,11,3,16.898,174.43301181545,120.406828,15.3677778,62.266406192,-0.447388,0,0,285.4, -3.1, -22.6,0,0,1024,1024,1024,1024,0,0,0,0,274.8,-4.3,0,99,4.233,4.245,4.241,4.245,0,0,8.438,78.08,174.43301181545,120.406828,6,P-GPS,
18200,2023-06-20 14:50:00,52.2064204874844,0.0864661938058099,120.734912,120.4724448,54.288651015452,174.76109581545,83.66142,0.9171454,61.636484912,67.808073036,11,3,16.898,174.76109581545,120.734912,15.3677778,62.266406192,-0.894776,-0.223694,0,285.6, -3.1, -18.8,0,0,1024,1024,1024,1024,0,0,0,0,274.8,-7.2,0,99,4.233,4.245,4.241,4.245,0,0,8.438,78.08,174.76109581545,120.734912,6,P-GPS,
18400,2023-06-20 14:50:00,52.2064190988348,0.0864654466574854,120.734912,120.4724448,54.288651015452,174.76109581545,83.66142,1.006623,61.732941608,68.34153762,11,3,16.898,174.76109581545,120.734912,15.3677778,62.266406192,-0.894776,-0.447388,-0.223694,285.8, -2, -16.3,0,0,1024,1024,1024,1024,0,0,0,0,274.8,-10.1,0,99,4.233,4.245,4.241,4.245,0,0,8.438,78.08,174.76109581545,120.734912,6,P-GPS,
18600,2023-06-20 14:50:00,52.2064175772912,0.0864646536843619,121.062996,120.8333372,54.255842615452,175.08917981545,83.66142,0.9171454,61.838256572,68.924214804,11,3,16.757,175.08917981545,121.062996,15.3677778,62.266406192,-0.894776,-0.223694,0,286.5, -1.9, -13.6,0,0,1024,1024,1024,1024,0,0,0,0,274.8,-13,0,99,4.18,4.193,4.189,4.198,0,0,6.989,78.08,175.08917981545,121.062996,6,P-GPS,
18800,2023-06-20 14:50:00,52.2064160737831,0.0864638866571892,121.062996,120.8333372,54.255842615452,175.08917981545,83.66142,0.9171454,61.943571536,69.499017972,11,3,16.757,175.08917981545,121.062996,15.3677778,62.266406192,-0.894776,-0.223694,0,287, -2.2, -11.6,0,0,1024,1024,1024,1024,0,0,0,0,274.8,-15.9,0,99,4.18,4.193,4.189,4.198,0,0,6.989,78.08,175.08917981545,121.062996,6,P-GPS,
19000,2023-06-20 14:50:00,52.2064147312738,0.0864631438704685,121.39108,121.1942296,54.223034215452,175.41726381545,83.66142,0.7158208,62.055120096,70.016078356,11,3,16.757,175.41726381545,121.39108,15.3677778,62.266406192,-0.671082,-0.223694,0,287.9, -1.8, -10,0,0,1024,1024,1024,1024,0,0,0,0,274.8,-18.9,0,99,4.18,4.193,4.189,4.198,0,0,6.989,78.08,175.41726381545,121.39108,6,P-GPS,
19200,2023-06-20 14:50:01,52.2064136166601,0.0864624557156314,121.39108,121.1942296,54.223034215452,175.41726381545,83.66142,0.4921268,62.166668656,70.45111774,11,3,16.757,175.41726381545,121.39108,15.3677778,62.266406192,-0.447388,-0.223694,0,287.9, -1.2, -9.2,0,0,1024,1024,1024,1024,0,0,0,0,274.8,-21.8,0,99,4.18,4.193,4.189,4.198,0,0,6.989,78.08,175.41726381545,121.39108,6,P-GPS,
19400,2023-06-20 14:50:01,52.2064127380302,0.0864618755664067,121.39108,121.1942296,54.223034215452,175.41726381545,83.66142,0.223694,62.264765772,70.796918276,11,3,16.757,175.41726381545,121.39108,15.3677778,62.266406192,-0.223694,0,0,287.2, -1.1, -9.1,0,0,1024,1024,1024,1024,0,0,0,0,274.8,-24.7,0,99,4.18,4.193,4.189,4.198,0,0,6.989,78.08,175.41726381545,121.39108,6,P-GPS,
19600,2023-06-20 14:50:01,52.2064120851606,0.0864614024162702,121.39108,121.227038,54.190225815452,175.41726381545,83.66142,0,62.348427192,71.057416972,11,3,16.894,175.41726381545,121.39108,15.3677778,62.348427192,0,0,0,286.1, -0.9, -9.5,0,0,1024,1024,1024,1024,0,0,0,0,274.8,-27.6,0,99,4.22,4.227,4.223,4.224,0,0,7.082,78.26,175.41726381545,121.39108,6,P-GPS,
19800,2023-06-20 14:50:01,52.2064115862982,0.0864610057060365,121.39108,121.227038,54.190225815452,175.41726381545,83.66142,0,62.420605672,71.2598448,11,3,16.894,175.41726381545,121.39108,15.3677778,62.420605672,0,0,0,284.7, -0.8, -9.6,0,0,1024,1024,1024,1024,0,0,0,0,274.8,-30.5,0,99,4.22,4.227,4.223,4.224,0,0,7.082,78.26,175.41726381545,121.39108,6,P-GPS,
20000,2023-06-20 14:50:01,52.2064112038761,0.0864606682129622,121.39108,121.227038,54.190225815452,175.41726381545,83.66142,0,62.483925884,71.418637456,11,3,16.894,175.41726381545,121.39108,15.3677778,62.483925884,0,0,0,284.2, -0.8, -9.6,0,0,1024,1024,1024,1024,0,0,0,0,274.8,-33.4,0,99,4.22,4.227,4.223,4.224,0,0,7.082,78.26,175.41726381545,121.39108,6,P-GPS,
20200,2023-06-20 14:50:02,52.2064109129816,0.086460373413279,121.39108,121.227038,54.190225815452,175.41726381545,83.66142,0.223694,62.540684416,71.54363746,11,3,16.894,175.41726381545,121.39108,15.3677778,62.540684416,0.223694,0,0,284.2, -0.7, -10,0,0,1024,1024,1024,1024,0,0,0,0,274.8,-36.4,0,99,4.22,4.227,4.223,4.224,0,0,7.082,78.26,175.41726381545,121.39108,6,P-GPS,
20400,2023-06-20 14:50:02,52.2064107041152,0.0864600349695987,121.39108,121.227038,54.190225815452,175.41726381545,83.66142,0.223694,62.60991014,71.650920928,11,3,16.894,175.41726381545,121.39108,15.3677778,62.60991014,0.223694,0,0,284.1, 0.5, -10,0,0,1024,1024,1024,1024,0,0,0,0,274.8,-39.3,0,99,4.22,4.227,4.223,4.224,0,0,7.082,78.26,175.41726381545,121.39108,6,P-GPS,
20600,2023-06-20 14:50:02,52.2064105521299,0.0864597330403708,121.39108,121.227038,54.190225815452,175.41726381545,83.66142,0.223694,62.672902268,71.738191272,11,3,16.88,175.41726381545,121.39108,15.3677778,62.672902268,0.223694,0,0,283.9, 1.1, -10.1,0,0,1024,1024,1024,1024,0,0,0,0,274.8,-42.2,0,99,4.217,4.228,4.217,4.225,0,0,6.668,78.44,175.41726381545,121.39108,6,P-GPS,
20800,2023-06-20 14:50:02,52.2064104531929,0.0864596172621569,121.39108,121.227038,54.190225815452,175.41726381545,83.66142,0.4921268,62.695868148,71.782810696,11,3,16.88,175.41726381545,121.39108,15.3677778,62.695868148,0.447388,0.223694,0,284, 0.1, -10.9,0,0,1024,1024,1024,1024,0,0,0,0,274.8,-45.1,0,99,4.217,4.228,4.217,4.225,0,0,6.668,78.44,175.41726381545,121.39108,6,P-GPS,
21000,2023-06-20 14:50:02,52.2064103845442,0.0864596014373635,121.39108,121.227038,54.190225815452,175.41726381545,83.66142,0.3131716,62.697180484,71.808073164,11,3,16.88,175.41726381545,121.39108,15.3677778,62.697180484,0.223694,0.223694,0,284.1, -0.7, -11.2,0,0,1024,1024,1024,1024,0,0,0,0,274.8,-48.1,0,99,4.217,4.228,4.217,4.225,0,0,6.668,78.44,175.41726381545,121.39108,6,P-GPS,
21200,2023-06-20 14:50:03,52.2064102984982,0.0864595560039905,121.39108,121.227038,54.190225815452,175.41726381545,83.66142,0.3131716,62.7050545,71.840881564,11,3,16.88,175.41726381545,121.39108,15.3677778,62.7050545,0.223694,0.223694,0,284.1, -0.9, -10.9,0,0,1024,1024,1024,1024,0,0,0,0,274.8,-51,0,99,4.217,4.228,4.217,4.225,0,0,6.668,78.44,175.41726381545,121.39108,6,P-GPS,
21400,2023-06-20 14:50:03,52.2064102245134,0.0864594503469341,121.39108,121.227038,54.190225815452,175.41726381545,83.66142,0.3131716,62.72637996,71.876970804,11,3,16.88,175.41726381545,121.39108,15.3677778,62.72637996,0.223694,0.223694,0,284.1, -0.6, -11.5,0,0,1024,1024,1024,1024,0,0,0,0,274.8,-53.9,0,99,4.217,4.228,4.217,4.225,0,0,6.668,78.44,175.41726381545,121.39108,6,P-GPS,
21600,2023-06-20 14:50:03,52.2064101570983,0.0864593089303183,121.719164,121.555122,54.190225815452,175.74534781545,83.66142,0.3131716,62.75590752,71.916997052,11,3,16.86,175.74534781545,121.719164,15.3677778,62.75590752,0.223694,0.223694,0,284, -0.1, -11.7,0,0,1024,1024,1024,1024,0,0,0,0,274.8,-56.8,0,99,4.214,4.219,4.214,4.22,0,0,7.019,78.62,175.74534781545,121.719164,6,P-GPS,
21800,2023-06-20 14:50:03,52.2064100730485,0.0864592202164151,121.719164,121.555122,54.190225815452,175.74534781545,83.66142,0.3131716,62.773295972,71.953414376,11,3,16.86,175.74534781545,121.719164,15.3677778,62.773295972,0.223694,0.223694,0,284.1, -0.6, -11.8,0,0,1024,1024,1024,1024,0,0,0,0,274.8,-59.7,0,99,4.214,4.219,4.214,4.22,0,0,7.019,78.62,175.74534781545,121.719164,6,P-GPS,
22000,2023-06-20 14:50:03,52.2064099643259,0.0864591326767899,121.719164,121.555122,54.190225815452,175.74534781545,83.66142,0.3131716,62.789700172,71.997705716,11,3,16.86,175.74534781545,121.719164,15.3677778,62.789700172,0.223694,0.223694,0,284.1, -1.1, -11.5,0,0,1024,1024,1024,1024,0,0,0,0,274.8,-62.7,0,99,4.214,4.219,4.214,4.22,0,0,7.019,78.62,175.74534781545,121.719164,6,P-GPS,
22200,2023-06-20 14:50:04,52.2064098481898,0.0864590044847805,121.719164,121.555122,54.190225815452,175.74534781545,83.66142,0.3131716,62.815290724,72.04888682,11,3,16.86,175.74534781545,121.719164,15.3677778,62.815290724,0.223694,0.223694,0,284, -0.7, -11.3,0,0,1024,1024,1024,1024,0,0,0,0,274.8,-65.6,0,99,4.214,4.219,4.214,4.22,0,0,7.019,78.62,175.74534781545,121.719164,6,P-GPS,
22400,2023-06-20 14:50:04,52.2064097410757,0.0864588056403812,122.047248,121.883206,54.190225815452,176.07343181545,83.66142,0.223694,62.856629308,72.10794194,11,3,16.86,176.07343181545,122.047248,15.3677778,62.856629308,0.223694,0,0,284, -0.2, -11.2,0,0,1024,1024,1024,1024,0,0,0,0,274.8,-68.5,0,99,4.214,4.219,4.214,4.22,0,0,7.019,78.62,176.07343181545,122.047248,6,P-GPS,
22600,2023-06-20 14:50:04,52.2064096065572,0.0864585580075289,122.047248,121.883206,54.190225815452,176.07343181545,83.66142,0.223694,62.908138496,72.182088924,11,3,16.851,176.07343181545,122.047248,15.3677778,62.908138496,0.223694,0,0,284, 0.2, -11.1,0,0,1024,1024,1024,1024,0,0,0,0,274.8,-71.4,0,99,4.211,4.217,4.211,4.214,0,0,7.212,78.62,176.07343181545,122.047248,6,P-GPS,
22800,2023-06-20 14:50:04,52.2064094173475,0.0864583612041365,122.047248,121.9160144,54.157417415452,176.07343181545,83.66142,0.223694,62.946852408,72.26378184,11,3,16.851,176.07343181545,122.047248,15.3677778,62.946852408,0,0.223694,0,283.9, -0.3, -10.5,0,0,1024,1024,1024,1024,0,0,0,0,274.8,-74.4,0,99,4.211,4.217,4.211,4.214,0,0,7.212,78.62,176.07343181545,122.047248,6,P-GPS,
23000,2023-06-20 14:50:04,52.2064092419221,0.0864582498714033,122.047248,121.9160144,54.157417415452,176.07343181545,83.66142,0.223694,62.967193616,72.33267948,11,3,16.851,176.07343181545,122.047248,15.3677778,62.967193616,0,0.223694,0,284.2, -1, -11.1,0,0,1024,1024,1024,1024,0,0,0,0,274.8,-77.3,0,99,4.211,4.217,4.211,4.214,0,0,7.212,78.62,176.07343181545,122.047248,6,P-GPS,
23200,2023-06-20 14:50:05,52.2064090890703,0.0864581793867674,122.047248,121.9160144,54.157417415452,176.07343181545,83.66142,0.3131716,62.978676556,72.390422264,16,4,16.851,176.07343181545,122.047248,15.3677778,62.978676556,0.223694,0.223694,0,284.1, -1.3, -11.4,0,0,1024,1024,1024,1024,0,0,0,0,274.8,-80.2,0,99,4.211,4.217,4.211,4.214,0,0,7.212,78.62,176.07343181545,122.047248,6,P-GPS,
23400,2023-06-20 14:50:05,52.2064090146465,0.0864581055190926,122.047248,121.9160144,54.157417415452,176.07343181545,83.66142,0,62.993440336,72.422246412,16,4,16.851,176.07343181545,122.047248,15.3677778,62.993440336,0,0,0,284.2, -1.2, -11.5,0,0,1024,1024,1024,1024,0,0,0,0,274.8,-83.1,0,99,4.211,4.217,4.211,4.214,0,0,7.212,78.62,176.07343181545,122.047248,6,P-GPS,
23600,2023-06-20 14:50:05,52.2064090533678,0.0864580644752824,122.047248,121.9160144,54.157417415452,176.07343181545,83.66142,0,63.003282856,72.438978696,16,4,16.869,176.07343181545,122.047248,15.3677778,63.003282856,0,0,0,284, -0.9, -11,0,0,1024,1024,1024,1024,0,0,0,0,274.8,-86,0,99,4.218,4.224,4.219,4.221,0,0,7.083,78.62,176.07343181545,122.047248,6,P-GPS,
23800,2023-06-20 14:50:05,52.2064091685723,0.0864580920987732,122.375332,122.2440984,54.157417415452,176.40151581545,83.66142,0,63.0003301,72.481629616,16,4,16.869,176.40151581545,122.375332,15.3677778,63.003282856,0,0,0,284.1, -0.9, -11,0,0,1024,1024,1024,1024,0,0,0,0,274.8,-89,0,99,4.218,4.224,4.219,4.221,0,0,7.083,78.62,176.40151581545,122.375332,6,P-GPS,
24000,2023-06-20 14:50:05,52.2064093479321,0.086458141753955,122.375332,122.2440984,54.157417415452,176.40151581545,83.66142,0,62.994096504,72.547902584,17,4,16.869,176.40151581545,122.375332,15.3677778,63.003282856,0,0,0,284.1, -0.8, -11,0,0,1024,1024,1024,1024,0,0,0,0,274.8,-89.9,0,99,4.218,4.224,4.219,4.221,0,0,7.083,78.62,176.40151581545,122.375332,6,P-GPS,
24200,2023-06-20 14:50:06,52.2064095500874,0.0864581904305719,122.375332,122.21129,54.190225815452,176.40151581545,83.66142,0,62.988519076,72.622377652,17,4,16.869,176.40151581545,122.375332,15.3677778,63.003282856,0,0,0,284.1, -1, -11.1,0,0,1024,1024,1024,1024,0,0,0,0,274.8,-89.9,0,99,4.218,4.224,4.219,4.221,0,0,7.083,78.62,176.40151581545,122.375332,6,P-GPS,
24400,2023-06-20 14:50:06,52.2064097391835,0.0864582282870563,122.375332,122.21129,54.190225815452,176.40151581545,83.66142,0,62.985238236,72.69193146,17,4,16.869,176.40151581545,122.375332,15.3677778,63.003282856,0,0,0,284.1, -1, -10.7,0,0,1024,1024,1024,1024,0,0,0,0,274.8,-90,0,99,4.218,4.224,4.219,4.221,0,0,7.083,78.62,176.40151581545,122.375332,6,P-GPS,
24600,2023-06-20 14:50:06,52.2064099159658,0.0864582420428836,122.375332,122.21129,54.190225815452,176.40151581545,83.66142,0,62.986878656,72.756564008,17,4,16.861,176.40151581545,122.375332,15.3677778,63.003282856,0,0,0,284, -0.9, -10.1,0,0,1024,1024,1027,1024,0,0,0,0,274.8,-89.9,0,99,4.212,4.216,4.214,4.217,0,0,6.963,78.8,176.40151581545,122.375332,6,P-GPS,"Home Point updated (Code: 3000001)"
24800,2023-06-20 14:50:06,52.2064101424907,0.086458325332741,122.375332,122.21129,54.190225815452,176.40151581545,83.66142,0,62.974739548,72.84120968,17,4,16.861,176.40151581545,122.375332,15.3677778,63.003282856,0,0,0,284.2, -1.5, -10.6,0,0,1024,1024,1684,1024,0,0,100,0,274.8,-90,0,99,4.212,4.216,4.214,4.217,0,0,6.963,78.8,176.40151581545,122.375332,6,P-GPS,
25000,2023-06-20 14:50:06,52.2064104542948,0.0864583902814952,122.375332,122.21129,54.190225815452,176.40151581545,83.66142,0,62.96916212,72.95603908,17,4,16.861,176.40151581545,122.375332,15.3677778,63.003282856,0,0,-0.223694,284.2, -1.3, -11.4,0,0,1024,1024,1684,1022,0,0,100,-0,274.8,-90,0,99,4.212,4.216,4.214,4.217,0,0,6.963,78.8,176.40151581545,122.375332,6,P-GPS,
25200,2023-06-20 14:50:07,52.2064106554178,0.0864583919590351,123.0315,122.867458,54.190225815452,177.05768381545,83.66142,0,62.974739548,73.029529896,17,4,16.861,177.05768381545,123.0315,15.3677778,63.003282856,0,0,-2.23694,284.2, -1, -9.2,0,0,1024,1024,1684,1024,0,0,100,0,274.8,-89.9,0,99,4.212,4.216,4.214,4.217,0,0,6.963,78.8,177.05768381545,123.0315,6,P-GPS,
25400,2023-06-20 14:50:07,52.2064107656566,0.0864584090419834,124.015752,123.85171,54.190225815452,178.04193581545,83.66142,0,62.97408338,73.069884228,17,4,16.861,178.04193581545,124.015752,15.3677778,63.003282856,0,0,-4.47388,283.7, -0.7, -8.6,0,0,1024,1024,1684,1024,0,0,100,0,274.8,-90,0,99,4.212,4.216,4.214,4.217,0,0,6.963,78.8,178.04193581545,124.015752,6,P-GPS,
25600,2023-06-20 14:50:07,52.2064109030012,0.0864585573644719,125.656172,125.49213,54.190225815452,179.68235581545,83.66142,0,62.945211988,73.1299236,17,4,16.861,179.68235581545,125.656172,15.3677778,63.003282856,0,0,-6.487126,283.8, -1.6, -8.5,0,0,1024,1024,1053,1024,0,0,4,0,274.8,-89.9,0,99,4.121,4.128,4.118,4.109,0,0,6.963,78.8,179.68235581545,125.656172,6,P-GPS,
25800,2023-06-20 14:50:07,52.2064111128977,0.0864588053048732,128.280844,128.116802,54.190225815452,182.30702781545,83.66142,0,62.896327472,73.224411792,17,4,16.861,182.30702781545,128.280844,15.3677778,63.003282856,0,0,-8.052984,283.9, -3.5, -8.7,0,0,1024,1024,1134,1024,0,0,17,0,274.8,-89.9,0,99,4.121,4.128,4.118,4.109,0,0,6.963,78.8,182.30702781545,128.280844,6,P-GPS,
26000,2023-06-20 14:50:07,52.2064115740015,0.0864591476907723,130.249348,130.085306,54.190225815452,184.27553181545,83.66142,0,62.834319596,73.409123084,23,4,16.861,184.27553181545,130.249348,15.3677778,63.003282856,0,0,-6.263432,284.1, -4.8, -9.2,0,0,1024,1024,1024,1024,0,0,0,0,274.8,-90,0,99,4.121,4.128,4.118,4.109,0,0,6.963,78.8,184.27553181545,130.249348,6,P-GPS,
26200,2023-06-20 14:50:08,52.2064123490918,0.0864596305147223,131.889768,131.725726,54.190225815452,185.91595181545,83.66142,0.223694,62.751642428,73.711944616,23,4,16.861,185.91595181545,131.889768,15.3677778,63.003282856,0.223694,0,-4.026492,284, -4.6, -8.5,0,0,1024,1024,1024,1024,0,0,0,0,274.8,-89.9,0,99,4.121,4.128,4.118,4.109,0,0,6.963,78.8,185.91595181545,131.889768,6,P-GPS,
26400,2023-06-20 14:50:08,52.2064134921198,0.0864602828820409,132.545936,132.3490856,54.223034215452,186.57211981545,83.66142,0.447388,62.645671296,74.153873764,23,4,16.861,186.57211981545,132.545936,15.3677778,63.003282856,0.447388,0,-1.789552,284.4, -5, -10,0,0,1024,1024,1024,1024,0,0,0,0,274.8,-89.9,0,99,4.121,4.128,4.118,4.109,0,0,6.963,78.8,186.57211981545,132.545936,6,P-GPS,
26600,2023-06-20 14:50:08,52.206414883468,0.0864609696948461,132.87402,132.6771696,54.223034215452,186.90020381545,83.66142,0.894776,62.54429334,74.684057508,23,4,16.819,186.90020381545,132.87402,15.3677778,63.003282856,0.894776,0,-0.447388,284.6, -3.9, -14.7,0,0,1024,1024,1024,1024,0,0,0,0,274.8,-90,0,99,4.248,4.247,4.235,4.236,0,0,7.972,78.8,186.90020381545,132.87402,6,P-GPS,
26800,2023-06-20 14:50:08,52.2064162272291,0.0864614637023956,132.87402,132.6443612,54.255842615452,186.90020381545,83.66142,0.671082,62.488190976,75.186682196,23,4,16.819,186.90020381545,132.87402,15.3677778,63.003282856,0.671082,0,0,284.8, -3, -19.5,0,0,1084,1024,1024,1024,9,0,0,0,274.8,-90,0,99,4.248,4.247,4.235,4.236,0,0,7.972,78.8,186.90020381545,132.87402,6,P-GPS,
27000,2023-06-20 14:50:08,52.2064171438253,0.086461639005318,132.87402,132.6443612,54.255842615452,186.90020381545,83.66142,0.447388,62.488190976,75.52329638,24,4,16.819,186.90020381545,132.87402,15.3677778,63.003282856,0.447388,0,0,284.6, -1, -17.9,0,0,1601,1024,1024,1024,87,0,0,0,274.8,-90,0,99,4.248,4.247,4.235,4.236,0,0,7.972,78.8,186.90020381545,132.87402,6,P-GPS,
27200,2023-06-20 14:50:09,52.2064176630288,0.0864616458273137,132.87402,132.6443612,54.255842615452,186.90020381545,83.66142,0.671082,62.509516436,75.712928932,24,4,16.819,186.90020381545,132.87402,15.3677778,63.003282856,0.671082,0,0,284.1, -6.3, -5,0,0,1684,1024,1024,1024,100,0,0,0,274.8,-89.9,0,99,4.248,4.247,4.235,4.236,0,0,7.972,78.8,186.90020381545,132.87402,6,P-GPS,
27400,2023-06-20 14:50:09,52.2064184640018,0.0864613404311699,132.87402,132.6443612,54.255842615452,186.90020381545,83.66142,1.4092722,62.613519064,76.012797708,24,4,16.819,186.90020381545,132.87402,15.3677778,63.003282856,1.342164,-0.447388,0,285.7, -22.4, -7.8,0,0,1641,1024,1024,1024,93,0,0,0,274.8,-89.9,0,99,4.248,4.247,4.235,4.236,0,0,7.972,78.8,186.90020381545,132.87402,6,P-GPS,
27600,2023-06-20 14:50:09,52.2064197124305,0.0864592607290044,132.545936,132.2834688,54.288651015452,186.57211981545,83.66142,3.019869,63.133532204,76.663716364,24,4,16.81,186.90020381545,132.87402,15.3677778,63.133532204,2.013246,-2.23694,0,286.9, -27.4, -11.4,0,0,1343,1024,1024,1024,48,0,0,0,274.8,-89.9,0,99,4.181,4.204,4.188,4.202,0,0,11.235,78.98,186.57211981545,132.545936,6,P-GPS,
27800,2023-06-20 14:50:09,52.2064213847965,0.0864545712500153,132.545936,132.2506604,54.321459415452,186.57211981545,83.66142,4.921268,64.2552514,77.876970996,24,4,16.81,186.90020381545,132.87402,15.3677778,64.2552514,2.460634,-4.250186,0,285.9, -20.5, -11.7,0,0,364,1024,1024,1024,-100,0,0,0,274.8,-89.9,0,99,4.181,4.204,4.188,4.202,0,0,11.235,78.98,186.57211981545,132.545936,6,P-GPS,
28000,2023-06-20 14:50:09,52.2064232330196,0.0864481783969842,132.545936,132.2506604,54.321459415452,186.57211981545,83.66142,5.2120702,65.766734388,79.457351624,24,4,16.81,186.90020381545,132.87402,15.3677778,65.766734388,2.23694,-4.697574,-0.223694,284.7, 17.5, -9.8,0,0,364,1024,1024,1024,-100,0,0,0,274.8,-90,0,99,4.181,4.204,4.188,4.202,0,0,11.235,78.98,186.57211981545,132.545936,6,P-GPS,
28200,2023-06-20 14:50:10,52.2064247584805,0.0864433188154465,132.545936,132.217852,54.354267815452,186.57211981545,83.66142,3.0422384,66.92421474,80.678152188,24,5,16.81,186.90020381545,132.87402,15.3677778,66.92421474,1.789552,-2.460634,0,281.9, 32.9, -8,0,0,364,1024,1024,1024,-100,0,0,0,274.8,-90,0,99,4.181,4.204,4.188,4.202,0,0,11.235,78.98,186.57211981545,132.545936,6,P-GPS,
28400,2023-06-20 14:50:10,52.2064258085961,0.0864422176502794,132.545936,132.217852,54.354267815452,186.57211981545,83.66142,1.006623,67.226708188,81.13353278,24,5,16.81,186.90020381545,132.87402,15.3677778,67.226708188,0.894776,0.447388,0,281.4, 33.2, -8.8,0,0,364,1024,1024,1024,-100,0,0,0,274.8,-90,0,99,4.181,4.204,4.188,4.202,0,0,11.235,78.98,186.57211981545,132.545936,6,P-GPS,
28600,2023-06-20 14:50:10,52.2064264081464,0.086445101565086,132.545936,132.217852,54.354267815452,186.57211981545,83.66142,3.6014734,66.625330216,81.814635164,24,5,16.802,186.90020381545,132.87402,15.3677778,67.226708188,0.447388,3.579104,0,280.6, 30.4, -11.4,0,0,364,1024,1024,1024,-100,0,0,0,274.8,-89.9,0,99,4.191,4.197,4.19,4.194,0,0,6.65,78.8,186.57211981545,132.545936,6,P-GPS,
28800,2023-06-20 14:50:10,52.2064264393127,0.086451540606383,132.545936,132.217852,54.354267815452,186.57211981545,83.66142,5.816044,65.207023084,83.254267756,24,5,16.802,186.90020381545,132.87402,15.3677778,67.226708188,0,5.816044,0,281.4, 25.1, -12,0,0,364,1024,1024,1024,-100,0,0,0,274.8,-89.9,0,99,4.191,4.197,4.19,4.194,0,0,6.65,78.8,186.57211981545,132.545936,6,P-GPS,
29000,2023-06-20 14:50:10,52.2064259672423,0.0864607341961993,132.545936,132.217852,54.354267815452,186.57211981545,83.66142,7.6279654,63.151576824,85.316931864,24,5,16.802,186.90020381545,132.87402,15.3677778,67.226708188,-0.671082,7.605596,0,281.6, 22.2, -11.9,0,0,364,1024,1024,1024,-100,0,0,0,274.8,-89.9,0,99,4.191,4.197,4.19,4.194,0,0,6.65,78.8,186.57211981545,132.545936,6,P-GPS,
29200,2023-06-20 14:50:11,52.206425086098,0.0864721617379774,132.87402,132.545936,54.354267815452,186.90020381545,83.66142,9.2385622,60.57907018,87.89206318,24,5,16.802,186.90020381545,132.87402,15.3677778,67.226708188,-1.11847,9.171454,0,281.8, 20.6, -12.1,0,0,1024,1024,1024,1024,0,0,0,0,274.8,-90,0,99,4.191,4.197,4.19,4.194,0,0,6.65,78.8,186.90020381545,132.87402,6,P-GPS,
29400,2023-06-20 14:50:11,52.2064239142874,0.0864853873229674,132.87402,132.545936,54.354267815452,186.90020381545,83.66142,10.3794016,57.592521528,90.879924168,24,5,16.802,186.90020381545,132.87402,15.3677778,67.226708188,-1.342164,10.289924,0,282, 3.3, -11.1,0,0,1024,1024,1024,1024,0,0,0,0,274.8,-89.9,0,99,4.191,4.197,4.19,4.194,0,0,6.65,78.8,186.90020381545,132.87402,6,P-GPS,
29600,2023-06-20 14:50:11,52.2064227519925,0.0864986927868168,132.87402,132.5787444,54.321459415452,186.90020381545,83.66142,9.2385622,54.588912508,93.884845524,24,5,16.838,186.90020381545,132.87402,15.3677778,67.226708188,-1.11847,9.171454,0,287.1, -30, -12.8,0,0,1024,1024,1024,1024,0,0,0,0,274.8,-89.9,0,99,4.172,4.171,4.196,4.202,0,0,7.935,78.8,186.90020381545,132.87402,6,P-GPS,
29800,2023-06-20 14:50:11,52.2064219755464,0.0865089028959314,132.87402,132.5787444,54.321459415452,186.90020381545,83.66142,6.2858014,52.29166834,96.185370532,24,5,16.838,186.90020381545,132.87402,15.3677778,67.226708188,-0.447388,6.263432,0,288.6, -31.4, -15.3,0,0,1024,1024,1024,1024,0,0,0,0,274.8,-90,0,99,4.172,4.171,4.196,4.202,0,0,7.935,78.8,186.90020381545,132.87402,6,P-GPS,
30000,2023-06-20 14:50:11,52.2064215432092,0.086515179761056,132.87402,132.5787444,54.321459415452,186.90020381545,83.66142,3.131716,50.88254756,97.597444068,24,5,16.838,186.90020381545,132.87402,15.3677778,67.226708188,-0.223694,3.131716,0,288.3, -28.1, -18.5,0,1,1024,1024,1024,1024,0,0,0,0,274.8,-90,0,99,4.172,4.171,4.196,4.202,0,0,7.935,78.8,186.90020381545,132.87402,6,P-GPS,
30200,2023-06-20 14:50:12,52.2064212184873,0.0865180676460404,132.87402,132.5787444,54.321459415452,186.90020381545,83.66142,1.1408394,50.226051476,98.253940152,24,5,16.838,186.90020381545,132.87402,15.3677778,67.226708188,-0.223694,1.11847,0,285.8, -14.8, -16.7,0,1,1024,1024,1024,1024,0,0,0,0,274.8,-90,0,99,4.172,4.171,4.196,4.202,0,0,7.935,78.8,186.90020381545,132.87402,6,P-GPS,
30400,2023-06-20 14:50:12,52.2064207489227,0.0865190699062494,132.87402,132.5787444,54.321459415452,186.90020381545,83.66142,0.4921268,49.9753953,98.536092392,24,5,16.838,186.90020381545,132.87402,15.3677778,67.226708188,-0.447388,0.223694,0,284.4, -6.9, -13.1,0,1,1024,1024,1024,1024,0,0,0,0,274.8,-90,0,99,4.172,4.171,4.196,4.202,0,0,7.935,78.8,186.90020381545,132.87402,6,P-GPS,
30600,2023-06-20 14:50:12,52.2064201961327,0.0865194166677318,133.202104,132.9396368,54.288651015452,187.22828781545,83.66142,0.447388,49.86384674,98.752299748,24,5,16.751,187.22828781545,133.202104,15.3677778,67.226708188,-0.447388,0,-0.223694,284.3, -4.8, -10.1,0,1,1024,1024,1024,1024,0,0,0,0,274.8,-90,0,99,4.187,4.199,4.197,4.2,0,0,8.657,78.98,187.22828781545,133.202104,6,P-GPS,
30800,2023-06-20 14:50:12,52.2064197226037,0.0865195388765155,133.202104,132.9396368,54.288651015452,187.22828781545,83.66142,0.447388,49.807744376,98.92716852,24,5,16.751,187.22828781545,133.202104,15.3677778,67.226708188,-0.447388,0,0,284.3, -3.7, -9.3,0,1,1024,1024,1024,1024,0,0,0,0,274.8,-89.9,0,99,4.187,4.199,4.197,4.2,0,0,8.657,78.98,187.22828781545,133.202104,6,P-GPS,
31000,2023-06-20 14:50:12,52.2064193375922,0.0865195520452039,133.202104,132.9396368,54.288651015452,187.22828781545,83.66142,0.447388,49.781497656,99.067588472,24,5,16.751,187.22828781545,133.202104,15.3677778,67.226708188,-0.447388,0,0,284.3, -3.9, -8.4,0,1,1024,1024,1024,1024,0,0,0,0,274.8,-90,0,99,4.187,4.199,4.197,4.2,0,0,8.657,78.98,187.22828781545,133.202104,6,P-GPS,
31200,2023-06-20 14:50:13,52.2064190793751,0.0865194500927148,133.202104,132.9396368,54.288651015452,187.22828781545,83.66142,0.223694,49.78838742,99.164701336,24,5,16.751,187.22828781545,133.202104,15.3677778,67.226708188,-0.223694,0,0,284.3, -2.9, -8.8,0,1,1024,1024,1024,1024,0,0,0,0,274.8,-89.9,0,99,4.187,4.199,4.197,4.2,0,0,8.657,78.98,187.22828781545,133.202104,6,P-GPS,
31400,2023-06-20 14:50:13,52.206418923177,0.0865193243051793,132.87402,132.6115528,54.288651015452,186.90020381545,83.66142,0,49.806760124,99.228021548,24,5,16.751,187.22828781545,133.202104,15.3677778,67.226708188,0,0,0,284.1, -2.4, -8.8,0,1,1024,1024,1024,1024,0,0,0,0,274.8,-89.9,0,99,4.187,4.199,4.197,4.2,0,0,8.657,78.98,186.90020381545,132.87402,6,P-GPS,
31600,2023-06-20 14:50:13,52.2064188441088,0.0865192278745925,132.87402,132.6115528,54.288651015452,186.90020381545,83.66142,0,49.823492408,99.264110788,24,5,16.671,187.22828781545,133.202104,15.3677778,67.226708188,0,0,0,284.2, -2.5, -9.3,0,1,1024,1024,1024,1024,0,0,0,0,274.8,-89.9,0,99,4.209,4.212,4.204,4.207,0,0,9.502,78.98,186.90020381545,132.87402,6,P-GPS,
31800,2023-06-20 14:50:13,52.206418812771,0.0865191360851995,132.87402,132.6115528,54.288651015452,186.90020381545,83.66142,0,49.841865112,99.287732836,24,5,16.671,187.22828781545,133.202104,15.3677778,67.226708188,0,0,0,284.3, -2.2, -10.1,0,1,1024,1024,1024,1024,0,0,0,0,274.8,-89.9,0,99,4.209,4.212,4.204,4.207,0,0,9.502,78.98,186.90020381545,132.87402,6,P-GPS,
32000,2023-06-20 14:50:13,52.2064188125569,0.0865190237319629,132.87402,132.6115528,54.288651015452,186.90020381545,83.66142,0,49.866799496,99.31266722,24,5,16.671,187.22828781545,133.202104,15.3677778,67.226708188,0,0,0,284.2, -1.8, -10.3,0,1,1024,1024,1024,1024,0,0,0,0,274.8,-90,0,99,4.209,4.212,4.204,4.207,0,0,9.502,78.98,186.90020381545,132.87402,6,P-GPS,
32200,2023-06-20 14:50:14,52.2064187949262,0.0865189228139567,132.87402,132.6115528,54.288651015452,186.90020381545,83.66142,0,49.887796872,99.336289268,24,5,16.671,187.22828781545,133.202104,15.3677778,67.226708188,0,0,0,284, -1.4, -10.2,0,1,1024,1024,1024,1024,0,0,0,0,274.8,-89.9,0,99,4.209,4.212,4.204,4.207,0,0,9.502,78.98,186.90020381545,132.87402,6,P-GPS,
32400,2023-06-20 14:50:14,52.2064187483094,0.0865188567748016,132.87402,132.6115528,54.288651015452,186.90020381545,83.66142,0,49.899607896,99.35859898,24,5,16.671,187.22828781545,133.202104,15.3677778,67.226708188,0,0,0,284.2, -2.2, -9.6,0,1,1024,1024,1024,1024,0,0,0,0,274.8,-90,0,99,4.209,4.212,4.204,4.207,0,0,9.502,78.98,186.90020381545,132.87402,6,P-GPS,
