time(millisecond),datetime(utc),latitude,longitude,height_above_takeoff(feet),height_above_ground_at_drone_location(feet),ground_elevation_at_drone_location(feet),altitude_above_seaLevel(feet),height_sonar(feet),speed(mph),distance(feet),mileage(feet),satellites,gpslevel,voltage(v),max_altitude(feet),max_ascent(feet),max_speed(mph),max_distance(feet), xSpeed(mph), ySpeed(mph), zSpeed(mph), compass_heading(degrees), pitch(degrees), roll(degrees),isPhoto,isVideo,rc_elevator,rc_aileron,rc_throttle,rc_rudder,rc_elevator(percent),rc_aileron(percent),rc_throttle(percent),rc_rudder(percent),gimbal_heading(degrees),gimbal_pitch(degrees),gimbal_roll(degrees),battery_percent,voltageCell1,voltageCell2,voltageCell3,voltageCell4,voltageCell5,voltageCell6,current(A),battery_temperature(f),altitude(feet),ascent(feet),flycStateRaw,flycState,message
0,2023-06-12 17:56:00,0,0,0,,,53.502394756696,0.328084,0,0,0,14,2,0,53.502394756696,0,0,0,0,0,0,111.9, 3.6, 0.9,0,0,1024,1024,1024,1024,0,0,0,0,112,0,0,100,4.302,4.303,4.302,4.298,0,0,0,77.72,53.502394756696,0,41,Motors_Started,"Setting new Return-To-Home altitude to 26m (85 ft). Data Recorder File Index is 38. Setting new Maximum Flight Altitude to 30m (98 ft) Aircraft not in flight. Vision systems and obstacle avoidance disabled (Code: 180059). No GPS signal. Aircraft unable to hover. Fly with caution (Code: 30008). GPS signal weak. Hovering unstable. Fly with caution (Code: 30002). Aircraft not in flight"
200,2023-06-12 17:56:00,0,0,0,,,53.502394756696,0.328084,0,0,0,14,2,0,53.502394756696,0,0,0,0,0,0,111.9, 3.6, 0.9,0,0,1024,1024,1024,1024,0,0,0,0,112,0,0,100,4.302,4.303,4.302,4.298,0,0,0,77.72,53.502394756696,0,41,Motors_Started,"No GPS. Fly with caution"
400,2023-06-12 17:56:01,0,0,0,,,53.502394756696,0.328084,0,0,0,14,2,0,53.502394756696,0,0,0,0,0,0,111.9, 3.6, 0.9,0,0,1024,1024,1024,1024,0,0,0,0,112,0,0,100,4.302,4.303,4.302,4.298,0,0,0,77.72,53.502394756696,0,41,Motors_Started,
600,2023-06-12 17:56:01,0,0,0,,,53.502394756696,0,0,0,0,14,2,0,53.502394756696,0,0,0,0,0,0,111.8, 3.7, 0.8,0,0,1024,1024,1024,1024,0,0,0,0,112,0,0,100,4.302,4.303,4.302,4.298,0,0,0,77.72,53.502394756696,0,41,Motors_Started,
800,2023-06-12 17:56:01,0,0,0,,,53.502394756696,0,0,0,0,14,2,0,53.502394756696,0,0,0,0,0,0,111.9, 3.7, 0.9,0,0,1024,1024,1024,1024,0,0,0,0,112,0,0,100,4.302,4.303,4.302,4.298,0,0,0,77.72,53.502394756696,0,41,Motors_Started,
1000,2023-06-12 17:56:01,0,0,0,,,53.502394756696,0,0,0,0,14,2,17.228,53.502394756696,0,0,0,0,0,0,111.9, 3.7, 0.9,0,0,1024,1024,1024,1024,0,0,0,0,112,0,0,100,4.302,4.303,4.302,4.298,0,0,2.652,77.72,53.502394756696,0,41,Motors_Started,
1200,2023-06-12 17:56:01,0,0,0,,,53.502394756696,0,0,0,0,14,2,17.228,53.502394756696,0,0,0,0,0,0,112, 3.7, 0.9,0,0,1024,1024,1024,1024,0,0,0,0,112,0,0,100,4.302,4.303,4.302,4.298,0,0,2.652,77.72,53.502394756696,0,41,Motors_Started,
1400,2023-06-12 17:56:02,0,0,0,,,53.502394756696,0,0,0,0,14,2,17.228,53.502394756696,0,0,0,0,0,0,111.9, 3.7, 0.9,0,0,1024,1024,1024,1024,0,0,0,0,112,0,0,100,4.302,4.303,4.302,4.298,0,0,2.652,77.72,53.502394756696,0,41,Motors_Started,
1600,2023-06-12 17:56:02,0,0,0,,,53.502394756696,0,0,0,0,14,2,17.228,53.502394756696,0,0,0,0,0,0,111.4, 3.7, 0.9,0,0,1024,1024,1024,1024,0,0,0,0,111.9,0,0,100,4.302,4.303,4.302,4.298,0,0,2.652,77.72,53.502394756696,0,11,AutoTakeoff,
1800,2023-06-12 17:56:02,0,0,0,,,53.502394756696,0,0,0,0,14,2,17.228,53.502394756696,0,0,0,0,0,0,110.9, 3.7, 0.9,0,0,1024,1024,1024,1024,0,0,0,0,111.9,0,0,100,4.302,4.303,4.302,4.298,0,0,2.652,77.72,53.502394756696,0,11,AutoTakeoff,
2000,2023-06-12 17:56:02,0,0,0,,,53.502394756696,0,0,0,0,14,2,17.21,53.502394756696,0,0,0,0,0,0,110.8, 0.6, 0.8,0,0,1024,1024,1024,1024,0,0,0,0,111.9,0,0,100,4.325,4.321,4.317,4.311,0,0,4.272,78.08,53.502394756696,0,11,AutoTakeoff,
2200,2023-06-12 17:56:03,0,0,0,,,53.502394756696,0.328084,0,0,0,14,2,17.21,53.502394756696,0,0,0,0,0,-0.894776,110.8, -1.4, -0.1,0,0,1024,1024,1024,1024,0,0,0,0,111.8,0,0,100,4.325,4.321,4.317,4.311,0,0,4.272,78.08,53.502394756696,0,11,AutoTakeoff,
2400,2023-06-12 17:56:03,0,0,0.328084,,,53.830478756696,0.328084,0,0,0,14,2,17.21,53.830478756696,0.328084,0,0,0,0,-1.11847,111, 1.2, 0.2,0,0,1024,1024,1024,1024,0,0,0,0,111.8,0,0,100,4.325,4.321,4.317,4.311,0,0,4.272,78.08,53.830478756696,0.328084,11,AutoTakeoff,
2600,2023-06-12 17:56:03,0,0,0.656168,,,54.158562756696,0.656168,0,0,0,14,2,17.21,54.158562756696,0.656168,0,0,0,0,-0.894776,110.9, 1.2, -0.1,0,0,1024,1024,1490,1024,0,0,71,0,111.7,0,0,100,4.325,4.321,4.317,4.311,0,0,4.272,78.08,54.158562756696,0.656168,11,AutoTakeoff,
2800,2023-06-12 17:56:03,0,0,0.984252,,,54.486646756696,0.984252,0,0,0,14,2,17.21,54.486646756696,0.984252,0,0,0,0,-0.894776,110.9, 0.4, -0.3,0,0,1024,1024,1684,1024,0,0,100,0,111.7,0,0,100,4.325,4.321,4.317,4.311,0,0,4.272,78.08,54.486646756696,0.984252,11,AutoTakeoff,
3000,2023-06-12 17:56:03,0,0,1.312336,,,54.814730756696,1.312336,0,0,0,14,2,17.071,54.814730756696,1.312336,0,0,0,0,-1.342164,111, 0, -0.5,0,0,1024,1024,1667,1024,0,0,97,0,111.7,0,0,100,4.265,4.265,4.264,4.26,0,0,4.699,77.9,54.814730756696,1.312336,11,AutoTakeoff,
3200,2023-06-12 17:56:04,0,0,1.968504,,,55.470898756696,1.968504,0,0,0,14,2,17.071,55.470898756696,1.968504,0,0,0,0,-3.131716,111, -0.1, -0.3,0,0,1024,1024,1464,1024,0,0,67,0,111.6,0,0,100,4.265,4.265,4.264,4.26,0,0,4.699,77.9,55.470898756696,1.968504,11,AutoTakeoff,
3400,2023-06-12 17:56:04,0,0,3.28084,,,56.783234756696,3.28084,0,0,0,13,2,17.071,56.783234756696,3.28084,0,0,0,0,-5.144962,110.9, -0.1, -0.2,0,0,1024,1024,1024,1024,0,0,0,0,111.6,0,0,100,4.265,4.265,4.264,4.26,0,0,4.699,77.9,56.783234756696,3.28084,11,AutoTakeoff,
3600,2023-06-12 17:56:04,0,0,4.92126,,,58.423654756696,5.249344,0,0,0,14,2,17.071,58.423654756696,4.92126,0,0,0,0,-5.59235,110.7, 0.1, -0.4,0,0,1024,1024,1024,1024,0,0,0,0,111.6,0,0,100,4.265,4.265,4.264,4.26,0,0,4.699,77.9,58.423654756696,4.92126,6,P-GPS,
3800,2023-06-12 17:56:04,0,0,6.56168,,,60.064074756696,6.56168,0,0,0,14,2,17.071,60.064074756696,6.56168,0,0,0,0,-4.026492,111.1, 0.2, 0,0,0,1024,1024,1024,1024,0,0,0,0,111.6,0,0,100,4.265,4.265,4.264,4.26,0,0,4.699,77.9,60.064074756696,6.56168,6,P-GPS,
4000,2023-06-12 17:56:04,0,0,7.217848,,,60.720242756696,7.545932,0,0,0,14,2,16.843,60.720242756696,7.217848,0,0,0,0,-1.789552,111.4, 0.2, 0.3,0,0,1024,1024,1032,364,0,0,1,-100,111.6,0,0,100,4.257,4.265,4.265,4.267,0,0,9.102,77.9,60.720242756696,7.217848,6,P-GPS,
4200,2023-06-12 17:56:05,52.2063468448866,0.0867246930080329,7.545932,7.545932,53.502394756696,61.048326756696,7.874016,0,0,0,14,2,16.843,61.048326756696,7.545932,0,0,0,0,-0.223694,111, 0.2, 0.6,0,0,1024,1024,1024,364,0,0,0,-100,105.1,0,0,100,4.257,4.265,4.265,4.267,0,0,9.102,77.9,61.048326756696,7.545932,6,P-GPS,"No GPS. Fly with caution GPS signal weak. Hovering unstable. Fly with caution (Code: 30002)"
4400,2023-06-12 17:56:05,52.206346834073,0.0867246395799828,7.545932,7.545932,53.502394756696,61.048326756696,7.874016,0,0.0125804465968,0.0125804465968,15,2,16.843,61.048326756696,7.545932,0,0.0125804465968,0,0,0,100, 0.3, 0.1,0,0,1024,1024,1024,364,0,0,0,-100,93.3,0,0,100,4.257,4.265,4.265,4.267,0,0,9.102,77.9,61.048326756696,7.545932,6,P-GPS,
4600,2023-06-12 17:56:05,52.2063468048382,0.08672453871224,7.545932,7.545932,53.502394756696,61.048326756696,7.874016,0,0.037465224296,0.037528216424,15,2,16.843,61.048326756696,7.545932,0,0.037465224296,0,0,0,87.3, -0.1, -0.1,0,0,1024,1024,1024,364,0,0,0,-100,81.3,0,0,100,4.257,4.265,4.265,4.267,0,0,9.102,77.9,61.048326756696,7.545932,6,P-GPS,
4800,2023-06-12 17:56:05,52.2063468125984,0.0867244507343571,7.545932,7.545932,53.502394756696,61.048326756696,7.874016,0,0.055435369228,0.05740157664,15,2,16.843,61.048326756696,7.545932,0,0.055435369228,0,0,0,74.8, -0.6, -1.8,0,0,1024,1024,1024,364,0,0,0,-100,69.3,0,0,100,4.257,4.265,4.265,4.267,0,0,9.102,77.9,61.048326756696,7.545932,6,P-GPS,
5000,2023-06-12 17:56:05,52.2063469683517,0.0867243818313872,7.545932,7.545932,53.502394756696,61.048326756696,7.874016,0,0.082884517088,0.11627953128,15,2,17.12,61.048326756696,7.545932,0,0.082884517088,0,0,0,62.7, -1.6, -2.9,0,0,1024,1024,1024,364,0,0,0,-100,57.3,0,0,100,4.257,4.26,4.258,4.255,0,0,6.099,78.08,61.048326756696,7.545932,6,P-GPS,
5200,2023-06-12 17:56:06,52.2063473683215,0.0867243351250173,7.545932,7.545932,53.502394756696,61.048326756696,7.874016,0,0.207061030248,0.262581373232,15,5,17.12,61.048326756696,7.545932,0,0.207061030248,0,0,0,50.6, -1.9, -2.3,0,0,1024,1024,1024,364,0,0,0,-100,45.3,0,0,100,4.257,4.26,4.258,4.255,0,0,6.099,78.08,61.048326756696,7.545932,6,P-GPS,
5400,2023-06-12 17:56:06,52.2063480071902,0.0867243005336282,7.545932,7.545932,53.502394756696,61.048326756696,7.874016,0.223694,0.43305119496,0.4958005408,15,5,17.12,61.048326756696,7.545932,0.223694,0.43305119496,0.223694,0,0,38.6, -1.1, -1.1,0,0,1024,1024,1024,364,0,0,0,-100,33.3,0,0,100,4.257,4.26,4.258,4.255,0,0,6.099,78.08,61.048326756696,7.545932,6,P-GPS,
5600,2023-06-12 17:56:06,52.206348786287,0.086724254438206,7.545932,7.545932,53.502394756696,61.048326756696,7.874016,0.223694,0.7150754822,0.78023952628,15,5,17.12,61.048326756696,7.545932,0.223694,0.7150754822,0.223694,0,0,26.7, -0.5, -0.1,0,0,1024,1024,1024,364,0,0,0,-100,21.3,0,0,100,4.257,4.26,4.258,4.255,0,0,6.099,78.08,61.048326756696,7.545932,6,P-GPS,
5800,2023-06-12 17:56:06,52.2063496021145,0.0867241743742468,7.545932,7.545932,53.502394756696,61.048326756696,7.874016,0.223694,1.01263454684,1.07843179304,15,5,17.12,61.048326756696,7.545932,0.223694,1.01263454684,0.223694,0,0,14.6, -0.1, 0.2,0,0,1024,1024,1024,364,0,0,0,-100,9.3,0,0,100,4.257,4.26,4.258,4.255,0,0,6.099,78.08,61.048326756696,7.545932,6,P-GPS,
6000,2023-06-12 17:56:06,52.2063503953981,0.0867240804699312,7.545932,7.545932,53.502394756696,61.048326756696,7.874016,0.223694,1.30262143276,1.36862209104,15,5,17.024,61.048326756696,7.545932,0.223694,1.30262143276,0.223694,0,0,2.6, 0.7, 0.9,0,0,1024,1024,1024,364,0,0,0,-100,357.4,0,0,100,4.256,4.26,4.257,4.254,0,0,7.108,78.08,61.048326756696,7.545932,6,P-GPS,"Setting new Maximum Flight Altitude to 120m (394 ft)"
6200,2023-06-12 17:56:07,52.206351111348,0.0867239918456058,7.545932,7.545932,53.502394756696,61.048326756696,7.874016,0.223694,1.56449151988,1.63058732252,22,5,17.024,61.048326756696,7.545932,0.223694,1.56449151988,0.223694,0,0,350.7, 1.5, 1.3,0,0,1024,1024,1024,911,0,0,0,-17,345.4,0,0,100,4.256,4.26,4.257,4.254,0,0,7.108,78.08,61.048326756696,7.545932,6,P-GPS,
6400,2023-06-12 17:56:07,52.2063522065512,0.086723886478868,7.545932,7.545932,53.502394756696,61.048326756696,7.874016,0.223694,1.96449481352,2.03086292588,22,5,17.024,61.048326756696,7.545932,0.223694,1.96449481352,0.223694,0,0,338.8, 5.2, -0.1,0,0,1024,1024,1088,718,0,0,10,-46,335.6,0,0,100,4.256,4.26,4.257,4.254,0,0,7.108,78.08,61.048326756696,7.545932,6,P-GPS,
6600,2023-06-12 17:56:07,52.2063535444763,0.0867238265935468,7.545932,7.545932,53.502394756696,61.048326756696,7.874016,0,2.45200467164,2.51918971316,22,5,17.024,61.048326756696,7.545932,0.223694,2.45200467164,0,0,0,332.6, 4.8, -1,0,0,1024,1024,1094,364,0,0,11,-100,333.8,0,0,100,4.256,4.26,4.257,4.254,0,0,7.108,78.08,61.048326756696,7.545932,6,P-GPS,
6800,2023-06-12 17:56:07,52.2063549096982,0.086723767668879,7.545932,7.545932,53.502394756696,61.048326756696,7.874016,0,2.94970809964,3.01746400732,22,5,17.024,61.048326756696,7.545932,0.223694,2.94970809964,0,0,0,330.2, 2.3, 0.5,0,0,1024,1024,1024,364,0,0,0,-100,324.4,0,0,100,4.256,4.26,4.257,4.254,0,0,7.108,78.08,61.048326756696,7.545932,6,P-GPS,
7000,2023-06-12 17:56:07,52.2063563576433,0.0867237761531225,7.545932,7.545932,53.502394756696,61.048326756696,7.874016,0.223694,3.4767717648,3.5457350216,22,5,17.018,61.048326756696,7.545932,0.223694,3.4767717648,-0.223694,0,0,317.5, 0.8, 0.1,0,0,1024,1024,1024,1024,0,0,0,0,312.5,0,0,100,4.252,4.253,4.248,4.243,0,0,6.973,78.08,61.048326756696,7.545932,6,P-GPS,"Home Point updated (Code: 3000001)"
7200,2023-06-12 17:56:07,52.2063578669976,0.0867238247885536,7.545932,7.545932,53.502394756696,61.048326756696,7.874016,0.223694,4.026082806,4.0965552492,22,5,17.018,61.048326756696,7.545932,0.223694,4.026082806,-0.223694,0,0,306.7, 0, 0,0,0,1024,1024,1684,1024,0,0,100,0,308.9,0,0,100,4.252,4.253,4.248,4.243,0,0,6.973,78.08,61.048326756696,7.545932,6,P-GPS,
7400,2023-06-12 17:56:08,52.2063593388898,0.0867238908053036,7.874016,7.874016,53.502394756696,61.376410756696,7.874016,0.223694,4.5619424032,4.6337599908,22,5,17.018,61.376410756696,7.874016,0.223694,4.5619424032,-0.223694,0,-0.223694,306.6, -0.6, 0.9,0,0,1024,1024,1684,1024,0,0,100,0,308.9,0,0,100,4.252,4.253,4.248,4.243,0,0,6.973,78.08,61.376410756696,7.874016,6,P-GPS,
7600,2023-06-12 17:56:08,52.206360804812,0.0867239664041244,8.2021,8.2021,53.502394756696,61.704494756696,8.530184,0,5.0958663048,5.1688649948,22,5,17.018,61.704494756696,8.2021,0.223694,5.0958663048,0,0,-2.460634,306.6, -0.3, 0.5,0,0,1024,1024,1684,1024,0,0,100,0,308.9,0,0,100,4.252,4.253,4.248,4.243,0,0,6.973,78.08,61.704494756696,8.2021,6,P-GPS,
7800,2023-06-12 17:56:08,52.2063622286129,0.0867240117383194,9.186352,9.186352,53.502394756696,62.688746756696,9.514436,0,5.6147967676,5.6884516256,22,5,17.018,62.688746756696,9.186352,0.223694,5.6147967676,0,0,-4.697574,306.6, 0.3, 0,0,0,1024,1024,1684,1024,0,0,100,0,308.9,0,0,100,4.252,4.253,4.248,4.243,0,0,6.973,78.08,62.688746756696,9.186352,6,P-GPS,
8000,2023-06-12 17:56:08,52.2063635620853,0.0867240173193055,11.154856,11.154856,53.502394756696,64.657250756696,11.48294,0,6.1011156808,6.1749673892,22,5,17.01,64.657250756696,11.154856,0.223694,6.1011156808,0,0,-7.158208,306.4, 0.7, -0.1,0,0,1024,1024,1684,1024,0,0,100,0,308.9,0,0,100,4.183,4.179,4.176,4.175,0,0,7.142,78.26,64.657250756696,11.154856,6,P-GPS,
8200,2023-06-12 17:56:08,52.206364828359,0.0867239705843214,14.435696,14.435696,53.502394756696,67.938090756696,13.779528,0,6.5632548032,6.6370737032,22,5,17.01,67.938090756696,14.435696,0.223694,6.5632548032,0,0,-9.618842,305.6, -0.2, 0.1,0,0,1024,1024,1669,1024,0,0,98,0,308.9,0,0,100,4.183,4.179,4.176,4.175,0,0,7.142,78.26,67.938090756696,14.435696,6,P-GPS,
8400,2023-06-12 17:56:09,52.2063659866906,0.0867237391061475,19.028872,19.028872,53.502394756696,72.531266756696,17.060368,0,6.9871393312,7.0628611184,22,5,17.01,72.531266756696,19.028872,0.223694,6.9871393312,0,0,-11.855782,304.2, 0.8, 1.8,0,0,1024,1024,1043,1024,0,0,3,0,308.9,0,0,100,4.183,4.179,4.176,4.175,0,0,7.142,78.26,72.531266756696,19.028872,6,P-GPS,
8600,2023-06-12 17:56:09,52.206367180924,0.086723507383114,23.293964,23.293964,53.502394756696,76.796358756696,20.669292,0,7.4243112612,7.50164066,22,5,17.01,76.796358756696,23.293964,0.223694,7.4243112612,0,0,-11.408394,304.3, 0.9, 2.3,0,0,1024,1024,1024,1024,0,0,0,0,308.9,0,0,100,4.183,4.179,4.176,4.175,0,0,7.142,78.26,76.796358756696,23.293964,6,P-GPS,
8800,2023-06-12 17:56:09,52.2063683481845,0.0867232636069154,25.918636,25.918636,53.502394756696,79.421030756696,23.950132,0,7.8519687552,7.9309713824,22,5,17.01,79.421030756696,25.918636,0.223694,7.8519687552,0,0,-9.395148,304.3, 1.2, 2.5,0,0,1024,1024,1024,1024,0,0,0,0,308.9,0,0,100,4.183,4.179,4.176,4.175,0,0,7.142,78.26,79.421030756696,25.918636,6,P-GPS,
9000,2023-06-12 17:56:09,52.206369444329,0.0867229798410579,27.559056,27.559056,53.502394756696,81.061450756696,26.24672,0,8.2542981644,8.3359254636,24,5,16.562,81.061450756696,27.559056,0.223694,8.2542981644,0,0,-7.158208,304.3, 1.9, 2.8,0,0,1024,1024,1024,1024,0,0,0,0,308.9,0,0,100,4.234,4.235,4.239,4.25,0,0,14.546,78.08,81.061450756696,27.559056,6,P-GPS,
9200,2023-06-12 17:56:10,52.2063703732302,0.0867227848762355,28.543308,28.543308,53.502394756696,82.045702756696,28.543308,0,8.5948821648,8.6776249496,25,5,16.562,82.045702756696,28.543308,0.223694,8.5948821648,0,0,-4.697574,304.9, 2.4, 3.3,0,0,1024,1024,1024,1024,0,0,0,0,308.9,0,0,100,4.234,4.235,4.239,4.25,0,0,14.546,78.08,82.045702756696,28.543308,6,P-GPS,
9400,2023-06-12 17:56:10,52.2063711711092,0.086722702147544,29.199476,29.199476,53.502394756696,82.701870756696,29.52756,0,8.8865488408,8.969324434,25,5,16.562,82.701870756696,29.199476,0.223694,8.8865488408,0,0,-2.23694,305.9, 2.9, 3.7,0,0,1024,1024,1024,1024,0,0,0,0,308.9,0,0,100,4.234,4.235,4.239,4.25,0,0,14.546,78.08,82.701870756696,29.199476,6,P-GPS,
9600,2023-06-12 17:56:10,52.2063719638588,0.0867226737551876,29.52756,29.52756,53.502394756696,83.029954756696,30.183728,0,9.1757548868,9.2586289052,25,5,16.562,83.029954756696,29.52756,0.223694,9.1757548868,0,0,-0.447388,306.4, 2.6, 3.8,0,0,1024,1024,1024,1024,0,0,0,0,308.9,0,0,100,4.234,4.235,4.239,4.25,0,0,14.546,78.08,83.029954756696,29.52756,6,P-GPS,
9800,2023-06-12 17:56:10,52.2063728333914,0.0867227036887834,29.52756,29.52756,53.502394756696,83.029954756696,30.511812,0,9.4923231384,9.5759189416,25,5,16.562,83.029954756696,29.52756,0.223694,9.4923231384,0,0,0,306.3, 2.3, 3.5,0,0,1024,1024,1024,1024,0,0,0,0,308.9,0,0,100,4.234,4.235,4.239,4.25,0,0,14.546,78.08,83.029954756696,29.52756,6,P-GPS,
10000,2023-06-12 17:56:10,52.2063736395953,0.086722826513509,29.52756,29.52756,53.502394756696,83.029954756696,30.183728,0,9.784941258,9.8713585836,25,5,17.139,83.029954756696,29.52756,0.223694,9.784941258,0,0,0,306.2, 2.3, 2.7,0,0,1024,1024,1024,1024,0,0,0,0,308.9,0,0,100,4.261,4.261,4.259,4.253,0,0,5.507,78.62,83.029954756696,29.52756,6,P-GPS,
10200,2023-06-12 17:56:11,52.2063744396909,0.0867228951347047,29.52756,29.52756,53.502394756696,83.029954756696,30.511812,0,10.0759845744,10.1636814276,25,5,17.139,83.029954756696,29.52756,0.223694,10.0759845744,0,0,0,306.1, 2.1, 2.3,0,0,1024,1024,1024,1024,0,0,0,0,308.9,0,0,100,4.261,4.261,4.259,4.253,0,0,5.507,78.62,83.029954756696,29.52756,6,P-GPS,
10400,2023-06-12 17:56:11,52.206375262157,0.0867229038504836,29.199476,29.199476,53.502394756696,82.701870756696,30.511812,0,10.3757549252,10.463747054,25,5,17.139,83.029954756696,29.52756,0.223694,10.3757549252,0,0,0,306.1, 1.6, 2.1,0,0,1024,1024,1024,1024,0,0,0,0,308.9,0,0,100,4.261,4.261,4.259,4.253,0,0,5.507,78.62,82.701870756696,29.199476,6,P-GPS,
10600,2023-06-12 17:56:11,52.2063759815845,0.0867228848182735,29.199476,29.199476,53.502394756696,82.701870756696,30.511812,0,10.6381893168,10.7262798708,25,5,17.139,83.029954756696,29.52756,0.223694,10.6381893168,0,0,0,306, 1.2, 1.8,0,0,1024,1024,1024,1024,0,0,0,0,308.9,0,0,100,4.261,4.261,4.259,4.253,0,0,5.507,78.62,82.701870756696,29.199476,6,P-GPS,
10800,2023-06-12 17:56:11,52.2063766841288,0.0867228296842334,29.199476,29.199476,53.502394756696,82.701870756696,30.839896,0,10.8947838132,10.9829071756,25,5,17.139,83.029954756696,29.52756,0.223694,10.8947838132,0,0,0,306, 1.3, 1.6,0,0,1024,1024,1024,1024,0,0,0,0,308.9,0,0,100,4.261,4.261,4.259,4.253,0,0,5.507,78.62,82.701870756696,29.199476,6,P-GPS,
11000,2023-06-12 17:56:11,52.2063773675774,0.0867227442166529,29.199476,29.199476,53.502394756696,82.701870756696,30.511812,0,11.1447182044,11.2329728004,25,5,16.968,83.029954756696,29.52756,0.223694,11.1447182044,0,0,0,306, 1.2, 1.7,0,0,1024,1024,1024,1024,0,0,0,0,308.9,0,0,100,4.242,4.243,4.243,4.24,0,0,6.557,78.62,82.701870756696,29.199476,6,P-GPS,
11200,2023-06-12 17:56:12,52.206378023537,0.0867226459525913,29.199476,29.199476,53.502394756696,82.701870756696,30.183728,0,11.3847116504,11.4733271388,25,5,16.968,83.029954756696,29.52756,0.223694,11.3847116504,0,0,0,306, 1.2, 1.9,0,0,1024,1024,1024,1024,0,0,0,0,308.9,0,0,100,4.242,4.243,4.243,4.24,0,0,6.557,78.62,82.701870756696,29.199476,6,P-GPS,
11400,2023-06-12 17:56:12,52.2063785665248,0.0867225410801597,29.199476,29.199476,53.502394756696,82.701870756696,30.511812,0,11.5836289796,11.6728022108,25,5,16.968,83.029954756696,29.52756,0.223694,11.5836289796,0,0,0,305.9, 1.1, 2.3,0,0,1024,1024,1024,1024,0,0,0,0,308.9,0,0,100,4.242,4.243,4.243,4.24,0,0,6.557,78.62,82.701870756696,29.199476,6,P-GPS,
11600,2023-06-12 17:56:12,52.2063790338839,0.0867224269098344,29.199476,29.199476,53.502394756696,82.701870756696,30.183728,0,11.7550528696,11.8452103528,25,5,16.968,83.029954756696,29.52756,0.223694,11.7550528696,0,0,0,306, 1.4, 2.3,0,0,1024,1024,1024,1024,0,0,0,0,308.9,0,0,100,4.242,4.243,4.243,4.24,0,0,6.557,78.62,82.701870756696,29.199476,6,P-GPS,
11800,2023-06-12 17:56:12,52.2063794471087,0.0867222970617227,29.199476,29.199476,53.502394756696,82.701870756696,30.183728,0,11.9069557616,11.9987536648,25,5,16.968,83.029954756696,29.52756,0.223694,11.9069557616,0,0,0,306, 1.5, 2.6,0,0,1024,1024,1024,1024,0,0,0,0,308.9,0,0,100,4.242,4.243,4.243,4.24,0,0,6.557,78.62,82.701870756696,29.199476,6,P-GPS,
12000,2023-06-12 17:56:12,52.2063797785881,0.0867221822221289,29.199476,29.199476,53.502394756696,82.701870756696,30.183728,0,12.0289373928,12.122375716,25,5,16.961,83.029954756696,29.52756,0.223694,12.0289373928,0,0,0,306.1, 1.5, 2.6,0,0,1024,1024,1024,1024,0,0,0,0,308.9,0,0,99,4.241,4.242,4.243,4.24,0,0,7.196,78.62,82.701870756696,29.199476,6,P-GPS,
12200,2023-06-12 17:56:13,52.2063800628552,0.0867220781683716,29.199476,29.199476,53.502394756696,82.701870756696,30.183728,0,12.1336618056,12.228674932,25,5,16.961,83.029954756696,29.52756,0.223694,12.1336618056,0,0,0,306.1, 1.9, 2.4,0,0,1024,1024,1024,1024,0,0,0,0,308.9,0,0,99,4.241,4.242,4.243,4.24,0,0,7.196,78.62,82.701870756696,29.199476,6,P-GPS,
12400,2023-06-12 17:56:13,52.2063802579601,0.0867219912958518,29.199476,29.199476,53.502394756696,82.701870756696,30.183728,0,12.205709052,12.3024610236,25,5,16.961,83.029954756696,29.52756,0.223694,12.205709052,0,0,0,306.1, 1.8, 2.7,0,0,1024,1024,1024,1024,0,0,0,0,308.9,0,0,99,4.241,4.242,4.243,4.24,0,0,7.196,78.62,82.701870756696,29.199476,6,P-GPS,
12600,2023-06-12 17:56:13,52.2063803954483,0.086721938414258,29.199476,29.199476,53.502394756696,82.701870756696,30.183728,0,12.25639803,12.35400302,25,5,16.961,83.029954756696,29.52756,0.223694,12.25639803,0,0,0,306.1, 1.8, 2.5,0,0,1024,1024,1024,1024,0,0,0,0,308.9,0,0,99,4.241,4.242,4.243,4.24,0,0,7.196,78.62,82.701870756696,29.199476,6,P-GPS,
12800,2023-06-12 17:56:13,52.2063804514116,0.0867218982697325,29.199476,29.199476,53.502394756696,82.701870756696,30.183728,0,12.277231364,12.376312732,25,5,16.961,83.029954756696,29.52756,0.223694,12.277231364,0,0,0,306.1, 2, 2.7,0,0,1024,1024,1024,1024,0,0,0,0,308.9,0,0,99,4.241,4.242,4.243,4.24,0,0,7.196,78.62,82.701870756696,29.199476,6,P-GPS,
13000,2023-06-12 17:56:13,52.206380461255,0.0867218951164825,29.199476,29.199476,53.502394756696,82.701870756696,30.511812,0,12.280840288,12.3799544644,25,5,16.954,83.029954756696,29.52756,0.223694,12.280840288,0,0,0,306.2, 1.9, 2.7,0,0,1024,1024,1024,1024,0,0,0,0,308.9,0,0,99,4.239,4.24,4.241,4.238,0,0,7.158,78.8,82.701870756696,29.199476,6,P-GPS,
13200,2023-06-12 17:56:14,52.2063804362653,0.0867219326291494,29.199476,29.199476,53.502394756696,82.701870756696,30.183728,0,12.271325852,12.3923560396,25,5,16.954,83.029954756696,29.52756,0.223694,12.280840288,0,0,0,306.2, 1.7, 2.4,0,0,1024,1024,1024,1024,0,0,0,0,308.9,0,0,99,4.239,4.24,4.241,4.238,0,0,7.158,78.8,82.701870756696,29.199476,6,P-GPS,
13400,2023-06-12 17:56:14,52.206380386468,0.0867219897109264,29.199476,29.199476,53.502394756696,82.701870756696,29.855644,0,12.2525594472,12.4145673264,25,5,16.954,83.029954756696,29.52756,0.223694,12.280840288,0,0,0,306, 1.4, 2.8,0,0,1024,1024,1024,1024,0,0,0,0,308.9,0,0,99,4.239,4.24,4.241,4.238,0,0,7.158,78.8,82.701870756696,29.199476,6,P-GPS,
13600,2023-06-12 17:56:14,52.2063803254716,0.0867220607376876,29.199476,29.199476,53.502394756696,82.701870756696,30.183728,0,12.2295279504,12.4418967236,25,5,16.954,83.029954756696,29.52756,0.223694,12.280840288,0,0,0,306, 1.4, 3.3,0,0,1024,1024,1024,1024,0,0,0,0,308.9,0,0,99,4.239,4.24,4.241,4.238,0,0,7.158,78.8,82.701870756696,29.199476,6,P-GPS,
13800,2023-06-12 17:56:14,52.2063803083143,0.0867221567997602,28.871392,28.871392,53.502394756696,82.373786756696,30.183728,0,12.222277294,12.4642720524,25,5,16.954,83.029954756696,29.52756,0.223694,12.280840288,0,0,0,306.1, 1.2, 2.7,0,0,1024,1024,1024,1024,0,0,0,0,308.9,0,0,99,4.239,4.24,4.241,4.238,0,0,7.158,78.8,82.373786756696,28.871392,6,P-GPS,
14000,2023-06-12 17:56:14,52.2063803166242,0.086722227669252,28.871392,28.871392,53.502394756696,82.373786756696,29.855644,0,12.224573882,12.4804137852,25,5,16.946,83.029954756696,29.52756,0.223694,12.280840288,0,0,0,305.9, 1.2, 2.7,0,0,1024,1024,1024,1024,0,0,0,0,308.9,0,0,99,4.236,4.239,4.239,4.235,0,0,7.186,78.8,82.373786756696,28.871392,6,P-GPS,
14200,2023-06-12 17:56:14,52.2063803687881,0.086722240553105,28.871392,28.871392,53.502394756696,82.373786756696,29.855644,0,12.2434715204,12.4996395076,25,5,16.946,83.029954756696,29.52756,0.223694,12.280840288,0,0,0,306, 1.6, 2.5,0,0,1024,1024,1024,1024,0,0,0,0,308.9,0,0,99,4.236,4.239,4.239,4.235,0,0,7.186,78.8,82.373786756696,28.871392,6,P-GPS,
14400,2023-06-12 17:56:15,52.2063804558386,0.0867222242392516,28.871392,28.871392,53.502394756696,82.373786756696,30.183728,0,12.2753612852,12.5316276976,25,5,16.946,83.029954756696,29.52756,0.223694,12.280840288,0,0,0,306.1, 1.9, 2.5,0,0,1024,1024,1178,1024,0,0,23,0,308.9,0,0,99,4.236,4.239,4.239,4.235,0,0,7.186,78.8,82.373786756696,28.871392,6,P-GPS,
14600,2023-06-12 17:56:15,52.2063805692858,0.0867221841775109,28.871392,28.871392,53.502394756696,82.373786756696,30.183728,0,12.31709357,12.573983342,25,5,16.946,83.029954756696,29.52756,0.223694,12.31709357,0,0,0,306.1, 2.1, 2.5,0,0,1024,1024,1684,1024,0,0,100,0,308.9,0,0,99,4.236,4.239,4.239,4.235,0,0,7.186,78.8,82.373786756696,28.871392,6,P-GPS,
14800,2023-06-12 17:56:15,52.2063806909509,0.0867221319592879,29.199476,29.199476,53.502394756696,82.701870756696,30.183728,0,12.3619754612,12.6198822936,25,5,16.946,83.029954756696,29.52756,0.223694,12.3619754612,0,0,-1.11847,306.1, 1.8, 1.8,0,0,1024,1024,1665,1024,0,0,97,0,308.9,0,0,99,4.236,4.239,4.239,4.235,0,0,7.186,78.8,82.701870756696,29.199476,6,P-GPS,
15000,2023-06-12 17:56:15,52.2063808352691,0.0867220772203871,29.855644,29.855644,53.502394756696,83.358038756696,31.16798,0,12.4151578776,12.6739177284,25,5,16.941,83.358038756696,29.855644,0.223694,12.4151578776,0,0,-3.35541,306, 2.1, 2.1,0,0,1024,1024,1425,1024,0,0,61,0,308.9,0,0,99,4.211,4.203,4.182,4.177,0,0,7.161,78.98,83.358038756696,29.855644,6,P-GPS,
15200,2023-06-12 17:56:15,52.2063810230386,0.0867220601889924,31.496064,31.496064,53.502394756696,84.998458756696,32.480316,0,12.483760242,12.7425529012,25,5,16.941,84.998458756696,31.496064,0.223694,12.483760242,0,0,-4.697574,306, 2.6, 2.4,0,0,1024,1024,1024,1024,0,0,0,0,308.9,0,0,99,4.211,4.203,4.182,4.177,0,0,7.161,78.98,84.998458756696,31.496064,6,P-GPS,
15400,2023-06-12 17:56:16,52.2063812161345,0.086722065084874,32.480316,32.480316,53.502394756696,85.982710756696,33.792652,0,12.5541014516,12.812992536,25,5,16.941,85.982710756696,32.480316,0.223694,12.5541014516,0,0,-2.908022,306.2, 3, 2.3,0,0,1024,1024,1024,1024,0,0,0,0,308.9,0,0,99,4.211,4.203,4.182,4.177,0,0,7.161,78.98,85.982710756696,32.480316,6,P-GPS,
15600,2023-06-12 17:56:16,52.206381396408,0.0867220392839667,32.8084,32.8084,53.502394756696,86.310794756696,34.120736,0,12.6200463356,12.8790358452,25,5,16.941,86.310794756696,32.8084,0.223694,12.6200463356,0,0,-0.894776,306.1, 2.2, 1.4,0,0,1024,1024,1024,1024,0,0,0,0,308.9,0,0,99,4.211,4.203,4.182,4.177,0,0,7.161,78.98,86.310794756696,32.8084,6,P-GPS,
15800,2023-06-12 17:56:16,52.2063815391005,0.0867219260365065,33.136484,33.136484,53.502394756696,86.638878756696,34.44882,0,12.6732615604,12.9369098628,25,5,16.941,86.638878756696,33.136484,0.223694,12.6732615604,0,0,0,305.9, 1.7, 1.7,0,0,1024,1024,1024,1024,0,0,0,0,308.9,0,0,99,4.211,4.203,4.182,4.177,0,0,7.161,78.98,86.638878756696,33.136484,6,P-GPS,
16000,2023-06-12 17:56:16,52.2063816727057,0.0867217608259491,33.136484,33.136484,53.502394756696,86.638878756696,32.152232,0,12.7238193048,12.9980647204,25,5,17.013,86.638878756696,33.136484,0.223694,12.7238193048,0,0,0,306.1, 2.2, 2,0,0,1024,1024,1024,1024,0,0,0,0,308.9,0,0,99,4.251,4.252,4.25,4.243,0,0,9.094,78.98,86.638878756696,33.136484,6,P-GPS,
16200,2023-06-12 17:56:17,52.2063817957137,0.0867216106450973,33.136484,33.136484,53.502394756696,86.638878756696,32.152232,0,12.7704072328,13.054134276,25,5,17.013,86.638878756696,33.136484,0.223694,12.7704072328,0,0,0,306, 2.8, 2.2,0,0,1024,1024,1024,1024,0,0,0,0,308.9,-0.4,0,99,4.251,4.252,4.25,4.243,0,0,9.094,78.98,86.638878756696,33.136484,6,P-GPS,
16400,2023-06-12 17:56:17,52.2063818939012,0.08672153531702,33.136484,33.136484,53.502394756696,86.638878756696,32.152232,0,12.807087024,13.0937012064,25,5,17.013,86.638878756696,33.136484,0.223694,12.807087024,0,0,0,306, 2.8, 2.3,0,0,1024,1024,1024,1024,0,0,0,0,308.9,-2.6,0,99,4.251,4.252,4.25,4.243,0,0,9.094,78.98,86.638878756696,33.136484,6,P-GPS,
16600,2023-06-12 17:56:17,52.2063819782552,0.0867215371343545,33.136484,33.136484,53.502394756696,86.638878756696,32.152232,0,12.8377956864,13.124508294,25,5,17.013,86.638878756696,33.136484,0.223694,12.8377956864,0,0,0,306, 2.8, 2.4,0,0,1024,1024,1024,1024,0,0,0,0,308.9,-5.3,0,99,4.251,4.252,4.25,4.243,0,0,9.094,78.98,86.638878756696,33.136484,6,P-GPS,
16800,2023-06-12 17:56:17,52.2063820531964,0.0867216016152166,33.136484,33.136484,53.502394756696,86.638878756696,32.152232,0,12.8643048736,13.1554138068,25,5,17.013,86.638878756696,33.136484,0.223694,12.8643048736,0,0,0,306, 2.5, 2.4,0,0,1024,1024,1024,1024,0,0,0,0,308.9,-8.2,0,99,4.251,4.252,4.25,4.243,0,0,9.094,78.98,86.638878756696,33.136484,6,P-GPS,
17000,2023-06-12 17:56:17,52.2063821144883,0.0867217060027344,33.136484,33.136484,53.502394756696,86.638878756696,32.152232,0,12.8854006748,13.1877300808,25,5,16.932,86.638878756696,33.136484,0.223694,12.8854006748,0,0,0,305.9, 2.3, 2.4,0,0,1024,1024,1024,1024,0,0,0,0,308.9,-11.2,0,99,4.231,4.235,4.234,4.229,0,0,6.422,78.98,86.638878756696,33.136484,6,P-GPS,
17200,2023-06-12 17:56:18,52.2063821930341,0.0867218488810469,33.136484,33.136484,53.502394756696,86.638878756696,32.152232,0,12.9124347964,13.230643468,25,5,16.932,86.638878756696,33.136484,0.223694,12.9124347964,0,0,0,305.9, 2, 2.3,0,0,1024,1024,1024,1024,0,0,0,0,308.9,-14.1,0,99,4.231,4.235,4.234,4.229,0,0,6.422,78.98,86.638878756696,33.136484,6,P-GPS,
17400,2023-06-12 17:56:18,52.2063822713484,0.0867220080072471,33.136484,33.136484,53.502394756696,86.638878756696,32.152232,0,12.9392720676,13.2762799524,25,5,16.932,86.638878756696,33.136484,0.223694,12.9392720676,0,0,0,305.9, 1.9, 2.2,0,0,1024,1024,1024,1024,0,0,0,0,308.9,-17,0,99,4.231,4.235,4.234,4.229,0,0,6.422,78.98,86.638878756696,33.136484,6,P-GPS,
17600,2023-06-12 17:56:18,52.2063823355788,0.0867221656535866,33.136484,33.136484,53.502394756696,86.638878756696,32.152232,0,12.9610896536,13.3186027884,25,5,16.932,86.638878756696,33.136484,0.223694,12.9610896536,0,0,0,306, 1.8, 2.2,0,0,1024,1024,1024,1024,0,0,0,0,308.9,-19.9,0,99,4.231,4.235,4.234,4.229,0,0,6.422,78.98,86.638878756696,33.136484,6,P-GPS,
17800,2023-06-12 17:56:18,52.2063824005353,0.0867223007759,33.136484,33.136484,53.502394756696,86.638878756696,32.152232,0,12.9834649824,13.3569886164,25,5,16.932,86.638878756696,33.136484,0.223694,12.9834649824,0,0,0,306.1, 1.8, 2.2,0,0,1024,1024,1024,1024,0,0,0,0,308.9,-22.8,0,99,4.231,4.235,4.234,4.229,0,0,6.422,78.98,86.638878756696,33.136484,6,P-GPS,
18000,2023-06-12 17:56:18,52.2063824633371,0.0867224142682198,33.136484,33.136484,53.502394756696,86.638878756696,32.152232,0,13.0053481852,13.3911749692,25,5,16.923,86.638878756696,33.136484,0.223694,13.0053481852,0,0,0,306, 1.5, 2.7,0,0,1024,1024,1024,1024,0,0,0,0,308.9,-25.7,0,99,4.231,4.234,4.233,4.228,0,0,7.249,78.98,86.638878756696,33.136484,6,P-GPS,
18200,2023-06-12 17:56:19,52.2063825494945,0.0867225423317615,33.136484,33.136484,53.502394756696,86.638878756696,32.152232,0,13.0356631468,13.4336946556,25,5,16.923,86.638878756696,33.136484,0.223694,13.0356631468,0,0,0,306, 1.5, 3,0,0,1024,1024,1024,1024,0,0,0,0,308.9,-28.2,0,99,4.231,4.234,4.233,4.228,0,0,7.249,78.98,86.638878756696,33.136484,6,P-GPS,
18400,2023-06-12 17:56:19,52.2063826628133,0.0867226900541878,33.136484,33.136484,53.502394756696,86.638878756696,32.152232,0,13.0758206284,13.4866146048,25,5,16.923,86.638878756696,33.136484,0.223694,13.0758206284,0,0,0,306, 1.5, 3.3,0,0,1024,1024,1024,1024,0,0,0,0,308.9,-31,0,99,4.231,4.234,4.233,4.228,0,0,7.249,78.98,86.638878756696,33.136484,6,P-GPS,
18600,2023-06-12 17:56:19,52.2063828232158,0.0867228498151445,33.136484,33.136484,53.502394756696,86.638878756696,32.152232,0,13.1331369032,13.5551841608,25,5,16.923,86.638878756696,33.136484,0.223694,13.1331369032,0,0,0,306, 1.7, 2.8,0,0,1024,1024,1024,1024,0,0,0,0,308.9,-33.9,0,99,4.231,4.234,4.233,4.228,0,0,7.249,78.98,86.638878756696,33.136484,6,P-GPS,
18800,2023-06-12 17:56:19,52.2063829852332,0.0867230238133442,33.136484,33.136484,53.502394756696,86.638878756696,32.152232,0,13.1910765376,13.6259518796,25,5,16.923,86.638878756696,33.136484,0.223694,13.1910765376,0,0,0,306, 1.8, 2.6,0,0,1024,1024,1024,1024,0,0,0,0,308.9,-36.9,0,99,4.231,4.234,4.233,4.228,0,0,7.249,78.98,86.638878756696,33.136484,6,P-GPS,
19000,2023-06-12 17:56:19,52.2063831400715,0.086723201790021,33.136484,33.136484,53.502394756696,86.638878756696,32.152232,0,13.2464899252,13.69504637,25,5,16.915,86.638878756696,33.136484,0.223694,13.2464899252,0,0,0,306, 1.7, 2.3,0,0,1024,1024,1024,1024,0,0,0,0,308.9,-39.8,0,99,4.229,4.233,4.23,4.228,0,0,7.251,78.98,86.638878756696,33.136484,6,P-GPS,
19200,2023-06-12 17:56:20,52.2063833008209,0.0867233558473433,33.136484,33.136484,53.502394756696,86.638878756696,32.152232,0,13.304298326,13.7630581832,25,5,16.915,86.638878756696,33.136484,0.223694,13.304298326,0,0,0,305.9, 1.6, 2.3,0,0,1024,1024,1024,1024,0,0,0,0,308.9,-42.7,0,99,4.229,4.233,4.23,4.228,0,0,7.251,78.98,86.638878756696,33.136484,6,P-GPS,
19400,2023-06-12 17:56:20,52.2063834485573,0.0867234821239122,33.136484,33.136484,53.502394756696,86.638878756696,32.152232,0,13.3575791676,13.8239177652,25,5,16.915,86.638878756696,33.136484,0.223694,13.3575791676,0,0,0,306, 1.9, 2.2,0,0,1024,1024,1024,1024,0,0,0,0,308.9,-45.6,0,99,4.229,4.233,4.23,4.228,0,0,7.251,78.98,86.638878756696,33.136484,6,P-GPS,
19600,2023-06-12 17:56:20,52.206383585328,0.0867235612065763,33.136484,33.136484,53.502394756696,86.638878756696,32.152232,0,13.4071198516,13.8768705228,25,5,16.915,86.638878756696,33.136484,0.223694,13.4071198516,0,0,0,306, 2.1, 2.4,0,0,1024,1024,1024,1024,0,0,0,0,308.9,-48.5,0,99,4.229,4.233,4.23,4.228,0,0,7.251,78.98,86.638878756696,33.136484,6,P-GPS,
19800,2023-06-12 17:56:20,52.2063836959482,0.0867236295158545,33.136484,33.136484,53.502394756696,86.638878756696,32.152232,0,13.447178908,13.9200135688,25,5,16.915,86.638878756696,33.136484,0.223694,13.447178908,0,0,0,306, 2, 2.8,0,0,1024,1024,1024,1024,0,0,0,0,308.9,-51.4,0,99,4.229,4.233,4.23,4.228,0,0,7.251,78.98,86.638878756696,33.136484,6,P-GPS,
20000,2023-06-12 17:56:20,52.2063838146341,0.0867237011550923,33.136484,33.136484,53.502394756696,86.638878756696,32.152232,0,13.4902235288,13.9661749876,25,5,16.912,86.638878756696,33.136484,0.223694,13.4902235288,0,0,0,306, 2.2, 3,0,0,1024,1024,1024,1024,0,0,0,0,308.9,-54.3,0,99,4.228,4.231,4.229,4.228,0,0,7.266,79.16,86.638878756696,33.136484,6,P-GPS,
20200,2023-06-12 17:56:21,52.2063839093927,0.0867238011803521,33.136484,33.136484,53.502394756696,86.638878756696,32.152232,0,13.52444269,14.0073495296,25,5,16.912,86.638878756696,33.136484,0.223694,13.52444269,0,0,0,306.1, 2, 2.9,0,0,1024,1024,1024,1024,0,0,0,0,308.9,-57.2,0,99,4.228,4.231,4.229,4.228,0,0,7.266,79.16,86.638878756696,33.136484,6,P-GPS,
20400,2023-06-12 17:56:21,52.2063839876728,0.0867239278458349,32.8084,32.8084,53.502394756696,86.310794756696,32.152232,0,13.5525922972,14.047572628,25,5,16.912,86.638878756696,33.136484,0.223694,13.5525922972,0,0,0,306, 1.5, 2.7,0,0,1024,1024,1024,1024,0,0,0,0,308.9,-60.2,0,99,4.228,4.231,4.229,4.228,0,0,7.266,79.16,86.310794756696,32.8084,6,P-GPS,
20600,2023-06-12 17:56:21,52.2063840765159,0.0867240550091189,32.8084,32.8084,53.502394756696,86.310794756696,32.152232,0,13.5846789124,14.090715674,25,5,16.912,86.638878756696,33.136484,0.223694,13.5846789124,0,0,0,306, 1.6, 2.7,0,0,1024,1024,1024,1024,0,0,0,0,308.9,-63.1,0,99,4.228,4.231,4.229,4.228,0,0,7.266,79.16,86.310794756696,32.8084,6,P-GPS,
20800,2023-06-12 17:56:21,52.2063841639755,0.0867241554266782,32.8084,32.8084,53.502394756696,86.310794756696,32.152232,0,13.6163718268,14.1297248616,25,5,16.912,86.638878756696,33.136484,0.223694,13.6163718268,0,0,0,305.9, 1.7, 3,0,0,1024,1024,1024,1024,0,0,0,0,308.9,-66,0,99,4.228,4.231,4.229,4.228,0,0,7.266,79.16,86.310794756696,32.8084,6,P-GPS,
21000,2023-06-12 17:56:21,52.2063842574833,0.0867242348919218,32.8084,32.8084,53.502394756696,86.310794756696,32.152232,0,13.6503613292,14.1681763064,25,5,16.908,86.638878756696,33.136484,0.223694,13.6503613292,0,0,0,306, 1.7, 3.1,0,0,1024,1024,1024,1024,0,0,0,0,308.9,-68.9,0,99,4.228,4.23,4.23,4.228,0,0,7.251,79.34,86.310794756696,32.8084,6,P-GPS,
21200,2023-06-12 17:56:22,52.2063843566881,0.0867243251390702,32.8084,32.8084,53.502394756696,86.310794756696,32.152232,0,13.6864177608,14.2096133156,25,5,16.908,86.638878756696,33.136484,0.223694,13.6864177608,0,0,0,306, 1.4, 3.3,0,0,1024,1024,1024,1024,0,0,0,0,308.9,-71.8,0,99,4.228,4.23,4.23,4.228,0,0,7.251,79.34,86.310794756696,32.8084,6,P-GPS,
21400,2023-06-12 17:56:22,52.2063844724184,0.0867244270148657,32.8084,32.8084,53.502394756696,86.310794756696,32.152232,0,13.728510938,14.2576120048,25,5,16.908,86.638878756696,33.136484,0.223694,13.728510938,0,0,0,306, 1.5, 3.1,0,0,1024,1024,1024,1024,0,0,0,0,308.9,-74.7,0,99,4.228,4.23,4.23,4.228,0,0,7.251,79.34,86.310794756696,32.8084,6,P-GPS,
21600,2023-06-12 17:56:22,52.2063845936359,0.0867245118476897,32.8084,32.8084,53.502394756696,86.310794756696,32.152232,0,13.7726710444,14.3057091192,25,5,16.908,86.638878756696,33.136484,0.223694,13.7726710444,0,0,0,306, 1.4, 3,0,0,1024,1024,1024,1024,0,0,0,0,308.9,-77.6,0,99,4.228,4.23,4.23,4.228,0,0,7.251,79.34,86.310794756696,32.8084,6,P-GPS,
21800,2023-06-12 17:56:22,52.2063847181259,0.0867245630278259,32.8084,32.8084,53.502394756696,86.310794756696,32.152232,0,13.8180450616,14.3525595144,24,5,16.908,86.638878756696,33.136484,0.223694,13.8180450616,0,0,0,306, 1.5, 3.1,0,0,1024,1024,1024,1024,0,0,0,0,308.9,-80.5,0,99,4.228,4.23,4.23,4.228,0,0,7.251,79.34,86.310794756696,32.8084,6,P-GPS,
22000,2023-06-12 17:56:22,52.2063848516326,0.0867246147113332,32.8084,32.8084,53.502394756696,86.310794756696,32.152232,0,13.8667655356,14.4026251328,24,5,16.905,86.638878756696,33.136484,0.223694,13.8667655356,0,0,0,306, 1.7, 3,0,0,1024,1024,1024,1024,0,0,0,0,308.9,-83.4,0,99,4.226,4.229,4.228,4.227,0,0,7.265,79.34,86.310794756696,32.8084,6,P-GPS,
22200,2023-06-12 17:56:22,52.2063850052159,0.0867246660225271,32.8084,32.8084,53.502394756696,86.310794756696,32.152232,0,13.9227694744,14.459810174,24,5,16.905,86.638878756696,33.136484,0.223694,13.9227694744,0,0,0,306, 1.8, 2.7,0,0,1024,1024,1024,1024,0,0,0,0,308.9,-86.3,0,99,4.226,4.229,4.228,4.227,0,0,7.265,79.34,86.310794756696,32.8084,6,P-GPS,
22400,2023-06-12 17:56:23,52.2063851630312,0.0867247314195377,32.8084,32.8084,53.502394756696,86.310794756696,32.152232,0,13.9803482164,14.5192261864,24,5,16.905,86.638878756696,33.136484,0.223694,13.9803482164,0,0,0,306, 1.7, 2.6,0,0,1024,1024,1024,1024,0,0,0,0,308.9,-89.2,0,99,4.226,4.229,4.228,4.227,0,0,7.265,79.34,86.310794756696,32.8084,6,P-GPS,
22600,2023-06-12 17:56:23,52.2063853255069,0.0867247862011416,32.8084,32.8084,53.502394756696,86.310794756696,32.152232,0,14.0396329952,14.5797576844,24,5,16.905,86.638878756696,33.136484,0.223694,14.0396329952,0,0,0,306, 1.6, 2.4,0,0,1024,1024,1024,1024,0,0,0,0,308.9,-89.9,0,99,4.226,4.229,4.228,4.227,0,0,7.265,79.34,86.310794756696,32.8084,6,P-GPS,
22800,2023-06-12 17:56:23,52.2063854908525,0.086724853136279,32.8084,32.8084,53.502394756696,86.310794756696,32.152232,0,14.1000004512,14.641896794,24,5,16.905,86.638878756696,33.136484,0.223694,14.1000004512,0,0,0,306, 1.7, 2.1,0,0,1024,1024,1024,1024,0,0,0,0,308.9,-90,0,99,4.226,4.229,4.228,4.227,0,0,7.265,79.34,86.310794756696,32.8084,6,P-GPS,
23000,2023-06-12 17:56:23,52.2063856165804,0.0867249114076238,32.8084,32.8084,53.502394756696,86.310794756696,32.152232,0,14.1458994028,14.6896002076,24,5,16.9,86.638878756696,33.136484,0.223694,14.1458994028,0,0,0,306, 1.7, 2.1,0,0,1024,1024,1024,1024,0,0,0,0,308.9,-89.9,0,99,4.225,4.229,4.227,4.224,0,0,7.258,79.34,86.310794756696,32.8084,6,P-GPS,
23200,2023-06-12 17:56:23,52.2063857237696,0.0867249378727209,32.8084,32.8084,53.502394756696,86.310794756696,32.152232,0,14.185039824,14.7291343296,24,5,16.9,86.638878756696,33.136484,0.223694,14.185039824,0,0,0,306, 1.6, 2.4,0,0,1024,1024,1684,1024,0,0,100,0,308.9,-89.9,0,99,4.225,4.229,4.227,4.224,0,0,7.258,79.34,86.310794756696,32.8084,6,P-GPS,
23400,2023-06-12 17:56:24,52.2063858178428,0.0867249574907047,32.8084,32.8084,53.502394756696,86.310794756696,32.152232,0,14.2193902188,14.7637471916,24,5,16.9,86.638878756696,33.136484,0.223694,14.2193902188,0,0,-0.671082,306.1, 1.3, 2,0,0,1024,1024,1684,1024,0,0,100,0,308.9,-89.9,0,99,4.225,4.229,4.227,4.224,0,0,7.258,79.34,86.310794756696,32.8084,6,P-GPS,
23600,2023-06-12 17:56:24,52.2063859268952,0.0867249503179126,33.464568,33.464568,53.502394756696,86.966962756696,32.8084,0,14.2591539996,14.8035765892,24,5,16.9,86.966962756696,33.464568,0.223694,14.2591539996,0,0,-2.908022,306.2, 1.7, 2,0,0,1024,1024,1679,1024,0,0,99,0,308.9,-89.9,0,99,4.225,4.229,4.227,4.224,0,0,7.258,79.34,86.966962756696,33.464568,6,P-GPS,
23800,2023-06-12 17:56:24,52.2063860373612,0.086724967649102,34.776904,34.776904,53.502394756696,88.279298756696,34.120736,0,14.2994755232,14.8440621548,24,5,16.9,88.279298756696,34.776904,0.223694,14.2994755232,0,0,-5.368656,306.2, 2.3, 2.5,0,0,1024,1024,1647,1024,0,0,94,0,308.9,-90,0,99,4.225,4.229,4.227,4.224,0,0,7.258,79.34,88.279298756696,34.776904,6,P-GPS,
24000,2023-06-12 17:56:24,52.2063861370715,0.0867251249956468,37.401576,37.401576,53.502394756696,90.903970756696,36.08924,0,14.3360568892,14.8946527076,24,5,16.877,90.903970756696,37.401576,0.223694,14.3360568892,0,0,-7.82929,306.1, 1.7, 2.3,0,0,1024,1024,1613,1024,0,0,89,0,308.9,-90,0,99,4.15,4.151,4.148,4.142,0,0,8.116,79.52,90.903970756696,37.401576,6,P-GPS,
24200,2023-06-12 17:56:25,52.2063862554533,0.0867253390738806,41.0105,41.0105,53.502394756696,94.512894756696,38.713912,0,14.3796592528,14.959154022,25,5,16.877,94.512894756696,41.0105,0.223694,14.3796592528,0,0,-9.842536,306.2, 1.4, 1.9,0,0,1024,1024,1581,1024,0,0,84,0,308.9,-89.9,0,99,4.15,4.151,4.148,4.142,0,0,8.116,79.52,94.512894756696,41.0105,6,P-GPS,
24400,2023-06-12 17:56:25,52.2063863630323,0.0867254963879955,43.963256,43.963256,53.502394756696,97.465650756696,41.666668,0,14.4192918,15.0118443124,25,5,16.877,97.465650756696,43.963256,0.223694,14.4192918,0,0,-10.289924,306, 1.3, 2.2,0,0,1024,1024,1560,1024,0,0,81,0,308.9,-89.9,0,99,4.15,4.151,4.148,4.142,0,0,8.116,79.52,97.465650756696,43.963256,6,P-GPS,
24600,2023-06-12 17:56:25,52.2063864579879,0.0867255455904494,46.587928,46.587928,53.502394756696,100.0903227567,44.619424,0,14.454068704,15.0481960196,25,5,16.877,100.0903227567,46.587928,0.223694,14.454068704,0,0,-9.395148,306, 0.9, 1.8,0,0,1024,1024,1540,1024,0,0,78,0,308.9,-90,0,99,4.15,4.151,4.148,4.142,0,0,8.116,79.52,100.0903227567,46.587928,6,P-GPS,
24800,2023-06-12 17:56:25,52.2063865702529,0.0867254739548703,49.2126,49.2126,53.502394756696,102.7149947567,47.244096,0,14.4948167368,15.0921592756,25,5,16.877,102.7149947567,49.2126,0.223694,14.4948167368,0,0,-8.724066,306, 1.7, 1.6,0,0,1024,1024,1505,1024,0,0,73,0,308.9,-90,0,99,4.15,4.151,4.148,4.142,0,0,8.116,79.52,102.7149947567,49.2126,6,P-GPS,
25000,2023-06-12 17:56:25,52.2063867145925,0.0867252975633236,51.181104,51.181104,53.502394756696,104.6834987567,49.2126,0,14.547080518,15.157972926,25,5,16.686,104.6834987567,51.181104,0.223694,14.547080518,0,0,-8.052984,306.1, 2.8, 1.5,0,0,1024,1024,1474,1024,0,0,68,0,308.9,-90,0,99,4.199,4.206,4.214,4.209,0,0,12.998,79.52,104.6834987567,51.181104,6,P-GPS,
25200,2023-06-12 17:56:26,52.2063868412585,0.086725081997939,53.149608,53.149608,53.502394756696,106.6520027567,51.509188,0,14.5929138528,15.22473802,25,5,16.686,106.6520027567,53.149608,0.223694,14.5929138528,0,0,-6.934514,306.1, 3.9, 1.8,0,0,1024,1024,1494,1024,0,0,71,0,308.9,-89.9,0,99,4.199,4.206,4.214,4.209,0,0,12.998,79.52,106.6520027567,53.149608,6,P-GPS,
25400,2023-06-12 17:56:26,52.2063869175382,0.0867249101085136,55.118112,55.118112,53.502394756696,108.6205067567,53.149608,0,14.620571334,15.2721789664,25,5,16.686,108.6205067567,55.118112,0.223694,14.620571334,0,0,-6.263432,306.1, 4, 1.6,0,0,1024,1024,1493,1024,0,0,71,0,308.9,-89.9,0,99,4.199,4.206,4.214,4.209,0,0,12.998,79.52,108.6205067567,55.118112,6,P-GPS,
25600,2023-06-12 17:56:26,52.2063869349805,0.0867248308429146,56.758532,56.758532,53.502394756696,110.2609267567,54.790028,0,14.6268705468,15.291010988,25,5,16.686,110.2609267567,56.758532,0.223694,14.6268705468,0,0,-6.487126,306, 4, 1.7,0,0,1024,1024,1498,1024,0,0,72,0,308.9,-90,0,99,4.199,4.206,4.214,4.209,0,0,12.998,79.52,110.2609267567,56.758532,6,P-GPS,
25800,2023-06-12 17:56:26,52.2063868671048,0.086724860440511,58.727036,58.727036,53.502394756696,112.2294307567,56.758532,0,14.6021330132,15.3166671568,25,5,16.686,112.2294307567,58.727036,0.223694,14.6268705468,0,0,-6.487126,306.1, 3.2, 2.2,0,0,1024,1024,1518,1024,0,0,75,0,308.9,-89.9,0,99,4.199,4.206,4.214,4.209,0,0,12.998,79.52,112.2294307567,58.727036,6,P-GPS,
26000,2023-06-12 17:56:26,52.2063867603612,0.0867249666100323,60.367456,60.367456,53.502394756696,113.8698507567,58.727036,0,14.5632550592,15.3622708328,25,5,16.869,113.8698507567,60.367456,0.223694,14.6268705468,0,0,-6.934514,306.1, 2.5, 2.3,0,0,1024,1024,1512,1024,0,0,74,0,308.9,-89.9,0,99,4.196,4.197,4.2,4.196,0,0,7.645,79.52,113.8698507567,60.367456,6,P-GPS,
26200,2023-06-12 17:56:27,52.206386678303,0.0867251259045871,62.664044,62.664044,53.502394756696,116.1664387567,60.69554,0,14.5335306488,15.408793144,25,5,16.869,116.1664387567,62.664044,0.223694,14.6268705468,0,0,-7.158208,306, 2.3, 1.7,0,0,1024,1024,1517,1024,0,0,75,0,308.9,-90,0,99,4.196,4.197,4.2,4.196,0,0,7.645,79.52,116.1664387567,62.664044,6,P-GPS,
26400,2023-06-12 17:56:27,52.2063865829876,0.0867252889884318,64.632548,64.632548,53.502394756696,118.1349427567,62.992128,0,14.4990490204,15.4591868464,25,5,16.869,118.1349427567,64.632548,0.223694,14.6268705468,0,0,-7.158208,306, 1.8, 1.4,0,0,1024,1024,1528,1024,0,0,76,0,308.9,-89.9,0,99,4.196,4.197,4.2,4.196,0,0,7.645,79.52,118.1349427567,64.632548,6,P-GPS,
26600,2023-06-12 17:56:27,52.2063865213316,0.0867254790989698,66.601052,66.601052,53.502394756696,120.1034467567,65.288716,0,14.4770017756,15.5072839608,25,5,16.869,120.1034467567,66.601052,0.223694,14.6268705468,0,0,-7.381902,306, 0.9, 0.5,0,0,1024,1024,1535,1024,0,0,77,0,308.9,-90,0,99,4.196,4.197,4.2,4.196,0,0,7.645,79.52,120.1034467567,66.601052,6,P-GPS,
26800,2023-06-12 17:56:27,52.2063865042021,0.0867255696378002,68.569556,68.569556,53.502394756696,122.0719507567,67.913388,0,14.4709978384,15.5284453788,25,5,16.869,122.0719507567,68.569556,0.223694,14.6268705468,0,0,-7.605596,306, 1.8, 0.7,0,0,1024,1024,1534,1024,0,0,77,0,308.9,-90,0,99,4.196,4.197,4.2,4.196,0,0,7.645,79.52,122.0719507567,68.569556,6,P-GPS,
27000,2023-06-12 17:56:27,52.2063864699044,0.0867255543835319,70.866144,70.866144,53.502394756696,124.3685387567,70.209976,0,14.4584322212,15.5414375052,25,5,16.79,124.3685387567,70.866144,0.223694,14.6268705468,0,0,-7.82929,306, 2, 1.8,0,0,1024,1024,1483,1024,0,0,70,0,308.9,-90,0,99,4.181,4.184,4.187,4.19,0,0,9.346,79.7,124.3685387567,70.866144,6,P-GPS,
27200,2023-06-12 17:56:27,52.2063864263074,0.0867255202387631,73.162732,73.162732,53.502394756696,126.6651267567,72.17848,0,14.4424545304,15.559055616,25,5,16.79,126.6651267567,73.162732,0.223694,14.6268705468,0,0,-7.605596,306, 2.3, 2.7,0,0,1024,1024,1490,1024,0,0,71,0,308.9,-90,0,99,4.181,4.184,4.187,4.19,0,0,9.346,79.7,126.6651267567,73.162732,6,P-GPS,
27400,2023-06-12 17:56:28,52.2063864099189,0.0867255223141926,74.803152,74.803152,53.502394756696,128.3055467567,74.146984,0,14.4364834016,15.5650595532,25,5,16.79,128.3055467567,74.803152,0.223694,14.6268705468,0,0,-6.487126,306, 1.6, 3.2,0,0,1024,1024,1493,1024,0,0,71,0,308.9,-89.9,0,99,4.181,4.184,4.187,4.19,0,0,9.346,79.7,128.3055467567,74.803152,6,P-GPS,
27600,2023-06-12 17:56:28,52.2063864662678,0.0867255481403012,76.771656,76.771656,53.502394756696,130.2740507567,75.787404,0,14.4570870768,15.5864178216,25,5,16.79,130.2740507567,76.771656,0.223694,14.6268705468,0,0,-6.487126,306, 1.6, 2.3,0,0,1024,1024,1216,1024,0,0,29,0,308.9,-90,0,99,4.181,4.184,4.187,4.19,0,0,9.346,79.7,130.2740507567,76.771656,6,P-GPS,
27800,2023-06-12 17:56:28,52.206386569332,0.0867255494596401,78.412076,78.412076,53.502394756696,131.9144707567,77.427824,0,14.4947183116,15.624016248,25,5,16.79,131.9144707567,78.412076,0.223694,14.6268705468,0,0,-6.263432,305.9, 2.3, 2.6,0,0,1024,1024,1024,1024,0,0,0,0,308.9,-90,0,99,4.181,4.184,4.187,4.19,0,0,9.346,79.7,131.9144707567,78.412076,6,P-GPS,
28000,2023-06-12 17:56:28,52.2063866842485,0.086725505334122,79.724412,79.724412,53.502394756696,133.2268067567,78.74016,0,14.5365162132,15.6670936772,25,5,16.898,133.2268067567,79.724412,0.223694,14.6268705468,0,0,-4.250186,306, 3.3, 2.1,0,0,1024,1024,1024,1024,0,0,0,0,308.9,-89.9,0,99,4.206,4.226,4.251,4.249,0,0,8.782,79.7,133.2268067567,79.724412,6,P-GPS,
28200,2023-06-12 17:56:29,52.2063867584722,0.0867253762374287,80.708664,80.708664,53.502394756696,134.2110587567,79.396328,0,14.5632550592,15.706693416,25,5,16.898,134.2110587567,80.708664,0.223694,14.6268705468,0,0,-1.789552,306.1, 3.6, 2,0,0,1024,1024,1684,1024,0,0,100,0,308.9,-89.9,0,99,4.206,4.226,4.251,4.249,0,0,8.782,79.7,134.2110587567,80.708664,6,P-GPS,
28400,2023-06-12 17:56:29,52.2063867895101,0.086725212260712,81.036748,81.036748,53.502394756696,134.5391427567,79.396328,0,14.5742458732,15.7450464356,25,5,16.898,134.5391427567,81.036748,0.223694,14.6268705468,0,0,-1.11847,306.1, 2.7, 1.2,0,0,1024,1024,1684,1024,0,0,100,0,308.9,-89.9,0,99,4.206,4.226,4.251,4.249,0,0,8.782,79.7,134.5391427567,81.036748,6,P-GPS,
28600,2023-06-12 17:56:29,52.2063867431974,0.0867250011034557,81.692916,81.692916,53.502394756696,135.1953107567,80.052496,0,14.5570542716,15.7952104792,25,5,16.898,135.1953107567,81.692916,0.223694,14.6268705468,0,0,-3.131716,306, 2.7, 1,0,0,1024,1024,1684,1024,0,0,100,0,308.9,-90,0,99,4.206,4.226,4.251,4.249,0,0,8.782,79.7,135.1953107567,81.692916,6,P-GPS,
28800,2023-06-12 17:56:29,52.2063865975856,0.0867247496884455,83.005252,83.005252,53.502394756696,136.5076467567,81.364832,0,14.5037406216,15.872539878,25,5,16.898,136.5076467567,83.005252,0.223694,14.6268705468,0,0,-5.368656,306.1, 3.2, 0.8,0,0,1024,1024,1684,1024,0,0,100,0,308.9,-89.9,0,99,4.206,4.226,4.251,4.249,0,0,8.782,79.7,136.5076467567,83.005252,6,P-GPS,
29000,2023-06-12 17:56:29,52.2063863252993,0.0867244931248852,85.30184,85.30184,53.502394756696,138.8042347567,83.333336,0,14.4044624032,15.9872708528,25,5,16.908,138.8042347567,85.30184,0.223694,14.6268705468,0,0,-7.605596,306.3, 2.5, 0.9,0,0,1024,1024,1684,1024,0,0,100,0,308.9,-89.9,0,99,4.14,4.137,4.137,4.128,0,0,6.889,79.7,138.8042347567,85.30184,6,P-GPS,
29200,2023-06-12 17:56:30,52.2063859746086,0.0867242316069587,88.58268,88.58268,53.502394756696,142.0850747567,83.66142,0,14.2768377272,16.1279204636,25,5,16.908,142.0850747567,88.58268,0.223694,14.6268705468,0,0,-10.06623,306.8, 2.1, 2.8,0,0,1024,1024,1673,1024,0,0,98,0,308.9,-89.9,0,99,4.14,4.137,4.137,4.128,0,0,6.889,79.7,142.0850747567,88.58268,6,P-GPS,
29400,2023-06-12 17:56:30,52.2063856919221,0.0867240591704217,92.519688,92.519688,53.502394756696,146.0220827567,83.66142,0,14.1740162016,16.2380582624,25,5,16.908,146.0220827567,92.519688,0.223694,14.6268705468,0,0,-12.079476,308, 1.6, 4.3,0,0,1024,1024,1669,1024,0,0,98,0,308.9,-89.9,0,99,4.14,4.137,4.137,4.128,0,0,6.889,79.7,146.0220827567,92.519688,6,P-GPS,
29600,2023-06-12 17:56:30,52.2063855892648,0.0867240610746911,96.456696,96.456696,53.502394756696,149.9590907567,83.66142,0,14.1365818172,16.2754926468,25,5,16.908,149.9590907567,96.456696,0.223694,14.6268705468,0,0,-12.974252,308.7, 1.6, 5.8,0,0,1024,1024,1670,1024,0,0,98,0,308.9,-90,0,99,4.14,4.137,4.137,4.128,0,0,6.889,79.7,149.9590907567,96.456696,6,P-GPS,
29800,2023-06-12 17:56:30,52.2063856938154,0.0867242517187572,100.393704,100.393704,53.502394756696,153.8960987567,83.66142,0,14.1743442856,16.3327104964,25,5,16.908,153.8960987567,100.393704,0.223694,14.6268705468,0,0,-12.974252,308.8, 1.5, 6.8,0,0,1024,1024,1667,1024,0,0,97,0,308.9,-90,0,99,4.14,4.137,4.137,4.128,0,0,6.889,79.7,153.8960987567,100.393704,6,P-GPS,
30000,2023-06-12 17:56:30,52.2063861109595,0.0867246750693361,104.002628,104.002628,53.502394756696,157.5050227567,83.66142,0.223694,14.3262143692,16.5119427856,25,5,16.394,157.5050227567,104.002628,0.223694,14.6268705468,0.223694,0,-12.750558,309, 2.6, 5.4,0,0,1024,1024,1668,1024,0,0,98,0,308.9,-90,0,99,4.155,4.159,4.162,4.16,0,0,15.371,79.7,157.5050227567,104.002628,6,P-GPS,
30200,2023-06-12 17:56:30,52.2063867178822,0.0867253048572348,107.611552,107.611552,53.502394756696,161.1139467567,83.66142,0.4921268,14.5482944288,16.7743443688,25,5,16.394,161.1139467567,107.611552,0.4921268,14.6268705468,0.447388,0.223694,-12.750558,309.1, 3.3, 3.3,0,0,1024,1024,1665,1024,0,0,97,0,308.9,-90,0,99,4.155,4.159,4.162,4.16,0,0,15.371,79.7,161.1139467567,107.611552,6,P-GPS,
30400,2023-06-12 17:56:31,52.2063873949335,0.0867260922891249,111.220476,111.220476,53.502394756696,164.7228707567,83.66142,0.4921268,14.7979663528,17.0776908352,25,5,16.394,164.7228707567,111.220476,0.4921268,14.7979663528,0.447388,0.223694,-12.750558,308.9, 3.5, 0.8,0,0,1024,1024,1661,1024,0,0,97,0,308.9,-90,0,99,4.155,4.159,4.162,4.16,0,0,15.371,79.7,164.7228707567,111.220476,6,P-GPS,
30600,2023-06-12 17:56:31,52.2063879942915,0.0867268720055618,114.8294,114.8294,53.502394756696,168.3317947567,83.66142,0.3131716,15.0212275148,17.3573496368,25,5,16.394,168.3317947567,114.8294,0.4921268,15.0212275148,0.223694,0.223694,-12.526864,308.7, 3, -0.4,0,0,1024,1024,1649,1024,0,0,95,0,308.9,-89.9,0,99,4.155,4.159,4.162,4.16,0,0,15.371,79.7,168.3317947567,114.8294,6,P-GPS,
30800,2023-06-12 17:56:31,52.2063884784674,0.0867274702784069,118.11024,118.11024,53.502394756696,171.6126347567,83.66142,0.223694,15.2026907752,17.5789375704,25,5,16.394,171.6126347567,118.11024,0.4921268,15.2026907752,0.223694,0,-12.30317,308.4, 3.6, -0.5,0,0,1024,1024,1651,1024,0,0,95,0,308.9,-90,0,99,4.155,4.159,4.162,4.16,0,0,15.371,79.7,171.6126347567,118.11024,6,P-GPS,
31000,2023-06-12 17:56:31,52.2063888239109,0.0867278738450502,121.39108,121.39108,53.502394756696,174.8934747567,83.66142,0,15.332513614,17.733924452,25,5,16.63,174.8934747567,121.39108,0.4921268,15.332513614,0,0,-12.079476,308.4, 4.1, -0.4,0,0,1024,1024,1648,1024,0,0,95,0,308.9,-90,0,99,4.169,4.174,4.174,4.17,0,0,11.283,80.06,174.8934747567,121.39108,6,P-GPS,
31200,2023-06-12 17:56:32,52.2063890016828,0.0867281422911275,124.67192,124.67192,53.502394756696,178.1743147567,83.66142,0,15.4001973432,17.8223102816,25,5,16.63,178.1743147567,124.67192,0.4921268,15.4001973432,0,0,-12.079476,308.3, 3.7, 0,0,0,1024,1024,1649,1024,0,0,95,0,308.9,-90,0,99,4.169,4.174,4.174,4.17,0,0,11.283,80.06,178.1743147567,124.67192,6,P-GPS,
31400,2023-06-12 17:56:32,52.2063890506427,0.0867283385274289,127.95276,127.95276,53.502394756696,181.4551547567,83.66142,0,15.4203088924,17.8696856112,25,5,16.63,181.4551547567,127.95276,0.4921268,15.4203088924,0,0,-11.855782,308.3, 2.9, 0,0,0,1024,1024,1647,1024,0,0,94,0,308.9,-89.9,0,99,4.169,4.174,4.174,4.17,0,0,11.283,80.06,181.4551547567,127.95276,6,P-GPS,
31600,2023-06-12 17:56:32,52.2063890126741,0.0867284256347605,131.2336,131.2336,53.502394756696,184.7359947567,83.66142,0,15.4075136164,17.8935701264,25,5,16.63,184.7359947567,131.2336,0.4921268,15.4203088924,0,0,-11.855782,308.3, 2.3, 0.3,0,0,1024,1024,1644,1024,0,0,94,0,308.9,-89.9,0,99,4.169,4.174,4.174,4.17,0,0,11.283,80.06,184.7359947567,131.2336,6,P-GPS,
31800,2023-06-12 17:56:32,52.2063889089203,0.0867283785199273,134.51444,134.51444,53.502394756696,188.0168347567,83.66142,0,15.3691277884,17.9328745896,25,5,16.63,188.0168347567,134.51444,0.4921268,15.4203088924,0,0,-11.855782,308.3, 1.9, 0.9,0,0,1024,1024,1640,1024,0,0,93,0,308.9,-90,0,99,4.169,4.174,4.174,4.17,0,0,11.283,80.06,188.0168347567,134.51444,6,P-GPS,
32000,2023-06-12 17:56:32,52.2063887970365,0.0867282303647919,137.79528,137.79528,53.502394756696,191.2976747567,83.66142,0,15.3266409104,17.9854336464,25,5,16.658,191.2976747567,137.79528,0.4921268,15.4203088924,0,0,-11.632088,308.3, 2.1, 1.2,0,0,1024,1024,1641,1024,0,0,93,0,308.9,-90,0,98,4.163,4.169,4.171,4.17,0,0,10.671,80.06,191.2976747567,137.79528,6,P-GPS,
32200,2023-06-12 17:56:33,52.2063887379548,0.0867280479417616,141.07612,141.07612,53.502394756696,194.5785147567,83.66142,0,15.3030516708,18.0315622568,25,5,16.658,194.5785147567,141.07612,0.4921268,15.4203088924,0,0,-11.632088,308.4, 2.2, 0,0,0,1024,1024,1642,1024,0,0,94,0,308.9,-89.9,0,98,4.163,4.169,4.171,4.17,0,0,10.671,80.06,194.5785147567,141.07612,6,P-GPS,
32400,2023-06-12 17:56:33,52.2063886485334,0.086727758792706,144.35696,144.35696,53.502394756696,197.8593547567,83.66142,0,15.2674217484,18.104003204,25,5,16.658,197.8593547567,144.35696,0.4921268,15.4203088924,0,0,-11.632088,308.4, 2.5, 1.1,0,0,1024,1024,1640,1024,0,0,93,0,308.9,-90,0,98,4.163,4.169,4.171,4.17,0,0,10.671,80.06,197.8593547567,144.35696,6,P-GPS,
32600,2023-06-12 17:56:33,52.2063885448738,0.086727442455715,147.6378,147.6378,53.502394756696,201.1401947567,83.66142,0,15.2266409072,18.1841869336,25,5,16.658,201.1401947567,147.6378,0.4921268,15.4203088924,0,0,-11.632088,308.3, 2.8, 1.6,0,0,1024,1024,1642,1024,0,0,94,0,308.9,-90,0,98,4.163,4.169,4.171,4.17,0,0,10.671,80.06,201.1401947567,147.6378,6,P-GPS,
32800,2023-06-12 17:56:33,52.2063884613336,0.0867271981498245,151.246724,151.246724,53.502394756696,204.7491187567,83.66142,0,15.194062166,18.2467525524,25,5,16.658,204.7491187567,151.246724,0.4921268,15.4203088924,0,0,-11.632088,308.4, 2.5, 1.3,0,0,1024,1024,1644,1024,0,0,94,0,308.9,-89.9,0,98,4.163,4.169,4.171,4.17,0,0,10.671,80.06,204.7491187567,151.246724,6,P-GPS,
33000,2023-06-12 17:56:33,52.2063884080132,0.0867269892690691,154.527564,154.527564,53.502394756696,208.0299587567,83.66142,0,15.1729663648,18.2973431052,25,5,16.635,208.0299587567,154.527564,0.4921268,15.4203088924,0,0,-11.632088,308.3, 2.4, 1.4,0,0,1024,1024,1637,1024,0,0,93,0,308.9,-89.9,0,98,4.158,4.163,4.162,4.159,0,0,10.939,80.24,208.0299587567,154.527564,6,P-GPS,
33200,2023-06-12 17:56:34,52.2063883371049,0.0867267789139137,157.808404,157.808404,53.502394756696,211.3107987567,83.66142,0,15.1456041592,18.3510176476,25,5,16.635,211.3107987567,157.808404,0.4921268,15.4203088924,0,0,-11.632088,308.4, 2.5, 1.7,0,0,1024,1024,1637,1024,0,0,93,0,308.9,-90,0,98,4.158,4.163,4.162,4.159,0,0,10.939,80.24,211.3107987567,157.808404,6,P-GPS,
33400,2023-06-12 17:56:34,52.2063882825422,0.0867265604926983,161.089244,161.089244,53.502394756696,214.5916387567,83.66142,0,15.1242786992,18.4037735548,25,5,16.635,214.5916387567,161.089244,0.4921268,15.4203088924,0,0,-11.632088,308.4, 2.7, 2.2,0,0,1024,1024,1637,1024,0,0,93,0,308.9,-89.9,0,98,4.158,4.163,4.162,4.159,0,0,10.939,80.24,214.5916387567,161.089244,6,P-GPS,
33600,2023-06-12 17:56:34,52.2063882591503,0.0867263837877733,164.370084,164.370084,53.502394756696,217.8724787567,83.66142,0,15.1146986464,18.4441935036,25,5,16.635,217.8724787567,164.370084,0.4921268,15.4203088924,0,0,-11.632088,308.4, 2.7, 2.1,0,0,1024,1024,1633,1024,0,0,92,0,308.9,-90,0,98,4.158,4.163,4.162,4.159,0,0,10.939,80.24,217.8724787567,164.370084,6,P-GPS,
