time(millisecond),datetime(utc),latitude,longitude,height_above_takeoff(feet),height_above_ground_at_drone_location(feet),ground_elevation_at_drone_location(feet),altitude_above_seaLevel(feet),height_sonar(feet),speed(mph),distance(feet),mileage(feet),satellites,gpslevel,voltage(v),max_altitude(feet),max_ascent(feet),max_speed(mph),max_distance(feet), xSpeed(mph), ySpeed(mph), zSpeed(mph), compass_heading(degrees), pitch(degrees), roll(degrees),isPhoto,isVideo,rc_elevator,rc_aileron,rc_throttle,rc_rudder,rc_elevator(percent),rc_aileron(percent),rc_throttle(percent),rc_rudder(percent),gimbal_heading(degrees),gimbal_pitch(degrees),gimbal_roll(degrees),battery_percent,voltageCell1,voltageCell2,voltageCell3,voltageCell4,voltageCell5,voltageCell6,current(A),battery_temperature(f),altitude(feet),ascent(feet),flycStateRaw,flycState,message
233700,2023-05-16 19:01:25,52.2087980538665,0.0699840319541305,0,0,77.679828273156,77.909487073156,0,0,0,0,23,5,0,77.909487073156,0,0,0,0,0,0,242.5, 2.2, -0.4,0,1,1024,1024,1024,1024,0,0,0,0,247.3,0,0,89,4.209,4.218,4.216,4.209,0,0,0,85.1,77.909487073156,0,41,Motors_Started,
233900,2023-05-16 19:01:25,52.208798029016,0.0699840614974823,0,0,77.679828273156,77.909487073156,0,0,0.011217520044,0.011217520044,23,5,0,77.909487073156,0,0,0.011217520044,0,0,0,242.5, 2.2, -0.4,0,1,1024,1024,1024,1024,0,0,0,0,247.3,0,0,89,4.209,4.218,4.216,4.209,0,0,0,85.1,77.909487073156,0,41,Motors_Started,
234100,2023-05-16 19:01:25,52.2087979962985,0.0699841040887874,0,0,77.679828273156,77.909487073156,0,0,0.0264811032096,0.0264873039972,23,5,0,77.909487073156,0,0,0.0264811032096,0,0,0,242.5, 2.2, -0.4,0,1,1024,1024,1024,1024,0,0,0,0,247.3,0,0,89,4.209,4.218,4.216,4.209,0,0,0,85.1,77.909487073156,0,41,Motors_Started,
234300,2023-05-16 19:01:25,52.2087979700591,0.0699841276398494,0,0,77.679828273156,77.909487073156,0,0,0.037317586496,0.03741305894,23,5,0,77.909487073156,0,0,0.037317586496,0,0,0,242.5, 2.2, -0.4,0,1,1024,1024,1024,1024,0,0,0,0,247.3,0,0,89,4.209,4.218,4.216,4.209,0,0,0,85.1,77.909487073156,0,41,Motors_Started,"Setting new Return-To-Home altitude to 26m (85 ft). Data Recorder File Index is 11. Setting new Maximum Flight Altitude to 120m (394 ft)"
234500,2023-05-16 19:01:26,52.2087979518186,0.0699841316613591,0,0,77.679828273156,77.909487073156,0,0,4.0494423868,0.044128610336,23,5,0,77.909487073156,0,0,4.0494423868,0,0,0,242.5, 2.2, -0.4,0,1,1024,1024,1024,1024,0,0,0,0,247.3,0,0,89,4.209,4.218,4.216,4.209,0,0,0,85.1,77.909487073156,0,41,Motors_Started,
234700,2023-05-16 19:01:26,52.2087979350901,0.0699841331917609,0,0,77.679828273156,77.909487073156,0,0,4.054954198,0.050241799508,23,5,0,77.909487073156,0,0,4.054954198,0,0,0,242.5, 2.2, -0.4,0,1,1024,1024,1024,1024,0,0,0,0,247.3,0,0,89,4.209,4.218,4.216,4.209,0,0,0,85.1,77.909487073156,0,41,Motors_Started,
234900,2023-05-16 19:01:26,52.2087979280438,0.0699841283659492,0,0,77.679828273156,77.909487073156,0,0,4.0566930432,0.05302985734,23,5,16.832,77.909487073156,0,0,4.0566930432,0,0,0,242.5, 2.2, -0.4,0,1,1024,1024,1024,1024,0,0,0,0,247.3,0,0,89,4.175,4.186,4.184,4.174,0,0,1.941,85.1,77.909487073156,0,41,Motors_Started,
235100,2023-05-16 19:01:26,52.2087979257543,0.0699841221290048,0,0,77.679828273156,77.909487073156,0,0,4.0567914684,0.054655185476,23,5,16.832,77.909487073156,0,0,4.0567914684,0,0,0,242.5, 2.2, -0.4,0,1,1024,1024,1024,1024,0,0,0,0,247.3,0,0,89,4.175,4.186,4.184,4.174,0,0,1.941,85.1,77.909487073156,0,41,Motors_Started,
235300,2023-05-16 19:01:26,52.2087979293545,0.0699841107945074,0,0,77.679828273156,77.909487073156,0,0,4.0544292636,0.057509516276,23,5,16.832,77.909487073156,0,0,4.0567914684,0,0,0,242.5, 2.2, -0.4,0,1,1024,1024,1024,1024,0,0,0,0,247.3,0,0,89,4.175,4.186,4.184,4.174,0,0,1.941,85.1,77.909487073156,0,11,AutoTakeoff,
235500,2023-05-16 19:01:27,52.2087979362016,0.0699840998064584,0,0,77.679828273156,77.909487073156,0,0,4.0510499984,0.061013125312,23,5,16.832,77.909487073156,0,0,4.0567914684,0,0,0,242.7, 1.9, -0.3,0,1,1024,1024,1024,1024,0,0,0,0,247.3,0,0,89,4.175,4.186,4.184,4.174,0,0,1.941,85.1,77.909487073156,0,11,AutoTakeoff,
235700,2023-05-16 19:01:27,52.2087979244527,0.0699840823542857,0,0,77.679828273156,77.909487073156,0,0,4.052985694,0.066809713424,23,5,16.832,77.909487073156,0,0,4.0567914684,0,0,-0.223694,243.6, -1.6, -0.5,0,1,1024,1024,1024,1024,0,0,0,0,247.4,0,0,89,4.175,4.186,4.184,4.174,0,0,1.941,85.1,77.909487073156,0,11,AutoTakeoff,
235900,2023-05-16 19:01:27,52.2087978254524,0.0699839505042502,0,0,77.679828273156,77.909487073156,0.328084,0,4.0710631224,0.113432090244,23,5,16.697,77.909487073156,0,0,4.0710631224,0,0,-0.894776,243.5, 0.1, 0.5,0,1,1024,1024,1024,1024,0,0,0,0,247.4,0,0,89,4.197,4.207,4.205,4.196,0,0,4.847,85.1,77.909487073156,0,11,AutoTakeoff,
236100,2023-05-16 19:01:27,52.2087977053947,0.0699837514690076,0.328084,0.328084,77.679828273156,78.237571073156,0.328084,0,4.0896326768,0.175873037124,23,5,16.697,78.237571073156,0.328084,0,4.0896326768,0,0,-1.11847,243.4, 1.9, 1.1,0,1,1024,1024,1024,1024,0,0,0,0,247.5,0,0,89,4.197,4.207,4.205,4.196,0,0,4.847,85.1,78.237571073156,0.328084,11,AutoTakeoff,
236300,2023-05-16 19:01:27,52.2087976753142,0.0699836414367001,0.656168,0.656168,77.679828273156,78.565655073156,0.984252,0,4.088418766,0.202810373944,23,5,16.697,78.565655073156,0.656168,0,4.0896326768,0,0,-0.894776,243.6, 1.3, 0.6,0,1,1024,1024,1024,1024,0,0,0,0,247.5,0,0,89,4.197,4.207,4.205,4.196,0,0,4.847,85.1,78.565655073156,0.656168,11,AutoTakeoff,
236500,2023-05-16 19:01:28,52.2087976988084,0.0699836145819275,0.984252,0.984252,77.679828273156,78.893739073156,1.312336,0,4.07808412,0.21327592546,24,5,16.697,78.893739073156,0.984252,0,4.0896326768,0,0,-0.894776,243.5, 1.5, 0.3,0,1,1024,1024,1024,1024,0,0,0,0,247.6,0,0,89,4.197,4.207,4.205,4.196,0,0,4.847,85.1,78.893739073156,0.984252,11,AutoTakeoff,
236700,2023-05-16 19:01:28,52.2087977329871,0.0699836985235709,1.312336,1.312336,77.679828273156,79.221823073156,1.64042,0,4.0753282144,0.235808406496,24,5,16.697,79.221823073156,1.312336,0,4.0896326768,0,0,-0.894776,243.4, 1.5, 0.8,0,1,1024,1024,1024,1024,0,0,0,0,247.6,0,0,89,4.197,4.207,4.205,4.196,0,0,4.847,85.1,79.221823073156,1.312336,11,AutoTakeoff,
236900,2023-05-16 19:01:28,52.2087978104732,0.0699839013557654,1.64042,1.64042,77.679828273156,79.549907073156,1.968504,0,4.0708334636,0.2892470565,24,5,16.655,79.549907073156,1.64042,0,4.0896326768,0,0,-0.894776,243.3, 0, 0.9,0,1,1024,1024,1024,1024,0,0,0,0,247.6,0,0,88,4.146,4.158,4.155,4.15,0,0,4.414,84.92,79.549907073156,1.64042,11,AutoTakeoff,
237100,2023-05-16 19:01:28,52.2087979198239,0.0699841508055804,1.968504,1.968504,77.679828273156,79.877991073156,2.296588,0,4.0617455368,0.35781825292,24,5,16.655,79.877991073156,1.968504,0,4.0896326768,0,0,-0.894776,243.3, -1.1, 0.7,0,1,1024,1024,1024,1024,0,0,0,0,247.6,0,0,88,4.146,4.158,4.155,4.15,0,0,4.414,84.92,79.877991073156,1.968504,11,AutoTakeoff,
237300,2023-05-16 19:01:28,52.2087980258345,0.0699843409187946,2.296588,2.296588,77.679828273156,80.206075073156,2.624672,0,4.0483597096,0.4152887272,24,5,16.655,80.206075073156,2.296588,0,4.0896326768,0,0,-1.11847,243.4, -0.6, 0.8,0,1,1024,1024,1024,1024,0,0,0,0,247.7,0,0,88,4.146,4.158,4.155,4.15,0,0,4.414,84.92,80.206075073156,2.296588,11,AutoTakeoff,"Home Point updated (Code: 3000001)"
237500,2023-05-16 19:01:29,52.2087981108626,0.0699844224984291,2.624672,2.624672,77.679828273156,80.534159073156,2.952756,0,4.0303150896,0.45127298032,24,5,16.655,80.534159073156,2.624672,0,4.0896326768,0,0,-1.11847,243.4, 0.2, 0.5,0,1,1024,1024,1024,1024,0,0,0,0,247.7,0,0,88,4.146,4.158,4.155,4.15,0,0,4.414,84.92,80.534159073156,2.624672,11,AutoTakeoff,
237700,2023-05-16 19:01:29,52.2087982000425,0.0699844782569566,2.952756,2.952756,77.679828273156,80.862243073156,3.28084,0,4.0083006532,0.48611878196,24,5,16.655,80.862243073156,2.952756,0,4.0896326768,0,0,-1.11847,243.4, -0.1, -0.2,0,1,1024,1024,1024,1024,0,0,0,0,247.7,0,0,88,4.146,4.158,4.155,4.15,0,0,4.414,84.92,80.862243073156,2.952756,11,AutoTakeoff,
237900,2023-05-16 19:01:29,52.2087982694334,0.0699845465758757,3.28084,3.28084,77.679828273156,81.190327073156,3.608924,0,3.9941274244,0.51568571204,24,5,16.587,81.190327073156,3.28084,0,4.0896326768,0,0,-1.11847,243.4, 0, -0.6,0,1,1024,1024,1024,1024,0,0,0,0,247.7,0,0,88,4.138,4.15,4.148,4.141,0,0,7.396,84.92,81.190327073156,3.28084,6,P-GPS,
238100,2023-05-16 19:01:29,52.2087982529715,0.0699846842827672,3.608924,3.608924,77.679828273156,81.518411073156,3.937008,0,4.0149607584,0.54705382328,24,5,16.587,81.518411073156,3.608924,0,4.0896326768,0,0,-0.447388,242.8, -0.2, 0.9,0,1,1024,1024,1024,1024,0,0,0,0,247.7,0,0,88,4.138,4.15,4.148,4.141,0,0,7.396,84.92,81.518411073156,3.608924,6,P-GPS,
238300,2023-05-16 19:01:30,52.2087982149698,0.0699848237577249,3.608924,3.608924,77.679828273156,81.518411073156,3.937008,0,4.0428807068,0.58118112096,24,5,16.587,81.518411073156,3.608924,0,4.0896326768,0,0,0,242.9, -0.2, 1.6,0,1,1024,1024,1024,1024,0,0,0,0,247.7,0,0,88,4.138,4.15,4.148,4.141,0,0,7.396,84.92,81.518411073156,3.608924,6,P-GPS,
238500,2023-05-16 19:01:30,52.208798262317,0.0699848686636371,3.608924,3.608924,77.679828273156,81.518411073156,3.937008,0,4.033300654,0.60116143656,24,5,16.587,81.518411073156,3.608924,0,4.0896326768,0,0,0,242.9, -0.1, -0.3,0,1,1024,1024,1024,1024,0,0,0,0,247.7,0,0,88,4.138,4.15,4.148,4.141,0,0,7.396,84.92,81.518411073156,3.608924,6,P-GPS,
238700,2023-05-16 19:01:30,52.2087982574536,0.069984945835994,3.608924,3.608924,77.679828273156,81.518411073156,3.937008,0,4.043799342,0.6185039568,24,5,16.587,81.518411073156,3.608924,0,4.0896326768,0,0,0,242.9, -0.4, 0.6,0,1,1024,1024,1024,1024,0,0,0,0,247.7,0,0,88,4.138,4.15,4.148,4.141,0,0,7.396,84.92,81.518411073156,3.608924,6,P-GPS,
238900,2023-05-16 19:01:30,52.2087982210304,0.0699850265090959,3.608924,3.608924,77.679828273156,81.518411073156,3.937008,0,4.0645670592,0.64090881316,24,5,16.578,81.518411073156,3.608924,0,4.0896326768,0,0,0,242.9, -0.2, 0.7,0,1,1024,1024,1024,1024,0,0,0,0,247.7,0,0,88,4.146,4.155,4.151,4.146,0,0,7.525,85.1,81.518411073156,3.608924,6,P-GPS,
239100,2023-05-16 19:01:30,52.2087982037922,0.0699850635581009,3.608924,3.608924,77.679828273156,81.518411073156,3.937008,0,4.0742455372,0.65130907596,23,5,16.578,81.518411073156,3.608924,0,4.0896326768,0,0,0,243, 0.1, 0.6,0,1,1024,1024,1024,1024,0,0,0,0,247.7,0,0,88,4.146,4.155,4.151,4.146,0,0,7.525,85.1,81.518411073156,3.608924,6,P-GPS,
239300,2023-05-16 19:01:31,52.2087981823535,0.0699851050017139,3.608924,3.608924,77.679828273156,81.518411073156,3.937008,0,4.085794094,0.6634350606,23,5,16.578,81.518411073156,3.608924,0,4.0896326768,0,0,0,243, 0.2, 0.7,0,1,1024,1024,1024,1024,0,0,0,0,247.7,0,0,88,4.146,4.155,4.151,4.146,0,0,7.525,85.1,81.518411073156,3.608924,6,P-GPS,
239500,2023-05-16 19:01:31,52.2087981717369,0.069985175014866,3.608924,3.608924,77.679828273156,81.518411073156,3.937008,0,4.0973098424,0.6795603892,23,5,16.578,81.518411073156,3.608924,0,4.0973098424,0,0,0,243, 0.1, 0.7,0,1,1024,1024,1024,1024,0,0,0,0,247.7,0,0,88,4.146,4.155,4.151,4.146,0,0,7.525,85.1,81.518411073156,3.608924,6,P-GPS,
239700,2023-05-16 19:01:31,52.2087981591115,0.0699852538871354,3.608924,3.608924,77.679828273156,81.518411073156,3.937008,0,4.110564436,0.6977854554,23,5,16.578,81.518411073156,3.608924,0,4.110564436,0,0,0,243, 0.2, 0.8,0,1,1024,1024,1024,1024,0,0,0,0,247.7,0,0,88,4.146,4.155,4.151,4.146,0,0,7.525,85.1,81.518411073156,3.608924,6,P-GPS,
239900,2023-05-16 19:01:31,52.208798160087,0.0699853430558678,3.608924,3.608924,77.679828273156,81.518411073156,3.937008,0,4.1208662736,0.71772640092,23,5,16.574,81.518411073156,3.608924,0,4.1208662736,0,0,0,243, 0.1, 0.7,0,1,1024,1024,1024,1024,0,0,0,0,247.7,0,0,88,4.138,4.147,4.146,4.139,0,0,6.909,85.1,81.518411073156,3.608924,6,P-GPS,
240100,2023-05-16 19:01:31,52.2087981824504,0.0699854266774943,3.608924,3.608924,77.679828273156,81.518411073156,3.937008,0,4.12401588,0.7381233832,23,5,16.574,81.518411073156,3.608924,0,4.12401588,0,0,0,243, 0, 0.7,0,1,1024,1024,1024,1024,0,0,0,0,247.7,0,0,88,4.138,4.147,4.146,4.139,0,0,6.909,85.1,81.518411073156,3.608924,6,P-GPS,
240300,2023-05-16 19:01:32,52.2087981986702,0.0699855082016447,3.608924,3.608924,77.679828273156,81.518411073156,3.937008,0,4.1288715232,0.75728676964,23,5,16.574,81.518411073156,3.608924,0,4.1288715232,0,0,0,243, 0, 0.7,0,1,1024,1024,1024,1024,0,0,0,0,247.7,0,0,88,4.138,4.147,4.146,4.139,0,0,6.909,85.1,81.518411073156,3.608924,6,P-GPS,
240500,2023-05-16 19:01:32,52.2087982063976,0.0699855889101342,3.608924,3.608924,77.679828273156,81.518411073156,3.937008,0,4.13631903,0.77555120592,23,5,16.574,81.518411073156,3.608924,0,4.13631903,0,0,0,243, 0.1, 0.8,0,1,1024,1024,1024,1024,0,0,0,0,247.7,0,0,88,4.138,4.147,4.146,4.139,0,0,6.909,85.1,81.518411073156,3.608924,6,P-GPS,
240700,2023-05-16 19:01:32,52.2087982213473,0.0699856738690601,3.608924,3.608924,77.679828273156,81.518411073156,3.937008,0,4.1421589252,0.79531170524,23,5,16.574,81.518411073156,3.608924,0,4.1421589252,0,0,0,243, 0.1, 0.8,0,1,1024,1024,1024,1024,0,0,0,0,247.7,0,0,88,4.138,4.147,4.146,4.139,0,0,6.909,85.1,81.518411073156,3.608924,6,P-GPS,
240900,2023-05-16 19:01:32,52.2087982436797,0.0699857655856953,3.608924,3.608924,77.679828273156,81.518411073156,3.937008,0,4.146653676,0.81737863508,23,5,16.565,81.518411073156,3.608924,0,4.146653676,0,0,0,243, 0.1, 0.7,0,1,1024,1024,1024,1024,0,0,0,0,247.7,0,0,88,4.138,4.146,4.144,4.135,0,0,7.239,85.1,81.518411073156,3.608924,6,P-GPS,
241100,2023-05-16 19:01:32,52.2087982888112,0.0699858610630209,3.608924,3.608924,77.679828273156,81.518411073156,3.937008,0,4.144849214,0.84433729736,23,5,16.565,81.518411073156,3.608924,0,4.146653676,0,0,0,243, 0.1, 0.7,0,1,1024,1024,1024,1024,0,0,0,0,247.7,0,0,88,4.138,4.146,4.144,4.135,0,0,7.239,85.1,81.518411073156,3.608924,6,P-GPS,
241300,2023-05-16 19:01:32,52.2087983452018,0.0699859522606388,3.608924,3.608924,77.679828273156,81.518411073156,3.937008,0,4.1393045944,0.87330383372,23,5,16.565,81.518411073156,3.608924,0,4.146653676,0,0,0,243, 0.1, 0.6,0,1,1024,1024,1024,1024,0,0,0,0,247.7,0,0,88,4.138,4.146,4.144,4.135,0,0,7.239,85.1,81.518411073156,3.608924,6,P-GPS,
241500,2023-05-16 19:01:33,52.2087983930715,0.0699860436190297,3.608924,3.608924,77.679828273156,81.518411073156,3.937008,0,4.136483072,0.90017719416,23,5,16.565,81.518411073156,3.608924,0,4.146653676,0,0,0,243, 0.2, 0.5,0,1,1024,1024,1024,1024,0,0,0,0,247.7,0,0,88,4.138,4.146,4.144,4.135,0,0,7.239,85.1,81.518411073156,3.608924,6,P-GPS,
241700,2023-05-16 19:01:33,52.2087984297341,0.0699861347550471,3.608924,3.608924,77.679828273156,81.518411073156,3.937008,0,4.1372048568,0.92455055452,23,5,16.565,81.518411073156,3.608924,0,4.146653676,0,0,0,243, 0.2, 0.6,0,1,1024,1024,1024,1024,0,0,0,0,247.7,0,0,88,4.138,4.146,4.144,4.135,0,0,7.239,85.1,81.518411073156,3.608924,6,P-GPS,
241900,2023-05-16 19:01:33,52.2087984595373,0.0699862335920044,3.608924,3.608924,77.679828273156,81.518411073156,3.937008,0,4.141076248,0.9491798204,23,5,16.557,81.518411073156,3.608924,0,4.146653676,0,0,0,243.1, 0.1, 0.6,0,1,1024,1024,1024,1024,0,0,0,0,247.7,0,0,88,4.137,4.143,4.142,4.134,0,0,7.256,85.1,81.518411073156,3.608924,6,P-GPS,
242100,2023-05-16 19:01:33,52.2087984809091,0.0699863319256723,3.608924,3.608924,77.679828273156,81.518411073156,3.937008,0,4.1475066944,0.9725065928,23,5,16.557,81.518411073156,3.608924,0,4.1475066944,0,0,0,243, 0.1, 0.6,0,1,1024,1024,1024,1024,0,0,0,0,247.7,0,0,88,4.137,4.143,4.142,4.134,0,0,7.256,85.1,81.518411073156,3.608924,6,P-GPS,
242300,2023-05-16 19:01:33,52.2087985124604,0.0699864287630153,3.608924,3.608924,77.679828273156,81.518411073156,3.937008,0,4.1508859596,0.99702431012,23,5,16.557,81.518411073156,3.608924,0,4.1508859596,0,0,0,243, 0.1, 0.6,0,1,1024,1024,1024,1024,0,0,0,0,247.7,0,0,88,4.137,4.143,4.142,4.134,0,0,7.256,85.1,81.518411073156,3.608924,6,P-GPS,
242500,2023-05-16 19:01:34,52.2087985482653,0.0699865316804616,3.608924,3.608924,77.679828273156,81.518411073156,3.937008,0,4.1539699492,1.02348428472,23,5,16.557,81.518411073156,3.608924,0,4.1539699492,0,0,0,243, 0.2, 0.7,0,1,1024,1024,1024,1024,0,0,0,0,247.7,0,0,88,4.137,4.143,4.142,4.134,0,0,7.256,85.1,81.518411073156,3.608924,6,P-GPS,
242700,2023-05-16 19:01:34,52.2087985782029,0.0699866262682931,3.608924,3.608924,77.679828273156,81.518411073156,3.937008,0,4.157808532,1.04728677892,23,5,16.557,81.518411073156,3.608924,0,4.157808532,0,0,0,243.1, 0.2, 0.7,0,1,1024,1024,1024,1024,0,0,0,0,247.7,0,0,88,4.137,4.143,4.142,4.134,0,0,7.256,85.1,81.518411073156,3.608924,6,P-GPS,
242900,2023-05-16 19:01:34,52.2087986008629,0.0699867225333191,3.608924,3.608924,77.679828273156,81.518411073156,3.937008,0,4.1641077448,1.0703412416,23,5,16.55,81.518411073156,3.608924,0,4.1641077448,0,0,0,243, 0.1, 0.9,0,1,1024,1024,1024,1024,0,0,0,0,247.7,0,0,88,4.136,4.141,4.141,4.133,0,0,7.283,85.1,81.518411073156,3.608924,6,P-GPS,
243100,2023-05-16 19:01:34,52.2087986221158,0.0699868108483817,3.608924,3.608924,77.679828273156,81.518411073156,3.937008,0,4.1698820232,1.09155515304,23,5,16.55,81.518411073156,3.608924,0,4.1698820232,0,0,0,243, 0.2, 0.9,0,1,1024,1024,1024,1024,0,0,0,0,247.7,0,0,88,4.136,4.141,4.141,4.133,0,0,7.283,85.1,81.518411073156,3.608924,6,P-GPS,
243300,2023-05-16 19:01:34,52.2087986446558,0.0699868864313576,3.608924,3.608924,77.679828273156,81.518411073156,3.937008,0,4.1736221808,1.11034780456,23,5,16.55,81.518411073156,3.608924,0,4.1736221808,0,0,0,243.1, 0.2, 0.9,0,1,1024,1024,1024,1024,0,0,0,0,247.7,0,0,88,4.136,4.141,4.141,4.133,0,0,7.283,85.1,81.518411073156,3.608924,6,P-GPS,
243500,2023-05-16 19:01:35,52.2087986715265,0.0699869495360759,3.608924,3.608924,77.679828273156,81.518411073156,3.937008,0,4.1745080076,1.12752956364,23,5,16.55,81.518411073156,3.608924,0,4.1745080076,0,0,0,243.1, 0.1, 0.9,0,1,1024,1024,1024,1024,0,0,0,0,247.7,0,0,88,4.136,4.141,4.141,4.133,0,0,7.283,85.1,81.518411073156,3.608924,6,P-GPS,
243700,2023-05-16 19:01:35,52.2087986995627,0.0699870067127262,3.608924,3.608924,77.679828273156,81.518411073156,3.937008,0,4.1742783488,1.14390095524,23,5,16.55,81.518411073156,3.608924,0,4.1745080076,0,0,0,243.1, 0.1, 0.9,0,1,1024,1024,1024,1024,0,0,0,0,247.7,0,0,88,4.136,4.141,4.141,4.133,0,0,7.283,85.1,81.518411073156,3.608924,6,P-GPS,
243900,2023-05-16 19:01:35,52.2087987268001,0.0699870621601928,3.608924,3.608924,77.679828273156,81.518411073156,3.937008,0,4.1741471152,1.15979006336,23,5,16.539,81.518411073156,3.608924,0,4.1745080076,0,0,0,243.1, 0.2, 0.9,0,1,1024,1024,1024,1024,0,0,0,0,247.7,0,0,88,4.133,4.138,4.14,4.13,0,0,7.308,85.28,81.518411073156,3.608924,6,P-GPS,
244100,2023-05-16 19:01:35,52.2087987580656,0.0699871091264462,3.608924,3.608924,77.679828273156,81.518411073156,3.937008,0,4.1717192936,1.1752953132,23,5,16.539,81.518411073156,3.608924,0,4.1745080076,0,0,0,243.1, 0.2, 0.6,0,1,1024,1024,1024,1024,0,0,0,0,247.7,0,0,88,4.133,4.138,4.14,4.13,0,0,7.308,85.28,81.518411073156,3.608924,6,P-GPS,
244300,2023-05-16 19:01:35,52.2087987794036,0.0699871496137218,3.608924,3.608924,77.679828273156,81.518411073156,3.937008,0,4.171259976,1.18723428996,23,5,16.539,81.518411073156,3.608924,0,4.1745080076,0,0,0,243.1, 0.1, 0.5,0,1,1024,1024,1024,1024,0,0,0,0,247.7,0,0,88,4.133,4.138,4.14,4.13,0,0,7.308,85.28,81.518411073156,3.608924,6,P-GPS,
244500,2023-05-16 19:01:36,52.2087988027452,0.0699871896868322,3.608924,3.608924,77.679828273156,81.518411073156,3.937008,0,4.1702429156,1.19959321424,23,5,16.539,81.518411073156,3.608924,0,4.1745080076,0,0,0,243, 0, 0.6,0,1,1024,1024,1024,1024,0,0,0,0,247.7,0,0,88,4.133,4.138,4.14,4.13,0,0,7.308,85.28,81.518411073156,3.608924,6,P-GPS,
244700,2023-05-16 19:01:36,52.2087988164715,0.0699872195674578,3.608924,3.608924,77.679828273156,81.518411073156,3.937008,0,4.1705381912,1.20794295204,23,5,16.539,81.518411073156,3.608924,0,4.1745080076,0,0,0,243.1, 0, 0.6,0,1,1024,1024,1024,1024,0,0,0,0,247.7,0,0,88,4.133,4.138,4.14,4.13,0,0,7.308,85.28,81.518411073156,3.608924,6,P-GPS,
244900,2023-05-16 19:01:36,52.2087988081943,0.0699872320872194,3.608924,3.608924,77.679828273156,81.518411073156,3.937008,0,4.1746392412,1.21206040624,23,5,16.534,81.518411073156,3.608924,0,4.1746392412,0,0,0,243.1, 0.1, 0.7,0,1,1024,1024,1024,1024,0,0,0,0,247.7,0,0,88,4.128,4.137,4.137,4.128,0,0,7.281,85.28,81.518411073156,3.608924,6,P-GPS,
245100,2023-05-16 19:01:36,52.2087987941135,0.0699872416300588,3.608924,3.608924,77.679828273156,81.518411073156,3.937008,0,4.1799870104,1.21762471088,23,5,16.534,81.518411073156,3.608924,0,4.1799870104,0,0,0,243.1, 0.3, 0.8,0,1,1024,1024,1024,1024,0,0,0,0,247.7,0,0,88,4.128,4.137,4.137,4.128,0,0,7.281,85.28,81.518411073156,3.608924,6,P-GPS,
245300,2023-05-16 19:01:37,52.2087987826585,0.0699872597545948,3.608924,3.608924,77.679828273156,81.518411073156,3.937008,0,4.1857612888,1.22344492104,23,5,16.534,81.518411073156,3.608924,0,4.1857612888,0,0,0,243.1, 0.2, 0.8,0,1,1024,1024,1024,1024,0,0,0,0,247.7,0,0,88,4.128,4.137,4.137,4.128,0,0,7.281,85.28,81.518411073156,3.608924,6,P-GPS,
245500,2023-05-16 19:01:37,52.2087987795107,0.0699872848884845,3.608924,3.608924,77.679828273156,81.518411073156,3.937008,0,4.1901904228,1.22917982936,23,5,16.534,81.518411073156,3.608924,0,4.1901904228,0,0,0,243, 0.1, 1,0,1,1024,1024,1024,1024,0,0,0,0,247.7,0,0,88,4.128,4.137,4.137,4.128,0,0,7.281,85.28,81.518411073156,3.608924,6,P-GPS,
245700,2023-05-16 19:01:37,52.2087987736226,0.0699873016027615,3.608924,3.608924,77.679828273156,81.518411073156,3.937008,0,4.194225856,1.23349085312,23,5,16.534,81.518411073156,3.608924,0,4.194225856,0,0,0,243, 0.1, 0.9,0,1,1024,1024,1024,1024,0,0,0,0,247.7,0,0,88,4.128,4.137,4.137,4.128,0,0,7.281,85.28,81.518411073156,3.608924,6,P-GPS,
245900,2023-05-16 19:01:37,52.2087987669479,0.0699873196648232,3.608924,3.608924,77.679828273156,81.518411073156,3.937008,0,4.19865499,1.2382054202,23,5,16.526,81.518411073156,3.608924,0,4.19865499,0,0,0,243, 0.1, 0.5,0,1,1024,1024,1024,1024,0,0,0,0,247.7,0,0,88,4.126,4.136,4.135,4.127,0,0,7.301,85.28,81.518411073156,3.608924,6,P-GPS,
246100,2023-05-16 19:01:37,52.2087987642225,0.0699873462801839,3.608924,3.608924,77.679828273156,81.518411073156,3.937008,0,4.2031825492,1.24423888496,23,5,16.526,81.518411073156,3.608924,0,4.2031825492,0,0,0,243, 0.2, 0.5,0,1,1024,1024,1024,1024,0,0,0,0,247.7,0,0,88,4.126,4.136,4.135,4.127,0,0,7.301,85.28,81.518411073156,3.608924,6,P-GPS,
246300,2023-05-16 19:01:38,52.2087987480166,0.0699873711410217,3.608924,3.608924,77.679828273156,81.518411073156,3.937008,0,4.2112534156,1.25235568312,23,5,16.526,81.518411073156,3.608924,0,4.2112534156,0,0,0,243, 0.1, 0.6,0,1,1024,1024,1024,1024,0,0,0,0,247.7,0,0,88,4.126,4.136,4.135,4.127,0,0,7.301,85.28,81.518411073156,3.608924,6,P-GPS,
246500,2023-05-16 19:01:38,52.2087987432914,0.0699874105076919,3.608924,3.608924,77.679828273156,81.518411073156,3.937008,0,4.2181431796,1.26132221884,23,5,16.526,81.518411073156,3.608924,0,4.2181431796,0,0,0,243, 0.1, 0.8,0,1,1024,1024,1024,1024,0,0,0,0,247.7,0,0,88,4.126,4.136,4.135,4.127,0,0,7.301,85.28,81.518411073156,3.608924,6,P-GPS,
246700,2023-05-16 19:01:38,52.2087987491978,0.0699874474715047,3.608924,3.608924,77.679828273156,81.518411073156,3.937008,0,4.2217192952,1.26986224536,23,5,16.526,81.518411073156,3.608924,0,4.2217192952,0,0,0,243, 0.1, 0.8,0,1,1024,1024,1024,1024,0,0,0,0,247.7,0,0,88,4.126,4.136,4.135,4.127,0,0,7.301,85.28,81.518411073156,3.608924,6,P-GPS,
246900,2023-05-16 19:01:38,52.2087987552642,0.0699874794465483,3.608924,3.608924,77.679828273156,81.518411073156,3.937008,0,4.2245408176,1.2773458414,23,5,16.519,81.518411073156,3.608924,0,4.2245408176,0,0,0,243, 0.1, 0.9,0,1,1024,1024,1024,1024,0,0,0,0,247.7,0,0,88,4.123,4.135,4.133,4.125,0,0,7.277,85.28,81.518411073156,3.608924,6,P-GPS,
247100,2023-05-16 19:01:38,52.2087987548321,0.0699875231003533,3.608924,3.608924,77.679828273156,81.518411073156,3.937008,0,4.2308400304,1.28710962124,23,5,16.519,81.518411073156,3.608924,0,4.2308400304,0,0,0,243.1, 0.1, 0.8,0,1,1024,1024,1024,1024,0,0,0,0,247.7,0,0,88,4.123,4.135,4.133,4.125,0,0,7.277,85.28,81.518411073156,3.608924,6,P-GPS,
247300,2023-05-16 19:01:38,52.2087987439795,0.069987549117184,3.608924,3.608924,77.679828273156,81.518411073156,3.937008,0,4.2375985608,1.2941437422,23,5,16.519,81.518411073156,3.608924,0,4.2375985608,0,0,0,243.1, 0.1, 0.8,0,1,1024,1024,1024,1024,0,0,0,0,247.7,0,0,88,4.123,4.135,4.133,4.125,0,0,7.277,85.28,81.518411073156,3.608924,6,P-GPS,
247500,2023-05-16 19:01:39,52.2087987533227,0.0699875594787426,3.608924,3.608924,77.679828273156,81.518411073156,3.937008,0,4.2364502668,1.29826775808,23,5,16.519,81.518411073156,3.608924,0,4.2375985608,0,0,0,243.1, 0.1, 0.8,0,1,1024,1024,1024,1024,0,0,0,0,247.7,0,0,88,4.123,4.135,4.133,4.125,0,0,7.277,85.28,81.518411073156,3.608924,6,P-GPS,
247700,2023-05-16 19:01:39,52.2087987538352,0.0699875739653522,3.608924,3.608924,77.679828273156,81.518411073156,3.937008,0,4.238353154,1.301509228,23,5,16.519,81.518411073156,3.608924,0,4.238353154,0,0,0,243.1, 0.2, 0.8,0,1,1024,1024,1024,1024,0,0,0,0,247.7,0,0,88,4.123,4.135,4.133,4.125,0,0,7.277,85.28,81.518411073156,3.608924,6,P-GPS,
247900,2023-05-16 19:01:39,52.2087987388152,0.0699875877922682,3.608924,3.608924,77.679828273156,81.518411073156,3.937008,0,4.2445539416,1.30780187912,23,5,16.514,81.518411073156,3.608924,0,4.2445539416,0,0,0,243.1, 0.2, 0.7,0,1,1024,1024,1024,1024,0,0,0,0,247.7,0,0,88,4.123,4.135,4.132,4.123,0,0,7.295,85.28,81.518411073156,3.608924,6,P-GPS,
248100,2023-05-16 19:01:39,52.2087987442033,0.0699876035165679,3.608924,3.608924,77.679828273156,81.518411073156,3.937008,0,4.2452757264,1.31183075064,23,5,16.514,81.518411073156,3.608924,0,4.2452757264,0,0,0,243.1, 0.2, 0.6,0,1,1024,1024,1024,1024,0,0,0,0,247.7,0,0,88,4.123,4.135,4.132,4.123,0,0,7.295,85.28,81.518411073156,3.608924,6,P-GPS,
248300,2023-05-16 19:01:40,52.208798748786,0.0699876178035219,3.608924,3.608924,77.679828273156,81.518411073156,3.937008,0,4.2460303196,1.3154363938,23,5,16.514,81.518411073156,3.608924,0,4.2460303196,0,0,0,243.1, 0.1, 0.7,0,1,1024,1024,1024,1024,0,0,0,0,247.7,0,0,88,4.123,4.135,4.132,4.123,0,0,7.295,85.28,81.518411073156,3.608924,6,P-GPS,
248500,2023-05-16 19:01:40,52.2087987407647,0.0699876293905378,3.608924,3.608924,77.679828273156,81.518411073156,3.937008,0,4.2499345192,1.31934387424,23,5,16.514,81.518411073156,3.608924,0,4.2499345192,0,0,0,243.1, 0.1, 0.7,0,1,1024,1024,1024,1024,0,0,0,0,247.7,0,0,88,4.123,4.135,4.132,4.123,0,0,7.295,85.28,81.518411073156,3.608924,6,P-GPS,
248700,2023-05-16 19:01:40,52.2087987269822,0.069987641832971,3.608924,3.608924,77.679828273156,81.518411073156,3.937008,0,4.255577564,1.32509190592,23,5,16.514,81.518411073156,3.608924,0,4.255577564,0,0,0,243.1, 0.1, 0.7,0,1,1024,1024,1024,1024,0,0,0,0,247.7,0,0,88,4.123,4.135,4.132,4.123,0,0,7.295,85.28,81.518411073156,3.608924,6,P-GPS,
248900,2023-05-16 19:01:40,52.2087987025119,0.0699876561880788,3.608924,3.608924,77.679828273156,81.518411073156,3.937008,0,4.2645014488,1.33457681436,23,5,16.51,81.518411073156,3.608924,0,4.2645014488,0,0,0,243.1, 0.1, 0.8,0,1,1024,1024,1024,1024,0,0,0,0,247.7,0,0,88,4.12,4.134,4.13,4.122,0,0,7.269,85.46,81.518411073156,3.608924,6,P-GPS,
249100,2023-05-16 19:01:40,52.2087986800329,0.0699876772074027,3.608924,3.608924,77.679828273156,81.518411073156,3.937008,0,4.2738190344,1.34403219524,23,5,16.51,81.518411073156,3.608924,0,4.2738190344,0,0,0,243.1, 0, 0.8,0,1,1024,1024,1024,1024,0,0,0,0,247.7,0,0,88,4.12,4.134,4.13,4.122,0,0,7.269,85.46,81.518411073156,3.608924,6,P-GPS,
249300,2023-05-16 19:01:40,52.2087986560605,0.0699876883225848,3.608924,3.608924,77.679828273156,81.518411073156,3.937008,0,4.282152368,1.35312340288,23,5,16.51,81.518411073156,3.608924,0,4.282152368,0,0,0,243, 0.1, 0.8,0,1,1024,1024,1024,1024,0,0,0,0,247.7,0,0,88,4.12,4.134,4.13,4.122,0,0,7.269,85.46,81.518411073156,3.608924,6,P-GPS,
249500,2023-05-16 19:01:41,52.2087986340259,0.069987696950154,3.608924,3.608924,77.679828273156,81.518411073156,3.937008,0,4.2895670664,1.36139111968,23,5,16.51,81.518411073156,3.608924,0,4.2895670664,0,0,0,243, 0.2, 0.8,0,1,1024,1024,1024,1024,0,0,0,0,247.7,0,0,88,4.12,4.134,4.13,4.122,0,0,7.269,85.46,81.518411073156,3.608924,6,P-GPS,
249700,2023-05-16 19:01:41,52.2087986144211,0.0699877263864694,3.608924,3.608924,77.679828273156,81.518411073156,3.937008,0,4.2992783528,1.37110896776,23,5,16.51,81.518411073156,3.608924,0,4.2992783528,0,0,0,243, 0.1, 0.9,0,1,1024,1024,1024,1024,0,0,0,0,247.7,0,0,88,4.12,4.134,4.13,4.122,0,0,7.269,85.46,81.518411073156,3.608924,6,P-GPS,
249900,2023-05-16 19:01:41,52.2087985999617,0.069987757927688,3.608924,3.608924,77.679828273156,81.518411073156,3.937008,0,4.3078413452,1.37991802316,23,5,16.501,81.518411073156,3.608924,0,4.3078413452,0,0,0,243, 0, 0.8,0,1,1024,1024,1024,1024,0,0,0,0,247.7,0,0,88,4.12,4.132,4.129,4.12,0,0,7.324,85.46,81.518411073156,3.608924,6,P-GPS,
250100,2023-05-16 19:01:41,52.2087985855859,0.0699877745764325,3.608924,3.608924,77.679828273156,81.518411073156,3.937008,0,4.3142389832,1.38634846956,23,5,16.501,81.518411073156,3.608924,0,4.3142389832,0,0,0,243, 0, 0.9,0,1,1024,1024,1024,1024,0,0,0,0,247.7,0,0,88,4.12,4.132,4.129,4.12,0,0,7.324,85.46,81.518411073156,3.608924,6,P-GPS,
250300,2023-05-16 19:01:41,52.2087985687857,0.0699877883539807,3.608924,3.608924,77.679828273156,81.518411073156,3.937008,0,4.3209318968,1.393208706,23,5,16.501,81.518411073156,3.608924,0,4.3209318968,0,0,0,243, 0, 1,0,1,1024,1024,1024,1024,0,0,0,0,247.7,0,0,88,4.12,4.132,4.129,4.12,0,0,7.324,85.46,81.518411073156,3.608924,6,P-GPS,
250500,2023-05-16 19:01:42,52.2087985561383,0.0699878255519629,3.608924,3.608924,77.679828273156,81.518411073156,3.937008,0,4.3297901648,1.40271986116,23,5,16.501,81.518411073156,3.608924,0,4.3297901648,0,0,0,243, 0, 1,0,1,1024,1024,1024,1024,0,0,0,0,247.7,0,0,88,4.12,4.132,4.129,4.12,0,0,7.324,85.46,81.518411073156,3.608924,6,P-GPS,
250700,2023-05-16 19:01:42,52.2087985339398,0.0699878692385341,3.608924,3.608924,77.679828273156,81.518411073156,3.937008,0,4.3422573568,1.41540686944,23,5,16.501,81.518411073156,3.608924,0,4.3422573568,0,0,0,243, 0.1, 1.1,0,1,1024,1024,1024,1024,0,0,0,0,247.7,0,0,88,4.12,4.132,4.129,4.12,0,0,7.324,85.46,81.518411073156,3.608924,6,P-GPS,
250900,2023-05-16 19:01:42,52.2087985157185,0.06998789589802,3.608924,3.608924,77.679828273156,81.518411073156,3.937008,0,4.3511812416,1.42433731592,23,5,16.497,81.518411073156,3.608924,0,4.3511812416,0,0,0,243, 0.1, 1,0,1,1024,1024,1024,1024,0,0,0,0,247.7,0,0,88,4.118,4.13,4.127,4.12,0,0,7.288,85.46,81.518411073156,3.608924,6,P-GPS,
251100,2023-05-16 19:01:42,52.2087985202167,0.0699879113977617,3.608924,3.608924,77.679828273156,81.518411073156,3.937008,0,4.3521326852,1.42817261788,23,5,16.497,81.518411073156,3.608924,0,4.3521326852,0,0,0,243, 0.2, 0.9,0,1,1024,1024,1024,1024,0,0,0,0,247.7,0,0,88,4.118,4.13,4.127,4.12,0,0,7.288,85.46,81.518411073156,3.608924,6,P-GPS,
251300,2023-05-16 19:01:42,52.2087985335398,0.0699879234609803,3.608924,3.608924,77.679828273156,81.518411073156,3.937008,0,4.3500985644,1.43373036084,23,5,16.497,81.518411073156,3.608924,0,4.3521326852,0,0,0,243, 0.2, 0.8,0,1,1024,1024,1024,1024,0,0,0,0,247.7,0,0,88,4.118,4.13,4.127,4.12,0,0,7.288,85.46,81.518411073156,3.608924,6,P-GPS,
251500,2023-05-16 19:01:43,52.2087985474418,0.0699879648644,3.608924,3.608924,77.679828273156,81.518411073156,3.937008,0,4.3521326852,1.44428482312,23,5,16.497,81.518411073156,3.608924,0,4.3521326852,0,0,0,243, 0.2, 0.8,0,1,1024,1024,1024,1024,0,0,0,0,247.7,0,0,88,4.118,4.13,4.127,4.12,0,0,7.288,85.46,81.518411073156,3.608924,6,P-GPS,
251700,2023-05-16 19:01:43,52.2087985401262,0.0699880231315108,3.608924,3.608924,77.679828273156,81.518411073156,3.937008,0,4.362532948,1.45758206764,23,5,16.497,81.518411073156,3.608924,0,4.362532948,0,0,0,243, 0.2, 0.9,0,1,1024,1024,1024,1024,0,0,0,0,247.7,0,0,88,4.118,4.13,4.127,4.12,0,0,7.288,85.46,81.518411073156,3.608924,6,P-GPS,
251900,2023-05-16 19:01:43,52.2087985190677,0.0699880782338397,3.608924,3.608924,77.679828273156,81.518411073156,3.937008,0,4.376312476,1.47210306548,23,5,16.491,81.518411073156,3.608924,0,4.376312476,0,0,0,243, 0.2, 1,0,1,1024,1024,1024,1024,0,0,0,0,247.7,0,0,88,4.117,4.128,4.126,4.119,0,0,7.329,85.64,81.518411073156,3.608924,6,P-GPS,
252100,2023-05-16 19:01:43,52.2087985087686,0.0699881665497761,3.608924,3.608924,77.679828273156,81.518411073156,3.937008,0,4.391896466,1.49220149132,23,5,16.491,81.518411073156,3.608924,0,4.391896466,0,0,0,243, 0.1, 1.1,0,1,1024,1024,1024,1024,0,0,0,0,247.7,0,0,88,4.117,4.128,4.126,4.119,0,0,7.329,85.64,81.518411073156,3.608924,6,P-GPS,
252300,2023-05-16 19:01:43,52.2087985075211,0.0699882488148804,3.608924,3.608924,77.679828273156,81.518411073156,3.937008,0,4.4041339992,1.51060044204,23,5,16.491,81.518411073156,3.608924,0,4.4041339992,0,0,0,243, 0.1, 1.1,0,1,1024,1024,1024,1024,0,0,0,0,247.7,0,0,88,4.117,4.128,4.126,4.119,0,0,7.329,85.64,81.518411073156,3.608924,6,P-GPS,
252500,2023-05-16 19:01:44,52.2087985191442,0.0699883140214437,3.608924,3.608924,77.679828273156,81.518411073156,3.937008,0,4.4103675952,1.52578088872,23,5,16.491,81.518411073156,3.608924,0,4.4103675952,0,0,0,243, 0.2, 1.1,0,1,1024,1024,1024,1024,0,0,0,0,247.7,0,0,88,4.117,4.128,4.126,4.119,0,0,7.329,85.64,81.518411073156,3.608924,6,P-GPS,
252700,2023-05-16 19:01:44,52.2087985478766,0.0699883810690327,3.608924,3.608924,77.679828273156,81.518411073156,3.937008,0,4.4121720572,1.54407485256,23,5,16.491,81.518411073156,3.608924,0,4.4121720572,0,0,0,243, 0.2, 0.8,0,1,1024,1024,1024,1024,0,0,0,0,247.7,0,0,88,4.117,4.128,4.126,4.119,0,0,7.329,85.64,81.518411073156,3.608924,6,P-GPS,
252900,2023-05-16 19:01:44,52.2087985781665,0.06998845875997,3.608924,3.608924,77.679828273156,81.518411073156,3.937008,0,4.41519043,1.56466212356,23,5,16.487,81.518411073156,3.608924,0,4.41519043,0,0,0,243, 0.1, 0.7,0,1,1024,1024,1024,1024,0,0,0,0,247.7,0,0,88,4.116,4.126,4.124,4.118,0,0,7.321,85.64,81.518411073156,3.608924,6,P-GPS,
253100,2023-05-16 19:01:44,52.2087985923126,0.0699885296407721,3.608924,3.608924,77.679828273156,81.518411073156,3.937008,0,4.4217193016,1.58132879076,23,5,16.487,81.518411073156,3.608924,0,4.4217193016,0,0,0,243, 0.1, 0.7,0,1,1024,1024,1024,1024,0,0,0,0,247.7,0,0,88,4.116,4.126,4.124,4.118,0,0,7.321,85.64,81.518411073156,3.608924,6,P-GPS,
253300,2023-05-16 19:01:45,52.2087986006112,0.0699885898170624,3.608924,3.608924,77.679828273156,81.518411073156,3.937008,0,4.42831379,1.59511816128,23,5,16.487,81.518411073156,3.608924,0,4.42831379,0,0,0,243, 0.2, 1,0,1,1024,1024,1024,1024,0,0,0,0,247.7,0,0,88,4.116,4.126,4.124,4.118,0,0,7.321,85.64,81.518411073156,3.608924,6,P-GPS,
253500,2023-05-16 19:01:45,52.2087986168867,0.0699886568026141,3.608924,3.608924,77.679828273156,81.518411073156,3.937008,0,4.4337927928,1.61123036652,23,5,16.487,81.518411073156,3.608924,0,4.4337927928,0,0,0,243.1, 0.1, 1.1,0,1,1024,1024,1024,1024,0,0,0,0,247.7,0,0,88,4.116,4.126,4.124,4.118,0,0,7.321,85.64,81.518411073156,3.608924,6,P-GPS,
253700,2023-05-16 19:01:45,52.2087986346031,0.0699887295576451,3.608924,3.608924,77.679828273156,81.518411073156,3.937008,0,4.43979673,1.62873364792,23,5,16.487,81.518411073156,3.608924,0,4.43979673,0,0,0,243.1, 0.1, 0.9,0,1,1024,1024,1024,1024,0,0,0,0,247.7,0,0,88,4.116,4.126,4.124,4.118,0,0,7.321,85.64,81.518411073156,3.608924,6,P-GPS,
253900,2023-05-16 19:01:45,52.2087986531151,0.0699887852034567,3.608924,3.608924,77.679828273156,81.518411073156,3.937008,0,4.4430447616,1.64288719168,23,5,16.482,81.518411073156,3.608924,0,4.4430447616,0,0,0,243.1, 0, 0.9,0,1,1024,1024,1024,1024,0,0,0,0,247.7,0,0,88,4.116,4.125,4.123,4.116,0,0,7.33,85.64,81.518411073156,3.608924,6,P-GPS,
254100,2023-05-16 19:01:45,52.2087986676382,0.0699888276894729,3.608924,3.608924,77.679828273156,81.518411073156,3.937008,0,4.4454725832,1.65376645712,23,5,16.482,81.518411073156,3.608924,0,4.4454725832,0,0,0,243.1, 0.2, 0.8,0,1,1024,1024,1024,1024,0,0,0,0,247.7,0,0,88,4.116,4.125,4.123,4.116,0,0,7.33,85.64,81.518411073156,3.608924,6,P-GPS,
254300,2023-05-16 19:01:46,52.2087986745447,0.0699888653837544,3.608924,3.608924,77.679828273156,81.518411073156,3.937008,0,4.4492783576,1.66256238916,23,5,16.482,81.518411073156,3.608924,0,4.4492783576,0,0,0,243.1, 0.2, 0.7,0,1,1024,1024,1024,1024,0,0,0,0,247.7,0,0,88,4.116,4.125,4.123,4.116,0,0,7.33,85.64,81.518411073156,3.608924,6,P-GPS,
254500,2023-05-16 19:01:46,52.2087986736698,0.0699889186520477,3.608924,3.608924,77.679828273156,81.518411073156,3.937008,0,4.457513266,1.6744751192,23,5,16.482,81.518411073156,3.608924,0,4.457513266,0,0,0,243.1, 0.1, 0.8,0,1,1024,1024,1024,1024,0,0,0,0,247.7,0,0,88,4.116,4.125,4.123,4.116,0,0,7.33,85.64,81.518411073156,3.608924,6,P-GPS,
254700,2023-05-16 19:01:46,52.2087986828476,0.0699889816899229,3.608924,3.608924,77.679828273156,81.518411073156,3.937008,0,4.4645342636,1.6889600278,23,5,16.482,81.518411073156,3.608924,0,4.4645342636,0,0,0,243.1, 0.1, 0.9,0,1,1024,1024,1024,1024,0,0,0,0,247.7,0,0,88,4.116,4.125,4.123,4.116,0,0,7.33,85.64,81.518411073156,3.608924,6,P-GPS,
254900,2023-05-16 19:01:46,52.2087986945634,0.0699890482988812,3.608924,3.608924,77.679828273156,81.518411073156,3.937008,0,4.471456836,1.70445543512,23,5,16.481,81.518411073156,3.608924,0,4.471456836,0,0,0,243.1, 0.1, 0.9,0,1,1024,1024,1024,1024,0,0,0,0,247.7,0,0,88,4.117,4.125,4.124,4.115,0,0,7.297,85.46,81.518411073156,3.608924,6,P-GPS,
255100,2023-05-16 19:01:46,52.2087987099539,0.0699891029389877,3.608924,3.608924,77.679828273156,81.518411073156,3.937008,0,4.4756235028,1.71790031744,23,5,16.481,81.518411073156,3.608924,0,4.4756235028,0,0,0,243, 0.1, 1,0,1,1024,1024,1024,1024,0,0,0,0,247.7,0,0,88,4.117,4.125,4.124,4.115,0,0,7.297,85.46,81.518411073156,3.608924,6,P-GPS,
255300,2023-05-16 19:01:46,52.2087987263975,0.069989140012895,3.608924,3.608924,77.679828273156,81.518411073156,3.937008,0,4.476870222,1.72812997656,23,5,16.481,81.518411073156,3.608924,0,4.476870222,0,0,0,243, 0.2, 0.9,0,1,1024,1024,1024,1024,0,0,0,0,247.7,0,0,88,4.117,4.125,4.124,4.115,0,0,7.297,85.46,81.518411073156,3.608924,6,P-GPS,
255500,2023-05-16 19:01:47,52.2087987510231,0.0699891829803566,3.608924,3.608924,77.679828273156,81.518411073156,3.937008,0,4.476870222,1.74128614496,23,5,16.481,81.518411073156,3.608924,0,4.476870222,0,0,0,243, 0.2, 0.8,0,1,1024,1024,1024,1024,0,0,0,0,247.7,0,0,88,4.117,4.125,4.124,4.115,0,0,7.297,85.46,81.518411073156,3.608924,6,P-GPS,
255700,2023-05-16 19:01:47,52.2087987776051,0.0699892402863243,3.608924,3.608924,77.679828273156,81.518411073156,3.937008,0,4.4785762588,1.75735241844,23,5,16.481,81.518411073156,3.608924,0,4.4785762588,0,0,0,243, 0.1, 0.7,0,1,1024,1024,1024,1024,0,0,0,0,247.7,0,0,88,4.117,4.125,4.124,4.115,0,0,7.297,85.46,81.518411073156,3.608924,6,P-GPS,
255900,2023-05-16 19:01:47,52.2087987959688,0.0699892920840688,3.608924,3.608924,77.679828273156,81.518411073156,3.937008,0,4.4816602484,1.77073168396,23,5,16.475,81.518411073156,3.608924,0,4.4816602484,0,0,0,243, 0.2, 0.7,0,1,1024,1024,1024,1024,0,0,0,0,247.7,0,0,88,4.115,4.123,4.122,4.114,0,0,7.291,85.82,81.518411073156,3.608924,6,P-GPS,
256100,2023-05-16 19:01:47,52.2087988240474,0.0699893525801576,3.608924,3.608924,77.679828273156,81.518411073156,3.937008,0,4.4835631356,1.78770018844,23,5,16.475,81.518411073156,3.608924,0,4.4835631356,0,0,0,243, 0.2, 0.7,0,1,1024,1024,1024,1024,0,0,0,0,247.7,0,0,88,4.115,4.123,4.122,4.114,0,0,7.291,85.82,81.518411073156,3.608924,6,P-GPS,
256300,2023-05-16 19:01:47,52.2087988575649,0.0699894298412018,3.608924,3.608924,77.679828273156,81.518411073156,3.937008,0,4.486712742,1.80886488728,23,5,16.475,81.518411073156,3.608924,0,4.486712742,0,0,0,243, 0.1, 0.7,0,1,1024,1024,1024,1024,0,0,0,0,247.7,0,0,88,4.115,4.123,4.122,4.114,0,0,7.291,85.82,81.518411073156,3.608924,6,P-GPS,
256500,2023-05-16 19:01:48,52.2087989019784,0.0699895001514345,3.608924,3.608924,77.679828273156,81.518411073156,3.937008,0,4.4860237656,1.83144034732,23,5,16.475,81.518411073156,3.608924,0,4.486712742,0,0,0,243, 0.1, 0.7,0,1,1024,1024,1024,1024,0,0,0,0,247.7,0,0,88,4.115,4.123,4.122,4.114,0,0,7.291,85.82,81.518411073156,3.608924,6,P-GPS,
256700,2023-05-16 19:01:48,52.2087989427188,0.0699895611857633,3.608924,3.608924,77.679828273156,81.518411073156,3.937008,0,4.4849410884,1.85161751332,23,5,16.475,81.518411073156,3.608924,0,4.486712742,0,0,0,243, 0.1, 0.8,0,1,1024,1024,1024,1024,0,0,0,0,247.7,0,0,88,4.115,4.123,4.122,4.114,0,0,7.291,85.82,81.518411073156,3.608924,6,P-GPS,
256900,2023-05-16 19:01:48,52.2087989694722,0.0699896281424807,3.608924,3.608924,77.679828273156,81.518411073156,3.937008,0,4.4884843956,1.8694882488,23,5,16.469,81.518411073156,3.608924,0,4.4884843956,0,0,0,243, 0.2, 0.9,0,1,1024,1024,1024,1024,0,0,0,0,247.7,0,0,88,4.113,4.121,4.121,4.113,0,0,7.3,85.64,81.518411073156,3.608924,6,P-GPS,
257100,2023-05-16 19:01:48,52.2087990140035,0.0699897026572772,3.608924,3.608924,77.679828273156,81.518411073156,3.937008,0,4.4887468628,1.89275924692,23,5,16.469,81.518411073156,3.608924,0,4.4887468628,0,0,0,243.1, 0.3, 0.8,0,1,1024,1024,1024,1024,0,0,0,0,247.7,0,0,88,4.113,4.121,4.121,4.113,0,0,7.3,85.64,81.518411073156,3.608924,6,P-GPS,
257300,2023-05-16 19:01:48,52.2087990669465,0.0699897717826827,3.608924,3.608924,77.679828273156,81.518411073156,3.937008,0,4.4860893824,1.91749678052,23,5,16.469,81.518411073156,3.608924,0,4.4887468628,0,0,0,243.1, 0.2, 0.7,0,1,1024,1024,1024,1024,0,0,0,0,247.7,0,0,88,4.113,4.121,4.121,4.113,0,0,7.3,85.64,81.518411073156,3.608924,6,P-GPS,
257500,2023-05-16 19:01:49,52.2087991274845,0.0699898531224684,3.608924,3.608924,77.679828273156,81.518411073156,3.937008,0,4.483595944,1.94610898616,23,5,16.469,81.518411073156,3.608924,0,4.4887468628,0,0,0,243.1, 0.2, 0.7,0,1,1024,1024,1024,1024,0,0,0,0,247.7,0,0,88,4.113,4.121,4.121,4.113,0,0,7.3,85.64,81.518411073156,3.608924,6,P-GPS,
257700,2023-05-16 19:01:49,52.20879918141,0.0699899696654275,3.608924,3.608924,77.679828273156,81.518411073156,3.937008,0,4.4886156292,1.978756625,23,5,16.469,81.518411073156,3.608924,0,4.4887468628,0,0,0,243.1, 0.2, 0.8,0,1,1024,1024,1024,1024,0,0,0,0,247.7,0,0,88,4.113,4.121,4.121,4.113,0,0,7.3,85.64,81.518411073156,3.608924,6,P-GPS,
257900,2023-05-16 19:01:49,52.2087992326218,0.0699900803777437,3.608924,3.608924,77.679828273156,81.518411073156,3.937008,0,4.4936353144,2.00977040552,23,5,16.463,81.518411073156,3.608924,0,4.4936353144,0,0,0,243.1, 0.1, 1,0,1,1024,1024,1024,1024,0,0,0,0,247.7,0,0,88,4.111,4.12,4.12,4.111,0,0,7.335,85.82,81.518411073156,3.608924,6,P-GPS,
258100,2023-05-16 19:01:49,52.2087993089963,0.0699901623763492,3.608924,3.608924,77.679828273156,81.518411073156,3.937008,0,4.487861036,2.0431267058,23,5,16.463,81.518411073156,3.608924,0,4.4936353144,0,0,0,243.1, 0.1, 0.8,0,1,1024,1024,1024,1024,0,0,0,0,247.7,0,0,88,4.111,4.12,4.12,4.111,0,0,7.335,85.82,81.518411073156,3.608924,6,P-GPS,
258300,2023-05-16 19:01:49,52.2087993855748,0.0699902319124249,3.608924,3.608924,77.679828273156,81.518411073156,3.937008,0,4.4802494872,2.0750984916,23,5,16.463,81.518411073156,3.608924,0,4.4936353144,0,0,0,243.1, 0.1, 0.7,0,1,1024,1024,1024,1024,0,0,0,0,247.7,0,0,88,4.111,4.12,4.12,4.111,0,0,7.335,85.82,81.518411073156,3.608924,6,P-GPS,
258500,2023-05-16 19:01:50,52.2087994589654,0.0699903027879844,3.608924,3.608924,77.679828273156,81.518411073156,3.937008,0,4.4738518492,2.10621397816,23,5,16.463,81.518411073156,3.608924,0,4.4936353144,0,0,0,243.1, 0.2, 0.6,0,1,1024,1024,1024,1024,0,0,0,0,247.7,0,0,88,4.111,4.12,4.12,4.111,0,0,7.335,85.82,81.518411073156,3.608924,6,P-GPS,
258700,2023-05-16 19:01:50,52.2087995326065,0.0699903805042609,3.608924,3.5761156,77.712636673156,81.518411073156,3.937008,0,4.4687665472,2.13820872984,23,5,16.463,81.518411073156,3.608924,0,4.4936353144,0,0,0,243.1, 0.2, 0.6,0,1,1024,1024,1024,1024,0,0,0,0,247.7,0,0,88,4.111,4.12,4.12,4.111,0,0,7.335,85.82,81.518411073156,3.608924,6,P-GPS,
258900,2023-05-16 19:01:50,52.2087995866064,0.0699904804290574,3.608924,3.5761156,77.712636673156,81.518411073156,3.937008,0,4.4723426628,2.1679954762,23,5,16.458,81.518411073156,3.608924,0,4.4936353144,0,0,0,243, 0.2, 0.7,0,1,1024,1024,1024,1024,0,0,0,0,247.7,0,0,88,4.109,4.119,4.117,4.109,0,0,7.349,85.82,81.518411073156,3.608924,6,P-GPS,
259100,2023-05-16 19:01:50,52.2087996359577,0.0699905775944996,3.608924,3.5761156,77.712636673156,81.518411073156,3.937008,0,4.4767717968,2.19621398104,23,5,16.458,81.518411073156,3.608924,0,4.4936353144,0,0,0,243, 0.2, 0.9,0,1,1024,1024,1024,1024,0,0,0,0,247.7,0,0,88,4.109,4.119,4.117,4.109,0,0,7.349,85.82,81.518411073156,3.608924,6,P-GPS,
259300,2023-05-16 19:01:50,52.2087996993474,0.0699906625490568,3.608924,3.5761156,77.712636673156,81.518411073156,3.937008,0,4.4759515868,2.22614180352,23,5,16.458,81.518411073156,3.608924,0,4.4936353144,0,0,0,243.1, 0.3, 0.9,0,1,1024,1024,1024,1024,0,0,0,0,247.7,0,0,88,4.109,4.119,4.117,4.109,0,0,7.349,85.82,81.518411073156,3.608924,6,P-GPS,
259500,2023-05-16 19:01:51,52.2087997831842,0.069990755592943,3.608924,3.5761156,77.712636673156,81.518411073156,3.937008,0,4.4718833452,2.26312999368,23,5,16.458,81.518411073156,3.608924,0,4.4936353144,0,0,0,243.1, 0.3, 1,0,1,1024,1024,1024,1024,0,0,0,0,247.7,0,0,88,4.109,4.119,4.117,4.109,0,0,7.349,85.82,81.518411073156,3.608924,6,P-GPS,
259700,2023-05-16 19:01:51,52.2087998714533,0.0699908501729106,3.608924,3.5761156,77.712636673156,81.518411073156,3.937008,0,4.467355786,2.3016568978,23,5,16.458,81.518411073156,3.608924,0,4.4936353144,0,0,0,243.1, 0.3, 1,0,1,1024,1024,1024,1024,0,0,0,0,247.7,0,0,88,4.109,4.119,4.117,4.109,0,0,7.349,85.82,81.518411073156,3.608924,6,P-GPS,
259900,2023-05-16 19:01:51,52.2087999698887,0.0699909422469162,3.608924,3.5761156,77.712636673156,81.518411073156,3.937008,0,4.4603675968,2.34305453692,23,5,16.452,81.518411073156,3.608924,0,4.4936353144,0,0,0,243.1, 0.4, 0.9,0,1,1024,1024,1024,1024,0,0,0,0,247.7,0,0,87,4.108,4.118,4.117,4.109,0,0,7.404,85.82,81.518411073156,3.608924,6,P-GPS,
260100,2023-05-16 19:01:51,52.2088000821403,0.0699910257982045,3.608924,3.5761156,77.712636673156,81.518411073156,3.937008,0,4.4491143156,2.38806766172,23,5,16.452,81.518411073156,3.608924,0,4.4936353144,0,0,0,243.1, 0.3, 0.8,0,1,1024,1024,1024,1024,0,0,0,0,247.7,0,0,87,4.108,4.118,4.117,4.109,0,0,7.404,85.82,81.518411073156,3.608924,6,P-GPS,
260300,2023-05-16 19:01:52,52.2088001962237,0.0699911087404777,3.608924,3.5761156,77.712636673156,81.518411073156,3.937008,0,4.4377626092,2.43363524848,23,5,16.452,81.518411073156,3.608924,0,4.4936353144,0,0,0,243, 0.2, 0.7,0,1,1024,1024,1024,1024,0,0,0,0,247.7,0,0,87,4.108,4.118,4.117,4.109,0,0,7.404,85.82,81.518411073156,3.608924,6,P-GPS,
260500,2023-05-16 19:01:52,52.2088003034299,0.0699911846707757,3.608924,3.5761156,77.712636673156,81.518411073156,3.937008,0,4.427165496,2.47627304512,23,5,16.452,81.518411073156,3.608924,0,4.4936353144,0,0,0,243, 0.2, 0.6,0,1,1024,1024,1024,1024,0,0,0,0,247.7,0,0,87,4.108,4.118,4.117,4.109,0,0,7.404,85.82,81.518411073156,3.608924,6,P-GPS,
260700,2023-05-16 19:01:52,52.2088004001792,0.0699912610431996,3.608924,3.5761156,77.712636673156,81.518411073156,3.937008,0,4.4193242884,2.5154856448,23,5,16.452,81.518411073156,3.608924,0,4.4936353144,0,0,0,243, 0.2, 0.6,0,1,1024,1024,1024,1024,0,0,0,0,247.7,0,0,87,4.108,4.118,4.117,4.109,0,0,7.404,85.82,81.518411073156,3.608924,6,P-GPS,
260900,2023-05-16 19:01:52,52.2088004919741,0.0699913266176185,3.608924,3.5761156,77.712636673156,81.518411073156,3.937008,0,4.410925338,2.55204404492,23,5,16.45,81.518411073156,3.608924,0,4.4936353144,0,0,0,243.1, 0.1, 0.6,0,1,1024,1024,1024,1024,0,0,0,0,247.7,0,0,87,4.107,4.118,4.117,4.108,0,0,7.4,85.82,81.518411073156,3.608924,6,P-GPS,
261100,2023-05-16 19:01:52,52.2088005810009,0.0699913875025333,3.608924,3.5433072,77.745445073156,81.518411073156,3.937008,0,4.4025920044,2.58726386232,23,5,16.45,81.518411073156,3.608924,0,4.4936353144,0,0,0,243.1, 0.2, 0.7,0,1,1024,1024,1024,1024,0,0,0,0,247.7,0,0,87,4.107,4.118,4.117,4.108,0,0,7.4,85.82,81.518411073156,3.608924,6,P-GPS,
261300,2023-05-16 19:01:53,52.2088006719429,0.0699914449203431,3.608924,3.5433072,77.745445073156,81.518411073156,3.937008,0,4.3935040776,2.62284129128,23,5,16.45,81.518411073156,3.608924,0,4.4936353144,0,0,0,243.1, 0.3, 0.7,0,1,1024,1024,1024,1024,0,0,0,0,247.7,0,0,87,4.107,4.118,4.117,4.108,0,0,7.4,85.82,81.518411073156,3.608924,6,P-GPS,
261500,2023-05-16 19:01:53,52.2088007652815,0.0699915012267221,3.608924,3.5433072,77.745445073156,81.518411073156,3.937008,0,4.3839568332,2.65914706672,23,5,16.45,81.518411073156,3.608924,0,4.4936353144,0,0,0,243.1, 0.2, 0.8,0,1,1024,1024,1024,1024,0,0,0,0,247.7,0,0,87,4.107,4.118,4.117,4.108,0,0,7.4,85.82,81.518411073156,3.608924,6,P-GPS,
261700,2023-05-16 19:01:53,52.2088008574362,0.0699915602880865,3.608924,3.5433072,77.745445073156,81.518411073156,3.937008,0,4.3754594576,2.69526911512,23,5,16.45,81.518411073156,3.608924,0,4.4936353144,0,0,0,243.1, 0.2, 1,0,1,1024,1024,1024,1024,0,0,0,0,247.7,0,0,87,4.107,4.118,4.117,4.108,0,0,7.4,85.82,81.518411073156,3.608924,6,P-GPS,
261900,2023-05-16 19:01:53,52.208800935477,0.0699916053211318,3.608924,3.5433072,77.745445073156,81.518411073156,3.937008,0,4.3675526332,2.72546924732,23,5,16.446,81.518411073156,3.608924,0,4.4936353144,0,0,0,243.1, 0.1, 1.1,0,1,1024,1024,1024,1024,0,0,0,0,247.7,0,0,87,4.107,4.119,4.116,4.109,0,0,7.379,86,81.518411073156,3.608924,6,P-GPS,
262100,2023-05-16 19:01:53,52.2088010196388,0.0699916344271635,3.608924,3.5433072,77.745445073156,81.518411073156,3.937008,0,4.355643184,2.75686032444,23,5,16.446,81.518411073156,3.608924,0,4.4936353144,0,0,0,243.1, 0.2, 1.1,0,1,1024,1024,1024,1024,0,0,0,0,247.7,0,0,87,4.107,4.119,4.116,4.109,0,0,7.379,86,81.518411073156,3.608924,6,P-GPS,
262300,2023-05-16 19:01:54,52.2088011088931,0.0699916374521427,3.608924,3.5433072,77.745445073156,81.518411073156,3.937008,0,4.3380250732,2.78942922312,23,5,16.446,81.518411073156,3.608924,0,4.4936353144,0,0,0,243, 0.3, 1.1,0,1,1024,1024,1024,1024,0,0,0,0,247.7,0,0,87,4.107,4.119,4.116,4.109,0,0,7.379,86,81.518411073156,3.608924,6,P-GPS,
262500,2023-05-16 19:01:54,52.208801215853,0.0699916407488632,3.608924,3.5433072,77.745445073156,81.518411073156,3.937008,0,4.317093314,2.8284613766,23,5,16.446,81.518411073156,3.608924,0,4.4936353144,0,0,0,243.1, 0.3, 0.9,0,1,1024,1024,1024,1024,0,0,0,0,247.7,0,0,87,4.107,4.119,4.116,4.109,0,0,7.379,86,81.518411073156,3.608924,6,P-GPS,
262700,2023-05-16 19:01:54,52.2088013374806,0.0699916479390867,3.608924,3.5433072,77.745445073156,81.518411073156,3.937008,0,4.2942586676,2.872867546,23,5,16.446,81.518411073156,3.608924,0,4.4936353144,0,0,0,243, 0.2, 0.8,0,1,1024,1024,1024,1024,0,0,0,0,247.7,0,0,87,4.107,4.119,4.116,4.109,0,0,7.379,86,81.518411073156,3.608924,6,P-GPS,
262900,2023-05-16 19:01:54,52.2088014372658,0.0699916465847489,3.608924,3.5433072,77.745445073156,81.518411073156,3.937008,0,4.2744095856,2.90927502748,23,5,16.447,81.518411073156,3.608924,0,4.4936353144,0,0,0,243, 0.1, 0.7,0,1,1024,1024,1024,1024,0,0,0,0,247.7,0,0,87,4.105,4.117,4.115,4.108,0,0,7.321,86,81.518411073156,3.608924,6,P-GPS,
263100,2023-05-16 19:01:54,52.2088015367024,0.0699916351017111,3.608924,3.5433072,77.745445073156,81.518411073156,3.937008,0,4.2529200836,2.94564313888,23,5,16.447,81.518411073156,3.608924,0,4.4936353144,0,0,0,243, 0.3, 0.6,0,1,1024,1024,1024,1024,0,0,0,0,247.7,0,0,87,4.105,4.117,4.115,4.108,0,0,7.321,86,81.518411073156,3.608924,6,P-GPS,
263300,2023-05-16 19:01:54,52.2088016126475,0.0699916218003656,3.608924,3.5433072,77.745445073156,81.518411073156,3.937008,0,4.2357940988,2.97351059384,23,5,16.447,81.518411073156,3.608924,0,4.4936353144,0,0,0,243.1, 0.3, 0.7,0,1,1024,1024,1024,1024,0,0,0,0,247.7,0,0,87,4.105,4.117,4.115,4.108,0,0,7.321,86,81.518411073156,3.608924,6,P-GPS,
263500,2023-05-16 19:01:55,52.2088016706674,0.0699916209117452,3.608924,3.5433072,77.745445073156,81.518411073156,3.937008,0,4.2245408176,2.99468185436,23,5,16.447,81.518411073156,3.608924,0,4.4936353144,0,0,0,243.1, 0.3, 0.8,0,1,1024,1024,1024,1024,0,0,0,0,247.7,0,0,87,4.105,4.117,4.115,4.108,0,0,7.321,86,81.518411073156,3.608924,6,P-GPS,
263700,2023-05-16 19:01:55,52.2088017285508,0.0699916262941461,3.608924,3.5433072,77.745445073156,81.518411073156,3.937008,0,4.2145998724,3.01583342984,23,5,16.447,81.518411073156,3.608924,0,4.4936353144,0,0,0,243, 0.2, 1,0,1,1024,1024,1024,1024,0,0,0,0,247.7,0,0,87,4.105,4.117,4.115,4.108,0,0,7.321,86,81.518411073156,3.608924,6,P-GPS,
263900,2023-05-16 19:01:55,52.2088017957903,0.0699916234255711,3.608924,3.5433072,77.745445073156,81.518411073156,3.937008,0,4.2014108956,3.04037411304,23,5,16.44,81.518411073156,3.608924,0,4.4936353144,0,0,0,243, 0.3, 1.2,0,1,1024,1024,1024,1024,0,0,0,0,247.7,0,0,87,4.105,4.116,4.114,4.107,0,0,7.35,86,81.518411073156,3.608924,6,P-GPS,
264100,2023-05-16 19:01:55,52.208801874752,0.0699916115537073,3.608924,3.5433072,77.745445073156,81.518411073156,3.937008,0,4.184383336,3.06930456016,23,5,16.44,81.518411073156,3.608924,0,4.4936353144,0,0,0,243.1, 0.2, 1,0,1,1024,1024,1024,1024,0,0,0,0,247.7,0,0,87,4.105,4.116,4.114,4.107,0,0,7.35,86,81.518411073156,3.608924,6,P-GPS,
264300,2023-05-16 19:01:55,52.2088019614544,0.0699915758874376,3.608924,3.5433072,77.745445073156,81.518411073156,3.937008,0,4.1615158812,3.10192923312,23,5,16.44,81.518411073156,3.608924,0,4.4936353144,0,0,0,243.1, 0.1, 0.7,0,1,1024,1024,1024,661,0,0,0,-55,247.7,0,0,87,4.105,4.116,4.114,4.107,0,0,7.35,86,81.518411073156,3.608924,6,P-GPS,
264500,2023-05-16 19:01:56,52.2088020311714,0.0699915380210242,3.608924,3.5433072,77.745445073156,81.518411073156,3.937008,0,4.141404332,3.12873697676,23,5,16.44,81.518411073156,3.608924,0,4.4936353144,0,0,0,243, 0, 0.6,0,1,1024,1024,1024,552,0,0,0,-72,247.6,0,0,87,4.105,4.116,4.114,4.107,0,0,7.35,86,81.518411073156,3.608924,6,P-GPS,
264700,2023-05-16 19:01:56,52.208802075163,0.0699914823245341,3.608924,3.5433072,77.745445073156,81.518411073156,3.937008,0,4.1226051188,3.14905193804,23,5,16.44,81.518411073156,3.608924,0,4.4936353144,0,0,0,242.2, 0.1, 0.8,0,1,1024,1024,1024,501,0,0,0,-79,244.2,0,0,87,4.105,4.116,4.114,4.107,0,0,7.35,86,81.518411073156,3.608924,6,P-GPS,
264900,2023-05-16 19:01:56,52.2088021074227,0.0699914130715588,3.608924,3.5433072,77.745445073156,81.518411073156,3.937008,0,4.1033137796,3.16850075756,23,5,16.438,81.518411073156,3.608924,0,4.4936353144,0,0,0,237.3, 0.4, 1,0,1,1024,1024,1024,698,0,0,0,-49,238.6,0,0,87,4.103,4.114,4.113,4.106,0,0,7.347,86,81.518411073156,3.608924,6,P-GPS,
265100,2023-05-16 19:01:56,52.2088021412191,0.0699913591496882,3.608924,3.5433072,77.745445073156,81.518411073156,3.937008,0,4.0867127292,3.1857448526,23,5,16.438,81.518411073156,3.608924,0,4.4936353144,0,0,0,231.1, 0.4, 1.2,0,1,1024,1024,1024,602,0,0,0,-64,232.6,0,0,87,4.103,4.114,4.113,4.106,0,0,7.347,86,81.518411073156,3.608924,6,P-GPS,
265300,2023-05-16 19:01:56,52.2088021777227,0.0699912944070948,3.608924,3.5433072,77.745445073156,81.518411073156,3.937008,0,4.0675526236,3.2054134884,23,5,16.438,81.518411073156,3.608924,0,4.4936353144,0,0,0,226.3, 0.2, 0.9,0,1,1024,1024,1024,419,0,0,0,-92,230.5,0,0,87,4.103,4.114,4.113,4.106,0,0,7.347,86,81.518411073156,3.608924,6,P-GPS,
265500,2023-05-16 19:01:57,52.2088022172108,0.0699912235594958,3.608924,3.5433072,77.745445073156,81.518411073156,3.937008,0,4.0466536728,3.22682753108,23,5,16.438,81.518411073156,3.608924,0,4.4936353144,0,0,0,224.6, 0.3, 1.2,0,1,1024,1024,1022,451,0,0,-0,-87,224.3,0,0,87,4.103,4.114,4.113,4.106,0,0,7.347,86,81.518411073156,3.608924,6,P-GPS,
265700,2023-05-16 19:01:57,52.2088022633725,0.0699911440467556,3.608924,3.5433072,77.745445073156,81.518411073156,3.937008,0,4.0228675828,3.25131572084,23,5,16.438,81.518411073156,3.608924,0,4.4936353144,0,0,0,215.6, 0.3, 0.6,0,1,1024,1024,1024,375,0,0,0,-98,215.6,0,0,87,4.103,4.114,4.113,4.106,0,0,7.347,86,81.518411073156,3.608924,6,P-GPS,
265900,2023-05-16 19:01:57,52.2088022993321,0.0699910554346124,3.608924,3.5433072,77.745445073156,81.518411073156,3.937008,0,3.999179918,3.27507556412,22,5,16.435,81.518411073156,3.608924,0,4.4936353144,0,0,0,207.2, 0.1, 0.6,0,1,1024,1024,1024,364,0,0,0,-100,206.3,0,0,87,4.103,4.113,4.112,4.106,0,0,7.367,86,81.518411073156,3.608924,6,P-GPS,
266100,2023-05-16 19:01:57,52.2088023085801,0.0699909936942803,3.608924,3.5433072,77.745445073156,81.518411073156,3.937008,0,3.9854988152,3.2892717588,23,5,16.435,81.518411073156,3.608924,0,4.4936353144,0,0,0,196.8, 0.4, 0.5,0,1,1024,1024,1024,364,0,0,0,-100,194.7,0,0,87,4.103,4.113,4.112,4.106,0,0,7.367,86,81.518411073156,3.608924,6,P-GPS,
266300,2023-05-16 19:01:57,52.2088023283321,0.0699909215438957,3.608924,3.5433072,77.745445073156,81.518411073156,3.937008,0,3.9679135128,3.3069554864,23,5,16.435,81.518411073156,3.608924,0,4.4936353144,0,0,0,184.7, 0.4, 0.4,0,1,1024,1024,1024,364,0,0,0,-100,182.7,0,0,87,4.103,4.113,4.112,4.106,0,0,7.367,86,81.518411073156,3.608924,6,P-GPS,
266500,2023-05-16 19:01:58,52.208802356166,0.0699908346644312,3.608924,3.5433072,77.745445073156,81.518411073156,3.937008,0,3.9459975016,3.3288714976,22,5,16.435,81.518411073156,3.608924,0,4.4936353144,0,0,0,172.7, 0.4, 0.2,0,1,1024,1024,1024,364,0,0,0,-100,170.6,0,0,87,4.103,4.113,4.112,4.106,0,0,7.367,86,81.518411073156,3.608924,6,P-GPS,
266700,2023-05-16 19:01:58,52.2088023758164,0.0699907711573435,3.608924,3.5433072,77.745445073156,81.518411073156,3.937008,0,3.930118236,3.3447835716,22,5,16.435,81.518411073156,3.608924,0,4.4936353144,0,0,0,160.7, 0.4, 0,0,1,1024,1024,1016,364,0,0,-1,-100,158.6,0,0,87,4.103,4.113,4.112,4.106,0,0,7.367,86,81.518411073156,3.608924,6,P-GPS,
266900,2023-05-16 19:01:58,52.2088023604623,0.0699907336815036,3.608924,3.5433072,77.745445073156,81.518411073156,3.937008,0,3.9256234852,3.3548557504,23,5,16.43,81.518411073156,3.608924,0,4.4936353144,0,0,0,148.7, 0.4, -0.2,0,1,1024,1024,1020,364,0,0,-1,-100,146.6,0,0,87,4.103,4.113,4.111,4.103,0,0,7.363,86.18,81.518411073156,3.608924,6,P-GPS,
267100,2023-05-16 19:01:58,52.2088023082802,0.069990751258188,3.608924,3.5433072,77.745445073156,81.518411073156,3.937008,0,3.9385171864,3.3743111316,24,5,16.43,81.518411073156,3.608924,0,4.4936353144,0,0,0,136.7, 0.4, -0.4,0,1,1024,1024,1020,364,0,0,-1,-100,134.6,0,0,87,4.103,4.113,4.111,4.103,0,0,7.363,86.18,81.518411073156,3.608924,6,P-GPS,
267300,2023-05-16 19:01:58,52.2088022387801,0.0699908034561176,3.608924,3.5433072,77.745445073156,81.518411073156,3.937008,0,3.9613518328,3.4021982716,24,5,16.43,81.518411073156,3.608924,0,4.4936353144,0,0,0,124.7, 0.4, -0.6,0,1,1024,1024,1017,364,0,0,-1,-100,122.6,0,0,87,4.103,4.113,4.111,4.103,0,0,7.363,86.18,81.518411073156,3.608924,6,P-GPS,
267500,2023-05-16 19:01:59,52.2088022176188,0.0699908555797769,3.608924,3.5433072,77.745445073156,81.518411073156,3.937008,0,3.9752954028,3.41617465,24,5,16.43,81.518411073156,3.608924,0,4.4936353144,0,0,0,112.7, 0.4, -0.7,0,1,1024,1024,984,364,0,0,-6,-100,110.6,0,0,87,4.103,4.113,4.111,4.103,0,0,7.363,86.18,81.518411073156,3.608924,6,P-GPS,
267700,2023-05-16 19:01:59,52.2088022238984,0.0699909071686912,3.608924,3.5433072,77.745445073156,81.518411073156,3.937008,0,3.9841208624,3.4279528656,24,5,16.43,81.518411073156,3.608924,0,4.4936353144,0,0,0,100.7, 0.4, -0.8,0,1,1024,1024,1019,364,0,0,-1,-100,98.6,0,0,87,4.103,4.113,4.111,4.103,0,0,7.363,86.18,81.518411073156,3.608924,6,P-GPS,
267900,2023-05-16 19:01:59,52.2088022465814,0.0699909266711568,3.608924,3.5433072,77.745445073156,81.518411073156,3.937008,0,3.98375997,3.4373032596,24,5,16.425,81.518411073156,3.608924,0,4.4936353144,0,0,0,88.7, 0.3, -0.8,0,1,1024,1024,1003,364,0,0,-3,-100,86.6,0,0,87,4.102,4.111,4.11,4.102,0,0,7.433,86.18,81.518411073156,3.608924,6,P-GPS,
268100,2023-05-16 19:01:59,52.208802289749,0.0699909046976799,3.608924,3.5433072,77.745445073156,81.518411073156,3.937008,0,3.971620862,3.4538058848,24,5,16.425,81.518411073156,3.608924,0,4.4936353144,0,0,0,76.7, 0.1, -0.9,0,1,1024,1024,1009,364,0,0,-2,-100,74.6,0,0,87,4.102,4.111,4.11,4.102,0,0,7.433,86.18,81.518411073156,3.608924,6,P-GPS,
