time(millisecond),datetime(utc),latitude,longitude,height_above_takeoff(feet),height_above_ground_at_drone_location(feet),ground_elevation_at_drone_location(feet),altitude_above_seaLevel(feet),height_sonar(feet),speed(mph),distance(feet),mileage(feet),satellites,gpslevel,voltage(v),max_altitude(feet),max_ascent(feet),max_speed(mph),max_distance(feet), xSpeed(mph), ySpeed(mph), zSpeed(mph), compass_heading(degrees), pitch(degrees), roll(degrees),isPhoto,isVideo,rc_elevator,rc_aileron,rc_throttle,rc_rudder,rc_elevator(percent),rc_aileron(percent),rc_throttle(percent),rc_rudder(percent),gimbal_heading(degrees),gimbal_pitch(degrees),gimbal_roll(degrees),battery_percent,voltageCell1,voltageCell2,voltageCell3,voltageCell4,voltageCell5,voltageCell6,current(A),battery_temperature(f),altitude(feet),ascent(feet),flycStateRaw,flycState,message
100,2023-05-16 18:56:21,52.2088079687112,0.069975906044797,0,0,77.909487073156,77.909487073156,0.328084,0,0,0,20,5,0,77.909487073156,0,0,0,0,0,0,247, 4, 0.6,0,0,1024,1024,1024,1024,0,0,0,0,246.9,0,0,99,4.322,4.327,4.327,4.321,0,0,0,74.12,77.909487073156,0,41,Motors_Started,
300,2023-05-16 18:56:21,52.2088079636117,0.0699758745717321,0,0,77.909487073156,77.909487073156,0.328084,0,0.007278379498,0.007278379498,20,5,0,77.909487073156,0,0,0.007278379498,0,0,0,247, 4.1, 0.6,0,0,1024,1024,1024,1024,0,0,0,0,246.9,0,0,99,4.322,4.327,4.327,4.321,0,0,0,74.12,77.909487073156,0,41,Motors_Started,"Setting new Return-To-Home altitude to 26m (85 ft). Data Recorder File Index is 11. Setting new Maximum Flight Altitude to 120m (394 ft)"
500,2023-05-16 18:56:22,52.2088079433906,0.0699758512015398,0,0,77.909487073156,77.909487073156,0,0,0.015352198654,0.0163188653516,20,5,0,77.909487073156,0,0,0.015352198654,0,0,0,247, 4.1, 0.6,0,0,1024,1024,1024,1024,0,0,0,0,246.9,0,0,99,4.322,4.327,4.327,4.321,0,0,0,74.12,77.909487073156,0,41,Motors_Started,
700,2023-05-16 18:56:22,52.2088079105526,0.0699758072755565,0,0,77.909487073156,77.909487073156,0,0,0.0306248041296,0.0318104668972,20,5,0,77.909487073156,0,0,0.0306248041296,0,0,0,247, 4.1, 0.6,0,0,1024,1024,1024,1024,0,0,0,0,246.9,0,0,99,4.322,4.327,4.327,4.321,0,0,0,74.12,77.909487073156,0,41,Motors_Started,
900,2023-05-16 18:56:22,52.2088078877892,0.0699757644133839,0,0,77.909487073156,77.909487073156,0,0,0.04329396464,0.04449147124,20,5,17.299,77.909487073156,0,0,0.04329396464,0,0,0,246.7, 4, 0.6,0,0,1024,1024,1024,1024,0,0,0,0,246.9,0,0,99,4.322,4.327,4.327,4.321,0,0,1.38,74.12,77.909487073156,0,41,Motors_Started,
1100,2023-05-16 18:56:22,52.2088078684345,0.0699757288838586,0,0,77.909487073156,77.909487073156,0,0,0.053919949232,0.055120080504,20,5,17.299,77.909487073156,0,0,0.053919949232,0,0,0,246.8, 4, 0.6,0,0,1024,1024,1024,1024,0,0,0,0,246.9,0,0,99,4.322,4.327,4.327,4.321,0,0,1.38,74.12,77.909487073156,0,41,Motors_Started,
1300,2023-05-16 18:56:22,52.2088078347173,0.0699757009879933,0,0,77.909487073156,77.909487073156,0,0,0.06702099952,0.06891240378,20,5,17.299,77.909487073156,0,0,0.06702099952,0,0,0,246.4, 4, 0.7,0,0,1024,1024,1024,1024,0,0,0,0,246.9,0,0,99,4.322,4.327,4.327,4.321,0,0,1.38,74.12,77.909487073156,0,41,Motors_Started,
1500,2023-05-16 18:56:23,52.2088077933627,0.0699756600000495,0,0,77.909487073156,77.909487073156,0,0,0.084373690364,0.086565291484,20,5,17.299,77.909487073156,0,0,0.084373690364,0,0,0,246.3, 4, 0.7,0,0,1024,1024,1024,1024,0,0,0,0,246.9,0,0,99,4.322,4.327,4.327,4.321,0,0,1.38,74.12,77.909487073156,0,41,Motors_Started,
1700,2023-05-16 18:56:23,52.2088077592739,0.0699756025726283,0,0,77.909487073156,77.909487073156,0,0,0.102187995396,0.104440948224,20,5,17.299,77.909487073156,0,0,0.102187995396,0,0,0,246.3, 4, 0.7,0,0,1024,1024,1024,1024,0,0,0,0,246.9,0,0,99,4.322,4.327,4.327,4.321,0,0,1.38,74.12,77.909487073156,0,11,AutoTakeoff,
1900,2023-05-16 18:56:23,52.2088077279051,0.0699755412420926,0,0,77.909487073156,77.909487073156,0,0,0.119879597012,0.1223015131,20,5,17.101,77.909487073156,0,0,0.119879597012,0,0,0,246.6, 3.9, 0.7,0,0,1024,1024,1024,1024,0,0,0,0,246.9,0,0,99,4.268,4.277,4.275,4.269,0,0,3.732,74.12,77.909487073156,0,11,AutoTakeoff,
2100,2023-05-16 18:56:23,52.2088077085471,0.0699754982951646,0,0,77.909487073156,77.909487073156,0,0,0.13160761576,0.134221132904,20,5,17.101,77.909487073156,0,0,0.13160761576,0,0,-0.223694,247.9, -0.2, 1.4,0,0,1024,1024,1024,1024,0,0,0,0,246.9,0,0,99,4.268,4.277,4.275,4.269,0,0,3.732,74.12,77.909487073156,0,11,AutoTakeoff,
2300,2023-05-16 18:56:23,52.2088077311744,0.0699754007055088,0,0,77.909487073156,77.909487073156,0.328084,0,0.142392064924,0.15754921764,20,5,17.101,77.909487073156,0,0,0.142392064924,0,0,-0.894776,247.7, -0.4, 0.2,0,0,1024,1024,1024,1024,0,0,0,0,246.9,0,0,99,4.268,4.277,4.275,4.269,0,0,3.732,74.12,77.909487073156,0,11,AutoTakeoff,
2500,2023-05-16 18:56:24,52.2088077176676,0.0699752157103811,0.328084,0.328084,77.909487073156,78.237571073156,0.328084,0,0.179472774772,0.199202106112,20,5,17.101,78.237571073156,0.328084,0,0.179472774772,0,0,-1.11847,247.8, 1, -0.5,0,0,1024,1024,1024,1024,0,0,0,0,247,0,0,99,4.268,4.277,4.275,4.269,0,0,3.732,74.12,78.237571073156,0.328084,11,AutoTakeoff,
2700,2023-05-16 18:56:24,52.208807636327,0.0699751371264546,0.656168,0.656168,77.909487073156,78.565655073156,0.984252,0,0.210379927992,0.233689968108,20,5,17.101,78.565655073156,0.656168,0,0.210379927992,0,0,-0.894776,247.7, 0.8, 0.4,0,0,1024,1024,1024,1024,0,0,0,0,247,0,0,99,4.268,4.277,4.275,4.269,0,0,3.732,74.12,78.565655073156,0.656168,11,AutoTakeoff,
2900,2023-05-16 18:56:24,52.2088075108272,0.0699751017210042,0.984252,0.984252,77.909487073156,78.893739073156,1.312336,0,0.245450795256,0.28015748928,20,5,17.178,78.893739073156,0.984252,0,0.245450795256,0,0,-0.894776,247.7, 2.1, 1.6,0,0,1024,1024,1024,1024,0,0,0,0,247,0,0,99,4.27,4.273,4.268,4.258,0,0,3.476,74.12,78.893739073156,0.984252,11,AutoTakeoff,
3100,2023-05-16 18:56:24,52.2088074342026,0.0699751541884906,1.312336,1.3451444,77.876678673156,79.221823073156,1.64042,0,0.257462934748,0.310475403636,20,5,17.178,79.221823073156,1.312336,0,0.257462934748,0,0,-0.894776,247.3, 1.5, 2.5,0,0,1024,1024,1024,1024,0,0,0,0,247.1,0,0,99,4.27,4.273,4.268,4.258,0,0,3.476,74.12,79.221823073156,1.312336,11,AutoTakeoff,
3300,2023-05-16 18:56:25,52.2088074791821,0.0699753617661103,1.64042,1.6732284,77.876678673156,79.549907073156,1.968504,0,0.216118445236,0.35970145508,19,5,17.178,79.549907073156,1.64042,0,0.257462934748,0,0,-0.894776,245.9, -0.8, 2,0,0,1024,1024,1024,1024,0,0,0,0,247.1,0,0,99,4.27,4.273,4.268,4.258,0,0,3.476,74.12,79.549907073156,1.64042,11,AutoTakeoff,"Home Point updated (Code: 3000001)"
3500,2023-05-16 18:56:25,52.2088075862406,0.0699754842830101,1.968504,1.968504,77.909487073156,79.877991073156,2.296588,0,0.168416672056,0.40740814952,20,5,17.178,79.877991073156,1.968504,0,0.257462934748,0,0,-1.11847,245.8, -0.3, 0.3,0,0,1024,1024,1024,1024,0,0,0,0,247.1,0,0,99,4.27,4.273,4.268,4.258,0,0,3.476,74.12,79.877991073156,1.968504,11,AutoTakeoff,
3700,2023-05-16 18:56:25,52.2088076535058,0.0699755142894581,2.296588,2.296588,77.909487073156,80.206075073156,2.624672,0,0.144557747408,0.43285106372,20,5,17.178,80.206075073156,2.296588,0,0.257462934748,0,0,-1.11847,245.8, 0.5, 0.1,0,0,1024,1024,1024,1024,0,0,0,0,247.1,0,0,99,4.27,4.273,4.268,4.258,0,0,3.476,74.12,80.206075073156,2.296588,11,AutoTakeoff,
3900,2023-05-16 18:56:25,52.2088076770648,0.0699756272547808,2.624672,2.624672,77.909487073156,80.534159073156,2.952756,0,0.123318901584,0.45952757376,20,5,16.936,80.534159073156,2.624672,0,0.257462934748,0,0,-1.11847,245.8, -0.3, 1.7,0,0,1024,1024,1024,1024,0,0,0,0,247.1,0,0,99,4.225,4.235,4.233,4.226,0,0,6.951,73.94,80.534159073156,2.624672,11,AutoTakeoff,
4100,2023-05-16 18:56:25,52.2088077042047,0.0699757405272325,2.952756,2.952756,77.909487073156,80.862243073156,3.28084,0,0.103356630604,0.48671917568,19,5,16.936,80.862243073156,2.952756,0,0.257462934748,0,0,-1.11847,245.7, -0.6, 2.1,0,0,1024,1024,1024,1024,0,0,0,0,247.2,0,0,99,4.225,4.235,4.233,4.226,0,0,6.951,73.94,80.862243073156,2.952756,11,AutoTakeoff,
4300,2023-05-16 18:56:25,52.2088077857039,0.0699756937265579,3.28084,3.28084,77.909487073156,81.190327073156,3.608924,0,0.081923887136,0.5182414864,19,5,16.936,81.190327073156,3.28084,0,0.257462934748,0,0,-0.894776,245.8, 0.3, 0.2,0,0,1024,1024,1024,1024,0,0,0,0,247.2,0,0,99,4.225,4.235,4.233,4.226,0,0,6.951,73.94,81.190327073156,3.28084,11,AutoTakeoff,
4500,2023-05-16 18:56:26,52.2088078547981,0.0699756276226365,3.608924,3.608924,77.909487073156,81.518411073156,3.937008,0,0.07484744334,0.54746392828,19,5,16.936,81.518411073156,3.608924,0,0.257462934748,0,0,-0.447388,245.8, -0.4, 0.2,0,0,1024,1024,1024,1024,0,0,0,0,247.2,0,0,99,4.225,4.235,4.233,4.226,0,0,6.951,73.94,81.518411073156,3.608924,6,P-GPS,
4700,2023-05-16 18:56:26,52.2088078819905,0.0699756114640749,3.608924,3.608924,77.909487073156,81.518411073156,3.937008,0,0.073066603388,0.5580216714,19,5,16.936,81.518411073156,3.608924,0,0.257462934748,0,0,0,245.6, -0.4, 0.6,0,0,1024,1024,1024,1024,0,0,0,0,247.2,0,0,99,4.225,4.235,4.233,4.226,0,0,6.951,73.94,81.518411073156,3.608924,6,P-GPS,
4900,2023-05-16 18:56:26,52.208807872402,0.0699755735185856,3.608924,3.608924,77.909487073156,81.518411073156,3.937008,0,0.082229989508,0.56719818088,19,5,16.916,81.518411073156,3.608924,0,0.257462934748,0,0,0,245.4, -0.2, 0.8,0,0,1024,1024,1024,1024,0,0,0,0,247.2,0,0,99,4.224,4.233,4.231,4.225,0,0,7.339,74.12,81.518411073156,3.608924,6,P-GPS,
5100,2023-05-16 18:56:26,52.2088078661321,0.0699755279403102,3.608924,3.608924,77.909487073156,81.518411073156,3.937008,0,0.092448821856,0.57764437544,20,5,16.916,81.518411073156,3.608924,0,0.257462934748,0,0,0,245.3, 0, 0.9,0,0,1024,1024,1024,1024,0,0,0,0,247.2,0,0,99,4.224,4.233,4.231,4.225,0,0,7.339,74.12,81.518411073156,3.608924,6,P-GPS,
5300,2023-05-16 18:56:26,52.2088078731216,0.0699754758022337,3.608924,3.608924,77.909487073156,81.518411073156,3.937008,0,0.102318572828,0.58957679052,20,5,16.916,81.518411073156,3.608924,0,0.257462934748,0,0,0,245.3, 0, 0.8,0,0,1024,1024,1024,1024,0,0,0,0,247.2,0,0,99,4.224,4.233,4.231,4.225,0,0,7.339,74.12,81.518411073156,3.608924,6,P-GPS,
5500,2023-05-16 18:56:27,52.2088078843839,0.0699754132846864,3.608924,3.608924,77.909487073156,81.518411073156,3.937008,0,0.114384190012,0.60414372012,20,5,16.916,81.518411073156,3.608924,0,0.257462934748,0,0,0,245.3, 0, 0.7,0,0,1024,1024,1024,1024,0,0,0,0,247.2,0,0,99,4.224,4.233,4.231,4.225,0,0,7.339,74.12,81.518411073156,3.608924,6,P-GPS,
5700,2023-05-16 18:56:27,52.208807912977,0.0699753466918927,3.608924,3.608924,77.909487073156,81.518411073156,3.937008,0,0.12669947912,0.62232285456,20,5,16.916,81.518411073156,3.608924,0,0.257462934748,0,0,0,245.2, 0, 0.7,0,0,1024,1024,1024,1024,0,0,0,0,247.2,0,0,99,4.224,4.233,4.231,4.225,0,0,7.339,74.12,81.518411073156,3.608924,6,P-GPS,
5900,2023-05-16 18:56:27,52.2088079492439,0.0699752911618552,3.608924,3.608924,77.909487073156,81.518411073156,3.937008,0,0.137655516216,0.6404691806,20,5,16.949,81.518411073156,3.608924,0,0.257462934748,0,0,0,245.2, 0, 0.6,0,0,1024,1024,1024,1024,0,0,0,0,247.2,0,0,99,4.227,4.239,4.234,4.228,0,0,6.778,74.12,81.518411073156,3.608924,6,P-GPS,
6100,2023-05-16 18:56:27,52.208807984485,0.0699752446311744,3.608924,3.608924,77.909487073156,81.518411073156,3.937008,0,0.14798720946,0.65700789504,20,5,16.949,81.518411073156,3.608924,0,0.257462934748,0,0,0,245.2, 0.1, 0.7,0,0,1024,1024,1024,1024,0,0,0,0,247.2,0,0,99,4.227,4.239,4.234,4.228,0,0,6.778,74.12,81.518411073156,3.608924,6,P-GPS,
6300,2023-05-16 18:56:27,52.2088080137024,0.0699752028926653,3.608924,3.608924,77.909487073156,81.518411073156,3.937008,0,0.158061684848,0.67117456216,20,5,16.949,81.518411073156,3.608924,0,0.257462934748,0,0,0,245.3, 0.1, 0.7,0,0,1024,1024,1024,1024,0,0,0,0,247.2,0,0,99,4.227,4.239,4.234,4.228,0,0,6.778,74.12,81.518411073156,3.608924,6,P-GPS,
6500,2023-05-16 18:56:28,52.208808063217,0.0699751821490146,3.608924,3.608924,77.909487073156,81.518411073156,3.937008,0,0.165476711332,0.68982613756,20,5,16.949,81.518411073156,3.608924,0,0.257462934748,0,0,0,245.2, 0, 0.6,0,0,1024,1024,1024,1024,0,0,0,0,247.2,0,0,99,4.227,4.239,4.234,4.228,0,0,6.778,74.12,81.518411073156,3.608924,6,P-GPS,
6700,2023-05-16 18:56:28,52.2088080957445,0.0699751595175917,3.608924,3.608924,77.909487073156,81.518411073156,3.937008,0,0.1732201499,0.70272640044,20,5,16.949,81.518411073156,3.608924,0,0.257462934748,0,0,0,245.2, 0, 0.6,0,0,1024,1024,1024,1024,0,0,0,0,247.2,0,0,99,4.227,4.239,4.234,4.228,0,0,6.778,74.12,81.518411073156,3.608924,6,P-GPS,
6900,2023-05-16 18:56:28,52.2088081075604,0.0699751390635946,3.608924,3.608924,77.909487073156,81.518411073156,3.937008,0,0.178803811496,0.70901248988,20,5,16.905,81.518411073156,3.608924,0,0.257462934748,0,0,0,245.2, 0.1, 0.6,0,0,1309,1030,1024,1024,43,1,0,0,247.2,0,0,99,4.22,4.233,4.229,4.224,0,0,7.033,74.12,81.518411073156,3.608924,6,P-GPS,
7100,2023-05-16 18:56:28,52.2088081164421,0.0699751248980942,3.608924,3.608924,77.909487073156,81.518411073156,3.937008,0,0.182772643644,0.71354332992,20,5,16.905,81.518411073156,3.608924,0,0.257462934748,0,0,0,245.2, -0.7, 0.6,0,0,988,1024,1024,1024,-5,0,0,0,247.2,0,0,99,4.22,4.233,4.229,4.224,0,0,7.033,74.12,81.518411073156,3.608924,6,P-GPS,
7300,2023-05-16 18:56:28,52.2088080939754,0.0699750569015948,3.608924,3.608924,77.909487073156,81.518411073156,3.937008,0,0.195270347456,0.73081367168,20,5,16.905,81.518411073156,3.608924,0,0.257462934748,0,0,0,245.2, -2, 0.5,0,0,1024,1024,1024,1024,0,0,0,0,247.2,0,0,99,4.22,4.233,4.229,4.224,0,0,7.033,74.12,81.518411073156,3.608924,6,P-GPS,
7500,2023-05-16 18:56:29,52.2088080243864,0.0699748610053579,3.608924,3.608924,77.909487073156,81.518411073156,3.937008,0,0.234525598056,0.78144031372,20,5,16.905,81.518411073156,3.608924,0,0.257462934748,0,0,0,245.2, 1, 0.8,0,0,1228,929,1024,1024,31,-14,0,0,247.2,0,0,99,4.22,4.233,4.229,4.224,0,0,7.033,74.12,81.518411073156,3.608924,6,P-GPS,
7700,2023-05-16 18:56:29,52.2088079650916,0.0699747610014855,3.608924,3.608924,77.909487073156,81.518411073156,3.937008,0,0.256005913704,0.8125492386,20,5,16.905,81.518411073156,3.608924,0,0.257462934748,0,0,0,245.2, 0.6, 0.9,0,0,1403,906,1024,1024,57,-18,0,0,247.2,0,0,99,4.22,4.233,4.229,4.224,0,0,7.033,74.12,81.518411073156,3.608924,6,P-GPS,
7900,2023-05-16 18:56:29,52.2088079331307,0.0699747168627402,3.608924,3.608924,77.909487073156,81.518411073156,3.937008,0,0.266187344476,0.82782811048,20,5,16.901,81.518411073156,3.608924,0,0.266187344476,0,0,0,245.3, -3.5, 0,0,0,1457,928,1024,1024,66,-15,0,0,247.2,0,0,99,4.22,4.229,4.227,4.222,0,0,7.041,74.12,81.518411073156,3.608924,6,P-GPS,
8100,2023-05-16 18:56:29,52.2088077782346,0.0699743695414797,3.608924,3.608924,77.909487073156,81.518411073156,3.937008,0.4921268,0.35048229468,0.9238681398,20,5,16.901,81.518411073156,3.608924,0.4921268,0.35048229468,-0.223694,-0.447388,0,245.2, -11.9, 0,0,0,1030,1024,1024,1024,1,0,0,0,247.2,0,0,99,4.22,4.229,4.227,4.222,0,0,7.041,74.12,81.518411073156,3.608924,6,P-GPS,
8300,2023-05-16 18:56:29,52.2088073672726,0.0699733130810403,3.608924,3.6417324,77.876678673156,81.518411073156,3.937008,0.8052984,0.61986222456,1.20363520912,20,5,16.901,81.518411073156,3.608924,0.8052984,0.61986222456,-0.447388,-0.671082,0,245.3, 6, 0.9,0,0,1024,1024,1024,1024,0,0,0,0,247.2,0,0,99,4.22,4.229,4.227,4.222,0,0,7.041,74.12,81.518411073156,3.608924,6,P-GPS,
8500,2023-05-16 18:56:30,52.2088070331076,0.0699725826756985,3.608924,3.6417324,77.876678673156,81.518411073156,3.937008,0.3131716,0.81768047236,1.40742786656,20,5,16.901,81.518411073156,3.608924,0.8052984,0.81768047236,-0.223694,-0.223694,0,245.3, 5.9, 1.5,0,0,1078,1024,1024,1024,8,0,0,0,247.2,0,0,99,4.22,4.229,4.227,4.222,0,0,7.041,74.12,81.518411073156,3.608924,6,P-GPS,
8700,2023-05-16 18:56:30,52.208806885608,0.0699723697283476,3.608924,3.6417324,77.876678673156,81.518411073156,3.937008,0,0.88388782356,1.4792815434,20,5,16.901,81.518411073156,3.608924,0.8052984,0.88388782356,0,0,0,245.3, 2, 0.9,0,0,1410,896,1024,1024,58,-19,0,0,247.2,0,0,99,4.22,4.229,4.227,4.222,0,0,7.041,74.12,81.518411073156,3.608924,6,P-GPS,
8900,2023-05-16 18:56:30,52.2088068019971,0.0699723861665144,3.608924,3.6417324,77.876678673156,81.518411073156,3.937008,0,0.89470475304,1.51000661,20,5,16.881,81.518411073156,3.608924,0.8052984,0.89470475304,0,0,0,245.2, -4.7, 0.3,0,0,1423,1024,1024,1024,60,0,0,0,247.2,0,0,99,4.215,4.222,4.224,4.217,0,0,7.261,74.12,81.518411073156,3.608924,6,P-GPS,
9100,2023-05-16 18:56:30,52.2088066008098,0.0699720620044317,3.608924,3.6417324,77.876678673156,81.518411073156,3.937008,0.4921268,0.99382877196,1.61315950044,20,5,16.881,81.518411073156,3.608924,0.8052984,0.99382877196,-0.223694,-0.447388,0,245.3, -10.9, 0.3,0,0,1024,1024,1024,1024,0,0,0,0,247.2,0,0,99,4.215,4.222,4.224,4.217,0,0,7.261,74.12,81.518411073156,3.608924,6,P-GPS,
9300,2023-05-16 18:56:30,52.208806182884,0.0699710239918218,3.608924,3.6745408,77.843870273156,81.518411073156,3.937008,1.006623,1.27118114304,1.89084323636,20,5,16.881,81.518411073156,3.608924,1.006623,1.27118114304,-0.447388,-0.894776,0,245.6, 5.6, 0.6,0,0,1024,1024,1024,1024,0,0,0,0,247.2,0,0,99,4.215,4.222,4.224,4.217,0,0,7.261,74.12,81.518411073156,3.608924,6,P-GPS,
9500,2023-05-16 18:56:31,52.2088058362306,0.0699702792187026,3.608924,3.6745408,77.843870273156,81.518411073156,3.937008,0.3131716,1.479166714,2.09994429292,20,5,16.881,81.518411073156,3.608924,1.006623,1.479166714,-0.223694,-0.223694,0,245.6, 6.5, 1.6,0,0,1024,1024,1020,744,0,0,-1,-42,247.2,0,0,99,4.215,4.222,4.224,4.217,0,0,7.261,74.12,81.518411073156,3.608924,6,P-GPS,
9700,2023-05-16 18:56:31,52.2088056933785,0.0699700831289263,3.608924,3.6745408,77.843870273156,81.518411073156,3.937008,0,1.54401579744,2.16804796964,20,5,16.881,81.518411073156,3.608924,1.006623,1.54401579744,0,0,0,245.6, 3.2, 1.2,0,0,1024,1024,1024,364,0,0,0,-100,247.2,0,0,99,4.215,4.222,4.224,4.217,0,0,7.261,74.12,81.518411073156,3.608924,6,P-GPS,
9900,2023-05-16 18:56:31,52.2088056925925,0.0699702296219755,3.937008,4.0026248,77.843870273156,81.846495073156,3.937008,0,1.51666015352,2.2008038762,20,5,16.87,81.846495073156,3.937008,1.006623,1.54401579744,0,0,0,245.2, 1.2, 0.9,0,0,1024,1024,1019,813,0,0,-1,-32,243.3,0,0,99,4.214,4.218,4.222,4.216,0,0,7.483,74.3,81.846495073156,3.937008,6,P-GPS,
10100,2023-05-16 18:56:31,52.2088057366595,0.0699705406129039,3.937008,4.0026248,77.843870273156,81.846495073156,3.937008,0,1.449885217,2.27216542704,20,5,16.87,81.846495073156,3.937008,1.006623,1.54401579744,0,0,0,237.2, 0, 1,0,0,1024,1024,1024,1159,0,0,0,20,232.8,0,0,99,4.214,4.218,4.222,4.216,0,0,7.483,74.3,81.846495073156,3.937008,6,P-GPS,
10300,2023-05-16 18:56:31,52.2088058122272,0.0699708316015724,3.608924,3.6745408,77.843870273156,81.518411073156,3.937008,0,1.38063980796,2.34282487812,20,5,16.87,81.846495073156,3.937008,1.006623,1.54401579744,0,0,0,228.3, -0.6, 0.8,0,0,1024,1024,1024,959,0,0,0,-10,230.7,0,0,99,4.214,4.218,4.222,4.216,0,0,7.483,74.3,81.518411073156,3.608924,6,P-GPS,
10500,2023-05-16 18:56:32,52.2088058713345,0.069971050309665,3.608924,3.6745408,77.843870273156,81.518411073156,3.937008,0,1.32820870392,2.39626648088,20,5,16.87,81.846495073156,3.937008,1.006623,1.54401579744,0,0,0,228.7, -0.7, 1.1,0,0,1024,1024,1024,364,0,0,0,-100,230.5,0,0,99,4.214,4.218,4.222,4.216,0,0,7.483,74.3,81.518411073156,3.608924,6,P-GPS,
10700,2023-05-16 18:56:32,52.2088059365812,0.0699711649888805,3.608924,3.6745408,77.843870273156,81.518411073156,3.937008,0,1.29354662932,2.43125335864,20,5,16.87,81.846495073156,3.937008,1.006623,1.54401579744,0,0,0,228.5, -0.4, 0.8,0,0,1024,1024,1013,364,0,0,-2,-100,229.5,0,0,99,4.214,4.218,4.222,4.216,0,0,7.483,74.3,81.518411073156,3.608924,6,P-GPS,
10900,2023-05-16 18:56:32,52.2088059991024,0.0699712033314966,3.608924,3.6745408,77.843870273156,81.518411073156,3.937008,0,1.27352038196,2.45562343816,20,5,16.86,81.846495073156,3.937008,1.006623,1.54401579744,0,0,0,224.9, 0, 0.9,0,0,1024,1024,1013,669,0,0,-2,-54,219.9,0,0,99,4.215,4.221,4.218,4.212,0,0,7.73,74.12,81.518411073156,3.608924,6,P-GPS,
11100,2023-05-16 18:56:32,52.2088060683187,0.0699711890401738,3.608924,3.6745408,77.843870273156,81.518411073156,3.937008,0,1.26211290128,2.48107619488,20,5,16.86,81.846495073156,3.937008,1.006623,1.54401579744,0,0,0,212.5, 0, 0.9,0,0,1024,1024,1024,1194,0,0,0,26,208.2,0,0,99,4.215,4.221,4.218,4.212,0,0,7.73,74.12,81.518411073156,3.608924,6,P-GPS,
11300,2023-05-16 18:56:33,52.2088061283781,0.0699711363249746,3.608924,3.6745408,77.843870273156,81.518411073156,3.608924,0,1.26016736316,2.50595808544,20,5,16.86,81.846495073156,3.937008,1.006623,1.54401579744,0,0,0,202.6, 0.1, 0.6,0,0,1024,1024,984,661,0,0,-6,-55,204,0,0,99,4.215,4.221,4.218,4.212,0,0,7.73,74.12,81.518411073156,3.608924,6,P-GPS,
11500,2023-05-16 18:56:33,52.2088061783392,0.0699710649959303,3.608924,3.6745408,77.843870273156,81.518411073156,3.608924,0,1.26417654964,2.53017724632,20,5,16.86,81.846495073156,3.937008,1.006623,1.54401579744,0,0,0,201.6, 0.3, 0.4,0,0,1024,1024,962,402,0,0,-9,-94,203.4,0,0,99,4.215,4.221,4.218,4.212,0,0,7.73,74.12,81.518411073156,3.608924,6,P-GPS,
11700,2023-05-16 18:56:33,52.2088062235693,0.0699710050529356,3.608924,3.6745408,77.843870273156,81.518411073156,3.608924,0,1.26729662848,2.55143708952,20,5,16.86,81.846495073156,3.937008,1.006623,1.54401579744,0,0,0,200.9, 0.5, 0.7,0,0,1024,1024,911,364,0,0,-17,-100,198.9,0,0,99,4.215,4.221,4.218,4.212,0,0,7.73,74.12,81.518411073156,3.608924,6,P-GPS,
11900,2023-05-16 18:56:33,52.2088062648018,0.0699709328073104,3.608924,3.6745408,77.843870273156,81.518411073156,3.608924,0,1.27388127436,2.57351058104,20,5,16.862,81.846495073156,3.937008,1.006623,1.54401579744,0,0,0.223694,192.5, 0.6, 0.4,0,0,1024,1024,906,364,0,0,-18,-100,187.5,0,0,99,4.212,4.223,4.225,4.218,0,0,7.138,74.48,81.518411073156,3.608924,6,P-GPS,
12100,2023-05-16 18:56:33,52.2088063102578,0.0699708447203008,3.608924,3.6745408,77.843870273156,81.518411073156,3.608924,0,1.2832021408,2.59925533252,20,5,16.862,81.846495073156,3.937008,1.006623,1.54401579744,0,0,0.223694,180.1, 0.2, 0,0,0,1024,1024,913,364,0,0,-17,-100,175.4,0,0,99,4.212,4.223,4.225,4.218,0,0,7.138,74.48,81.518411073156,3.608924,6,P-GPS,
12300,2023-05-16 18:56:33,52.2088063421727,0.0699707956976383,3.28084,3.3464568,77.843870273156,81.190327073156,3.608924,0,1.28747051364,2.61524614668,20,5,16.862,81.846495073156,3.937008,1.006623,1.54401579744,0,0,0.223694,168.2, 0.1, 0,0,0,1024,1024,1024,981,0,0,0,-7,163.5,0,0,99,4.212,4.223,4.225,4.218,0,0,7.138,74.48,81.190327073156,3.28084,6,P-GPS,
12500,2023-05-16 18:56:34,52.2088063448949,0.0699707934179818,3.28084,3.3464568,77.843870273156,81.190327073156,3.28084,0,1.28746395196,2.61636163228,20,5,16.862,81.846495073156,3.937008,1.006623,1.54401579744,0,0,0.223694,156.5, 0.1, 0,0,0,1024,1024,1024,1024,0,0,0,0,155.1,0,0,99,4.212,4.223,4.225,4.218,0,0,7.138,74.48,81.190327073156,3.28084,6,P-GPS,
12700,2023-05-16 18:56:34,52.2088063474392,0.0699707760946896,3.28084,3.3464568,77.843870273156,81.190327073156,3.28084,0,1.29047904392,2.62034457204,20,5,16.862,81.846495073156,3.937008,1.006623,1.54401579744,0,0,0,151.7, 0.1, 0,0,0,1494,693,1024,1096,71,-50,0,11,153.6,0,0,99,4.212,4.223,4.225,4.218,0,0,7.138,74.48,81.190327073156,3.28084,6,P-GPS,
12900,2023-05-16 18:56:34,52.2088063653387,0.0699707432227248,3.28084,3.3464568,77.843870273156,81.190327073156,3.28084,0,1.29404859784,2.63017724952,20,5,16.852,81.846495073156,3.937008,1.006623,1.54401579744,0,0,0,151.6, -0.2, -0.2,0,0,1684,920,1024,1024,100,-16,0,0,153.4,0,0,99,4.212,4.218,4.219,4.214,0,0,6.977,74.48,81.190327073156,3.28084,6,P-GPS,
13100,2023-05-16 18:56:34,52.2088063673316,0.069970723452013,3.28084,3.3464568,77.843870273156,81.190327073156,3.28084,0,1.29766736436,2.63465559612,20,5,16.852,81.846495073156,3.937008,1.006623,1.54401579744,0,0,0,151.5, -2.7, -2.7,0,0,1684,962,1024,1024,100,-9,0,0,153.4,0,0,99,4.212,4.218,4.219,4.214,0,0,6.977,74.48,81.190327073156,3.28084,6,P-GPS,
13300,2023-05-16 18:56:34,52.2088063007078,0.0699710061163093,3.28084,3.3464568,77.843870273156,81.190327073156,3.28084,0.3131716,1.25318573564,2.70236885288,20,5,16.852,81.846495073156,3.937008,1.006623,1.54401579744,-0.223694,0.223694,0,151.4, -3.6, -1.3,0,0,1664,971,1024,1024,97,-8,0,0,153.4,0,0,99,4.212,4.218,4.219,4.214,0,0,6.977,74.48,81.190327073156,3.28084,6,P-GPS,
13500,2023-05-16 18:56:35,52.2088060703684,0.0699715758914988,3.28084,3.3464568,77.843870273156,81.190327073156,3.28084,0.6263432,1.19035764964,2.85497712548,20,5,16.852,81.846495073156,3.937008,1.006623,1.54401579744,-0.447388,0.447388,0,151.3, -6.1, -0.6,0,0,1684,1024,1024,1024,100,0,0,0,153.4,0,0,99,4.212,4.218,4.219,4.214,0,0,6.977,74.48,81.190327073156,3.28084,6,P-GPS,
13700,2023-05-16 18:56:35,52.2088055048252,0.0699725017422142,3.28084,3.3464568,77.843870273156,81.190327073156,3.28084,1.2750558,1.17788061512,3.14725075688,20,5,16.852,81.846495073156,3.937008,1.2750558,1.54401579744,-0.894776,0.894776,0,151, -9.8, -0.2,0,0,1559,941,1024,1024,81,-13,0,0,153.4,0,0,99,4.212,4.218,4.219,4.214,0,0,6.977,74.48,81.190327073156,3.28084,6,P-GPS,
13900,2023-05-16 18:56:35,52.2088044443204,0.0699739273147737,3.28084,3.3792652,77.811061873156,81.190327073156,3.28084,2.0579848,1.35984584404,3.6485565472,20,5,16.836,81.846495073156,3.937008,2.0579848,1.54401579744,-1.565858,1.342164,0,150.3, -12.3, -0.2,0,0,914,1024,1024,1024,-17,0,0,0,153.4,0,0,99,4.206,4.216,4.215,4.208,0,0,7.098,74.48,81.190327073156,3.28084,6,P-GPS,
14100,2023-05-16 18:56:35,52.2088029210292,0.0699758087281931,3.28084,3.4120736,77.778253473156,81.190327073156,3.608924,2.23694,1.84177171248,4.3455381968,20,5,16.836,81.846495073156,3.937008,2.23694,1.84177171248,-1.789552,1.342164,0,149.7, 13.6, 1.7,0,0,1024,1024,1024,1024,0,0,0,0,153.4,0,0,99,4.206,4.216,4.215,4.208,0,0,7.098,74.48,81.190327073156,3.28084,6,P-GPS,
14300,2023-05-16 18:56:36,52.2088018242179,0.0699771759580611,3.28084,3.444882,77.745445073156,81.190327073156,3.28084,1.11847,2.25972120092,4.8491143284,20,5,16.836,81.846495073156,3.937008,2.23694,2.25972120092,-0.894776,0.671082,0,149.7, 10.7, 1.3,0,0,1035,1024,1024,1024,2,0,0,0,153.4,0,0,99,4.206,4.216,4.215,4.208,0,0,7.098,74.48,81.190327073156,3.28084,6,P-GPS,
14500,2023-05-16 18:56:36,52.2088013191228,0.0699778690522681,3.28084,3.444882,77.745445073156,81.190327073156,3.28084,0.4921268,2.46547580068,5.089895176,20,5,16.836,81.846495073156,3.937008,2.23694,2.46547580068,-0.447388,0.223694,0,150.9, 7.7, 1.3,0,0,1502,1024,1024,1024,72,0,0,0,153.4,0,0,99,4.206,4.216,4.215,4.208,0,0,7.098,74.48,81.190327073156,3.28084,6,P-GPS,
14700,2023-05-16 18:56:36,52.2088011857784,0.0699781569006202,3.28084,3.444882,77.745445073156,81.190327073156,3.28084,0,2.52539706244,5.1705710316,20,5,16.836,81.846495073156,3.937008,2.23694,2.52539706244,0,0,0,150.8, 1.6, 0,0,0,1620,1024,1024,1024,90,0,0,0,153.4,0,0,99,4.206,4.216,4.215,4.208,0,0,7.098,74.48,81.190327073156,3.28084,6,P-GPS,
14900,2023-05-16 18:56:36,52.2088011145028,0.0699783773402993,3.28084,3.444882,77.745445073156,81.190327073156,3.28084,0.3131716,2.56106307408,5.2262796948,20,5,16.837,81.846495073156,3.937008,2.23694,2.56106307408,-0.223694,0.223694,0,150.6, -12, 0.3,0,0,1649,1024,1024,1024,95,0,0,0,153.4,0,0,99,4.108,4.235,4.212,4.21,0,0,7.218,74.66,81.190327073156,3.28084,6,P-GPS,
15100,2023-05-16 18:56:36,52.2088004604013,0.0699791178033475,3.28084,3.4776904,77.712636673156,81.190327073156,3.28084,1.6105968,2.83195219036,5.51673246,20,5,16.837,81.846495073156,3.937008,2.23694,2.83195219036,-1.342164,0.894776,0,149.9, -22.2, 0.2,0,0,1642,1024,1024,1024,94,0,0,0,153.4,0,0,99,4.108,4.235,4.212,4.21,0,0,7.218,74.66,81.190327073156,3.28084,6,P-GPS,
15300,2023-05-16 18:56:36,52.2087986307255,0.0699809238003527,3.28084,3.5104988,77.679828273156,81.190327073156,3.608924,3.4225182,3.5869095636,6.296916212,20,5,16.837,81.846495073156,3.937008,3.4225182,3.5869095636,-2.908022,1.789552,0,149.6, -23, 0.3,0,0,1629,1024,1024,1024,92,0,0,0,153.4,0,0,99,4.108,4.235,4.212,4.21,0,0,7.218,74.66,81.190327073156,3.28084,6,P-GPS,
15500,2023-05-16 18:56:37,52.2087955490001,0.0699839032238779,3.28084,3.5761156,77.614211473156,81.190327073156,3.608924,5.1002232,4.8713256152,7.6037732092,20,5,16.837,81.846495073156,3.937008,5.1002232,4.8713256152,-4.47388,2.460634,0,149.5, -21.6, 0.6,0,0,1622,1024,1024,1024,91,0,0,0,153.4,0,0,99,4.108,4.235,4.212,4.21,0,0,7.218,74.66,81.190327073156,3.28084,6,P-GPS,
15700,2023-05-16 18:56:37,52.2087913201543,0.0699880423299056,3.28084,3.6745408,77.515786273156,81.190327073156,3.608924,6.71082,6.6526905016,9.4029202484,20,5,16.837,81.846495073156,3.937008,6.71082,6.6526905016,-5.816044,3.35541,0,149.4, -20, 0.4,0,0,1618,1024,1024,1024,90,0,0,0,153.4,0,0,99,4.108,4.235,4.212,4.21,0,0,7.218,74.66,81.190327073156,3.28084,6,P-GPS,
15900,2023-05-16 18:56:37,52.2087861192099,0.0699931730668395,3.28084,3.8057744,77.384552673156,81.190327073156,3.608924,8.0082452,8.8573493648,11.620243154,20,5,16.786,81.846495073156,3.937008,8.0082452,8.8573493648,-6.934514,4.026492,0,148.6, -18.3, 0,0,0,1464,907,1024,1024,67,-18,0,0,153.4,0,0,99,4.195,4.207,4.199,4.19,0,0,7.69,74.66,81.190327073156,3.28084,6,P-GPS,
16100,2023-05-16 18:56:37,52.2087800805244,0.0699992588548873,3.28084,3.937008,77.253319073156,81.190327073156,3.608924,9.1267152,11.436352072,14.2097445492,20,5,16.786,81.846495073156,3.937008,9.1267152,11.436352072,-7.82929,4.697574,0,148.3, -17, 0.1,0,0,1430,948,1024,1024,62,-12,0,0,153.4,0,0,99,4.195,4.207,4.199,4.19,0,0,7.69,74.66,81.190327073156,3.28084,6,P-GPS,
16300,2023-05-16 18:56:37,52.2087733278719,0.0700062179706799,3.28084,4.10105,77.089277073156,81.190327073156,3.608924,10.2451852,14.3409781492,17.1235897868,20,5,16.786,81.846495073156,3.937008,10.2451852,14.3409781492,-8.724066,5.368656,0,148.3, -12.5, -0.1,0,0,1432,950,1024,1024,62,-11,0,0,153.4,0,0,99,4.195,4.207,4.199,4.19,0,0,7.69,74.66,81.190327073156,3.28084,6,P-GPS,
16500,2023-05-16 18:56:38,52.2087660587838,0.0700138956247563,3.28084,4.265092,76.925235073156,81.190327073156,3.608924,10.737312,17.4913719508,20.2827434312,20,5,16.786,81.846495073156,3.937008,10.737312,17.4913719508,-9.171454,5.59235,0,148.3, -9, -0.1,0,0,989,1024,1024,1024,-5,0,0,0,153.4,0,0,99,4.195,4.207,4.199,4.19,0,0,7.69,74.66,81.190327073156,3.28084,6,P-GPS,
16700,2023-05-16 18:56:38,52.2087585258671,0.0700220785272492,3.28084,4.4619424,76.728384673156,81.190327073156,3.608924,11.2294388,20.7840557832,23.5843511484,20,5,16.786,81.846495073156,3.937008,11.2294388,20.7840557832,-9.618842,5.816044,0,148.2, -4.8, -0.7,0,0,1024,1024,1024,1024,0,0,0,0,153.4,0,0,99,4.195,4.207,4.199,4.19,0,0,7.69,74.66,81.190327073156,3.28084,6,P-GPS,
16900,2023-05-16 18:56:38,52.2087511383009,0.0700303354622195,3.28084,4.6259844,76.564342673156,81.190327073156,3.608924,10.5583568,24.0417658612,26.8512803868,20,5,16.776,81.846495073156,3.937008,11.2294388,24.0417658612,-8.94776,5.59235,0,148.4, 25.6, 0.5,0,0,1024,1024,1024,1024,0,0,0,0,153.4,0,0,99,4.196,4.205,4.203,4.198,0,0,7.89,74.66,81.190327073156,3.28084,6,P-GPS,
17100,2023-05-16 18:56:38,52.2087450731286,0.0700373261768993,3.28084,4.7900264,76.400300673156,81.190327073156,3.608924,7.941137,26.7423236904,29.5604668252,20,5,16.776,81.846495073156,3.937008,11.2294388,26.7423236904,-6.71082,4.250186,0,148.6, 32.4, 0.7,0,0,1024,1024,1024,1024,0,0,0,0,153.4,0,0,99,4.196,4.205,4.203,4.198,0,0,7.89,74.66,81.190327073156,3.28084,6,P-GPS,
17300,2023-05-16 18:56:38,52.2087409533722,0.0700423669071589,3.28084,4.8556432,76.334683873156,81.190327073156,3.608924,5.2120702,28.6114510468,31.4391086176,20,5,16.776,81.846495073156,3.937008,11.2294388,28.6114510468,-4.47388,2.684328,0,148.4, 28, 0.9,0,0,1024,1024,1024,1024,0,0,0,0,153.4,0,0,99,4.196,4.205,4.203,4.198,0,0,7.89,74.66,81.190327073156,3.28084,6,P-GPS,
17500,2023-05-16 18:56:39,52.2087386132319,0.0700456246856738,3.28084,4.92126,76.269067073156,81.190327073156,3.608924,2.796175,29.7199156492,32.5613855564,20,5,16.776,81.846495073156,3.937008,11.2294388,29.7199156492,-2.460634,1.342164,0,148.4, 22.4, 0.2,0,0,1024,1024,1024,1024,0,0,0,0,153.4,0,0,99,4.196,4.205,4.203,4.198,0,0,7.89,74.66,81.190327073156,3.28084,6,P-GPS,
17700,2023-05-16 18:56:39,52.20873759936,0.0700475220309124,3.28084,4.9540684,76.236258673156,81.190327073156,3.608924,1.2079476,30.2578093672,33.124344892,20,5,16.776,81.846495073156,3.937008,11.2294388,30.2578093672,-1.11847,0.447388,0,148.6, 12.4, 0,0,0,1024,1024,1024,1024,0,0,0,0,153.4,0,0,99,4.196,4.205,4.203,4.198,0,0,7.89,74.66,81.190327073156,3.28084,6,P-GPS,
17900,2023-05-16 18:56:39,52.2087373461866,0.0700485975953798,3.28084,4.9540684,76.236258673156,81.190327073156,3.608924,0.4921268,30.4638133108,33.381890832,20,5,16.845,81.846495073156,3.937008,11.2294388,30.4638133108,-0.447388,0.223694,0,148.7, 6.5, -0.1,0,0,1024,1024,1024,1024,0,0,0,0,153.4,0,0,99,4.197,4.19,4.196,4.186,0,0,7.147,74.84,81.190327073156,3.28084,6,P-GPS,
18100,2023-05-16 18:56:39,52.2087374518336,0.0700492328584855,3.28084,4.9540684,76.236258673156,81.190327073156,3.937008,0.223694,30.5073172492,33.528872464,20,5,16.845,81.846495073156,3.937008,11.2294388,30.5073172492,-0.223694,0,0,148.1, 3, 0,0,0,1024,1024,1024,1024,0,0,0,0,153.4,0,0,99,4.197,4.19,4.196,4.186,0,0,7.147,74.84,81.190327073156,3.28084,6,P-GPS,
18300,2023-05-16 18:56:39,52.2087376714548,0.0700496209365785,3.28084,4.9540684,76.236258673156,81.190327073156,3.937008,0,30.4865823404,33.646982704,20,5,16.845,81.846495073156,3.937008,11.2294388,30.5073172492,0,0,0,148.1, 1.2, 0,0,0,1024,1024,1024,1024,0,0,0,0,153.4,0,0,99,4.197,4.19,4.196,4.186,0,0,7.147,74.84,81.190327073156,3.28084,6,P-GPS,
18500,2023-05-16 18:56:40,52.2087378800504,0.0700498399373829,3.28084,4.9540684,76.236258673156,81.190327073156,3.937008,0,30.449147956,33.737533888,20,5,16.845,81.846495073156,3.937008,11.2294388,30.5073172492,0,0,0,148.3, 0.7, -0.1,0,0,1024,1024,1024,1024,0,0,0,0,153.4,0,0,99,4.197,4.19,4.196,4.186,0,0,7.147,74.84,81.190327073156,3.28084,6,P-GPS,
18700,2023-05-16 18:56:40,52.2087380430915,0.0700499658855633,3.28084,4.9540684,76.236258673156,81.190327073156,3.937008,0,30.4145022856,33.803478772,20,5,16.845,81.846495073156,3.937008,11.2294388,30.5073172492,0,0,0,148.3, 0.5, -0.1,0,0,1024,1024,1024,1024,0,0,0,0,153.4,0,0,99,4.197,4.19,4.196,4.186,0,0,7.147,74.84,81.190327073156,3.28084,6,P-GPS,
18900,2023-05-16 18:56:40,52.2087381688965,0.0700500280208378,3.28084,4.9540684,76.236258673156,81.190327073156,3.937008,0,30.3835967728,33.851379036,20,5,16.762,81.846495073156,3.937008,11.2294388,30.5073172492,0,0,0,148.3, 0.6, 0.1,0,0,1024,1024,1024,1024,0,0,0,0,153.4,0,0,98,4.197,4.206,4.205,4.201,0,0,8.17,74.84,81.190327073156,3.28084,6,P-GPS,
19100,2023-05-16 18:56:40,52.2087382563346,0.0700499840668941,3.28084,4.9540684,76.236258673156,81.190327073156,3.937008,0,30.3515101576,33.884843604,20,5,16.762,81.846495073156,3.937008,11.2294388,30.5073172492,0,0,0,148.3, 0.7, 0.1,0,0,1024,1024,1024,1024,0,0,0,0,153.4,0,0,98,4.197,4.206,4.205,4.201,0,0,8.17,74.84,81.190327073156,3.28084,6,P-GPS,
19300,2023-05-16 18:56:41,52.2087383408086,0.0700498767194522,3.28084,4.9540684,76.236258673156,81.190327073156,3.937008,0,30.3125665868,33.9238856,20,5,16.762,81.846495073156,3.937008,11.2294388,30.5073172492,0,0,0,148.3, 0.7, 0.2,0,0,1024,1024,1024,1024,0,0,0,0,153.4,0,0,98,4.197,4.206,4.205,4.201,0,0,8.17,74.84,81.190327073156,3.28084,6,P-GPS,
19500,2023-05-16 18:56:41,52.2087383987038,0.0700496928650266,3.28084,4.9540684,76.236258673156,81.190327073156,3.608924,0,30.2724419136,33.970145444,20,5,16.762,81.846495073156,3.937008,11.2294388,30.5073172492,0,0,0,148.2, 0.7, 0.2,0,0,1024,1024,1024,1024,0,0,0,0,153.4,0,0,98,4.197,4.206,4.205,4.201,0,0,8.17,74.84,81.190327073156,3.28084,6,P-GPS,
19700,2023-05-16 18:56:41,52.2087384311166,0.0700494699008179,3.28084,4.9540684,76.236258673156,81.190327073156,3.937008,0,30.23540123,34.021326548,20,5,16.762,81.846495073156,3.937008,11.2294388,30.5073172492,0,0,0,148.2, 0.7, 0.1,0,0,1024,1024,1069,1024,0,0,7,0,153.4,0,0,98,4.197,4.206,4.205,4.201,0,0,8.17,74.84,81.190327073156,3.28084,6,P-GPS,
19900,2023-05-16 18:56:41,52.2087384616405,0.0700492241837329,3.28084,4.9540684,76.236258673156,81.190327073156,3.937008,0,30.196195192,34.077428912,20,5,16.809,81.846495073156,3.937008,11.2294388,30.5073172492,0,0,0,148.2, 0.7, 0,0,0,1024,1024,1112,1024,0,0,13,0,153.4,0,0,98,4.198,4.206,4.205,4.201,0,0,7.169,74.84,81.190327073156,3.28084,6,P-GPS,
20100,2023-05-16 18:56:41,52.2087384864203,0.0700489569929654,3.28084,4.9540684,76.236258673156,81.190327073156,3.937008,0,30.1562017524,34.137796368,20,5,16.809,81.846495073156,3.937008,11.2294388,30.5073172492,0,0,0,148.2, 0.5, 0,0,0,1024,1024,1534,1024,0,0,77,0,153.4,0,0,98,4.198,4.206,4.205,4.201,0,0,7.169,74.84,81.190327073156,3.28084,6,P-GPS,
20300,2023-05-16 18:56:41,52.2087385034427,0.0700486712853409,3.28084,4.92126,76.269067073156,81.190327073156,3.937008,0,30.1164379716,34.201772748,20,5,16.809,81.846495073156,3.937008,11.2294388,30.5073172492,0,0,-0.447388,148.3, 0.3, -0.3,0,0,1024,1024,1511,1024,0,0,74,0,153.4,0,0,98,4.198,4.206,4.205,4.201,0,0,7.169,74.84,81.190327073156,3.28084,6,P-GPS,
20500,2023-05-16 18:56:42,52.2087385300301,0.0700484000962184,3.608924,5.249344,76.269067073156,81.518411073156,4.265092,0,30.0755587052,34.263124456,20,5,16.809,81.846495073156,3.937008,11.2294388,30.5073172492,0,0,-2.460634,148.4, 0.3, -0.3,0,0,1024,1024,1069,1024,0,0,7,0,153.4,0,0,98,4.198,4.206,4.205,4.201,0,0,7.169,74.84,81.518411073156,3.608924,6,P-GPS,
20700,2023-05-16 18:56:42,52.2087385491343,0.0700482072315139,4.92126,6.56168,76.269067073156,82.830747073156,5.249344,0,30.0464576544,34.307087712,20,5,16.809,82.830747073156,4.92126,11.2294388,30.5073172492,0,0,-3.802798,148.2, 0.2, -0.1,0,0,1024,1024,1024,1024,0,0,0,0,153.4,0,0,98,4.198,4.206,4.205,4.201,0,0,7.169,74.84,82.830747073156,4.92126,6,P-GPS,
20900,2023-05-16 18:56:42,52.2087385686712,0.0700480069083396,5.577428,7.217848,76.269067073156,83.486915073156,6.233596,0,30.0163723516,34.352363304,20,5,16.804,83.486915073156,5.577428,11.2294388,30.5073172492,0,0,-2.013246,148.2, 1, -0.4,0,0,1024,1024,1171,1032,0,0,22,1,153.4,0,0,98,4.196,4.202,4.196,4.191,0,0,7.174,75.02,83.486915073156,5.577428,6,P-GPS,
21100,2023-05-16 18:56:42,52.2087385650945,0.070047783412881,5.905512,7.545932,76.269067073156,83.814999073156,6.56168,0,29.9906833744,34.402232072,20,5,16.804,83.814999073156,5.905512,11.2294388,30.5073172492,0,0,-0.447388,148.2, 0.9, -0.3,0,0,1024,1024,1471,1126,0,0,68,15,153.4,0,0,98,4.196,4.202,4.196,4.191,0,0,7.174,75.02,83.814999073156,5.905512,6,P-GPS,
21300,2023-05-16 18:56:42,52.2087385669321,0.0700475933651993,6.233596,7.874016,76.269067073156,84.143083073156,6.889764,0,29.967356602,34.444882992,20,5,16.804,84.143083073156,6.233596,11.2294388,30.5073172492,0,0,-0.671082,148.4, 0.7, -0.2,0,0,1024,1024,1422,1104,0,0,60,12,153.4,0,0,98,4.196,4.202,4.196,4.191,0,0,7.174,75.02,84.143083073156,6.233596,6,P-GPS,
21500,2023-05-16 18:56:43,52.20873857905,0.0700474427977775,6.56168,8.2021,76.269067073156,84.471167073156,7.217848,0,29.9456374412,34.478675644,20,5,16.804,84.471167073156,6.56168,11.2294388,30.5073172492,0,0,-2.684328,148.4, 0.6, 0,0,0,1024,1024,1420,1098,0,0,60,11,153.5,0,0,98,4.196,4.202,4.196,4.191,0,0,7.174,75.02,84.471167073156,6.56168,6,P-GPS,
21700,2023-05-16 18:56:43,52.2087386019536,0.0700473201349586,7.874016,9.514436,76.269067073156,85.783503073156,8.530184,0,29.9239182804,34.507547036,20,5,16.804,85.783503073156,7.874016,11.2294388,30.5073172492,0,0,-4.026492,148.4, 0.8, 0,0,0,1024,1024,1024,1024,0,0,0,0,153.7,0,0,98,4.196,4.202,4.196,4.191,0,0,7.174,75.02,85.783503073156,7.874016,6,P-GPS,
21900,2023-05-16 18:56:43,52.2087386306442,0.070047158641962,9.186352,10.826772,76.269067073156,87.095839073156,9.84252,0,29.89583429,34.544948612,20,5,16.487,87.095839073156,9.186352,11.2294388,30.5073172492,0,0,-4.250186,148.5, 0.5, 0,0,0,1024,1024,1024,1024,0,0,0,0,153.8,0,0,98,4.22,4.222,4.217,4.21,0,0,9.219,74.84,87.095839073156,9.186352,6,P-GPS,
22100,2023-05-16 18:56:43,52.2087386517402,0.0700470348677124,10.170604,11.811024,76.269067073156,88.080091073156,10.826772,0,29.8745744468,34.573820004,20,5,16.487,88.080091073156,10.170604,11.2294388,30.5073172492,0,0,-2.684328,148.6, 0.4, 0,0,0,1024,1024,1024,1024,0,0,0,0,153.8,0,0,98,4.22,4.222,4.217,4.21,0,0,9.219,74.84,88.080091073156,10.170604,6,P-GPS,
22300,2023-05-16 18:56:43,52.2087386302372,0.0700469605905803,10.498688,12.139108,76.269067073156,88.408175073156,11.154856,0,29.872376284,34.592192708,20,5,16.487,88.408175073156,10.498688,11.2294388,30.5073172492,0,0,-0.671082,148.6, 0.3, 0,0,0,1024,1024,1024,1024,0,0,0,0,153.8,0,0,98,4.22,4.222,4.217,4.21,0,0,9.219,74.84,88.408175073156,10.498688,6,P-GPS,
22500,2023-05-16 18:56:44,52.2087385839502,0.0700468266946209,10.826772,12.467192,76.269067073156,88.736259073156,11.154856,0,29.8707686724,34.626313444,20,5,16.487,88.736259073156,10.826772,11.2294388,30.5073172492,0,0,0,148.7, 0.4, 0,0,0,1024,1024,1060,1024,0,0,5,0,153.8,0,0,98,4.22,4.222,4.217,4.21,0,0,9.219,74.84,88.736259073156,10.826772,6,P-GPS,
22700,2023-05-16 18:56:44,52.2087385543816,0.0700466920716879,10.826772,12.467192,76.269067073156,88.736259073156,11.154856,0,29.8639445252,34.658465676,20,5,16.487,88.736259073156,10.826772,11.2294388,30.5073172492,0,0,0,148.7, 0.5, -0.1,0,0,1024,1024,1246,1024,0,0,34,0,153.8,0,0,98,4.22,4.222,4.217,4.21,0,0,9.219,74.84,88.736259073156,10.826772,6,P-GPS,
22900,2023-05-16 18:56:44,52.2087385381558,0.0700465756440659,10.826772,12.467192,76.269067073156,88.736259073156,11.154856,0,29.8551846824,34.68504048,20,5,16.556,88.736259073156,10.826772,11.2294388,30.5073172492,0,0,0,148.7, 0.4, 0.1,0,0,1024,1024,1457,1051,0,0,66,4,153.8,0,0,98,4.233,4.239,4.238,4.233,0,0,8.448,75.02,88.736259073156,10.826772,6,P-GPS,
23100,2023-05-16 18:56:44,52.2087385415869,0.0700464473961324,10.826772,12.467192,76.269067073156,88.736259073156,11.48294,0,29.8389773328,34.713911872,20,5,16.556,88.736259073156,10.826772,11.2294388,30.5073172492,0,0,-0.894776,148.8, 0.3, 0,0,0,1024,1024,1292,1024,0,0,41,0,153.8,0,0,98,4.233,4.239,4.238,4.233,0,0,8.448,75.02,88.736259073156,10.826772,6,P-GPS,
23300,2023-05-16 18:56:44,52.2087385641179,0.0700463333591352,11.48294,13.12336,76.269067073156,89.392427073156,12.139108,0,29.8185048912,34.740486676,20,5,16.556,89.392427073156,11.48294,11.2294388,30.5073172492,0,0,-3.131716,148.8, 0.6, 0,0,0,1024,1024,1045,1024,0,0,3,0,153.8,0,0,98,4.233,4.239,4.238,4.233,0,0,8.448,75.02,89.392427073156,11.48294,6,P-GPS,
23500,2023-05-16 18:56:45,52.2087385861776,0.0700462349730413,12.467192,14.107612,76.269067073156,90.376679073156,13.12336,0,29.8000665704,34.764108724,20,5,16.556,90.376679073156,12.467192,11.2294388,30.5073172492,0,0,-3.131716,148.6, 0.8, 0,0,0,1024,1024,1085,1024,0,0,9,0,153.8,0,0,98,4.233,4.239,4.238,4.233,0,0,8.448,75.02,90.376679073156,12.467192,6,P-GPS,
23700,2023-05-16 18:56:45,52.2087385959996,0.070046169859971,13.12336,14.76378,76.269067073156,91.032847073156,13.779528,0,29.7893382236,34.779200588,20,5,16.556,91.032847073156,13.12336,11.2294388,30.5073172492,0,0,-1.11847,148.6, 1.1, -0.3,0,0,1024,1024,1391,1070,0,0,56,7,153.8,0,0,98,4.233,4.239,4.238,4.233,0,0,8.448,75.02,91.032847073156,13.12336,6,P-GPS,
23900,2023-05-16 18:56:45,52.2087386165944,0.0700461339167174,13.451444,15.091864,76.269067073156,91.360931073156,14.107612,0,29.7787411104,34.79002736,20,5,16.82,91.360931073156,13.451444,11.2294388,30.5073172492,0,0,-0.447388,148.7, 0.8, -0.1,0,0,1024,1024,1446,1034,0,0,64,2,153.8,0,0,98,4.152,4.142,4.141,4.134,0,0,5.906,75.2,91.360931073156,13.451444,6,P-GPS,
24100,2023-05-16 18:56:45,52.2087386862391,0.0700460607230557,13.779528,15.419948,76.269067073156,91.689015073156,14.435696,0,29.7484917656,34.820211088,20,5,16.82,91.689015073156,13.779528,11.2294388,30.5073172492,0,0,-2.23694,148.8, 0.6, 0,0,0,1024,1024,1366,1027,0,0,52,0,153.9,0,0,98,4.152,4.142,4.141,4.134,0,0,5.906,75.2,91.689015073156,13.779528,6,P-GPS,
24300,2023-05-16 18:56:45,52.2087387539091,0.070045966614922,14.76378,16.4042,76.269067073156,92.673267073156,15.419948,0,29.7164379588,34.852691404,20,5,16.82,92.673267073156,14.76378,11.2294388,30.5073172492,0,0,-4.026492,148.7, 0.7, 0,0,0,1024,1024,1024,1024,0,0,0,0,153.9,0,0,98,4.152,4.142,4.141,4.134,0,0,5.906,75.2,92.673267073156,14.76378,6,P-GPS,
24500,2023-05-16 18:56:46,52.2087388072167,0.0700459234229025,15.748032,17.388452,76.269067073156,93.657519073156,16.4042,0,29.6948172232,34.874344948,20,5,16.82,93.657519073156,15.748032,11.2294388,30.5073172492,0,0,-2.23694,148.6, 0.8, -0.1,0,0,1024,1024,1165,1024,0,0,21,0,153.9,0,0,98,4.152,4.142,4.141,4.134,0,0,5.906,75.2,93.657519073156,15.748032,6,P-GPS,
24700,2023-05-16 18:56:46,52.208738826655,0.0700459053813744,16.4042,18.04462,76.269067073156,94.313687073156,16.732284,0,29.68668074,34.882547048,20,5,16.82,94.313687073156,16.4042,11.2294388,30.5073172492,0,0,-0.671082,148.7, 0.6, 0,0,0,1024,1024,1351,1045,0,0,50,3,153.9,0,0,98,4.152,4.142,4.141,4.134,0,0,5.906,75.2,94.313687073156,16.4042,6,P-GPS,
24900,2023-05-16 18:56:46,52.2087388366183,0.070045902536391,16.4042,18.04462,76.269067073156,94.313687073156,17.060368,0,29.683235858,34.886155972,20,5,16.884,94.313687073156,16.4042,11.2294388,30.5073172492,0,0,-0.671082,148.8, 0.5, 0,0,0,1024,1024,1570,1061,0,0,83,6,153.9,0,0,98,4.136,4.143,4.141,4.128,0,0,8.104,75.38,94.313687073156,16.4042,6,P-GPS,
25100,2023-05-16 18:56:46,52.2087388723723,0.0700458913032505,17.060368,18.700788,76.269067073156,94.969855073156,17.716536,0,29.6708342828,34.899607416,20,5,16.884,94.969855073156,17.060368,11.2294388,30.5073172492,0,0,-2.684328,148.8, 0.6, 0,0,0,1024,1024,1024,1024,0,0,0,0,154,0,0,98,4.136,4.143,4.141,4.128,0,0,8.104,75.38,94.969855073156,17.060368,6,P-GPS,
25300,2023-05-16 18:56:46,52.2087388794828,0.0700458557095034,18.04462,19.68504,76.269067073156,95.954107073156,18.700788,0,29.6644366448,34.907809516,20,5,16.884,95.954107073156,18.04462,11.2294388,30.5073172492,0,0,-4.921268,149, 0.8, 0.1,0,0,1024,1024,1024,1024,0,0,0,0,154.1,0,0,98,4.136,4.143,4.141,4.128,0,0,8.104,75.38,95.954107073156,18.04462,6,P-GPS,
25500,2023-05-16 18:56:47,52.2087388513876,0.0700458495442079,19.356956,20.997376,76.269067073156,97.266443073156,20.013124,0,29.672409086,34.918308204,20,5,16.884,97.266443073156,19.356956,11.2294388,30.5073172492,0,0,-3.802798,148.9, 0.9, 0.1,0,0,1024,1024,1024,1024,0,0,0,0,154.1,0,0,98,4.136,4.143,4.141,4.128,0,0,8.104,75.38,97.266443073156,19.356956,6,P-GPS,
25700,2023-05-16 18:56:47,52.2087388076793,0.0700458588410821,20.341208,21.981628,76.269067073156,98.250695073156,20.997376,0,29.6870744408,34.93438432,20,5,16.884,98.250695073156,20.341208,11.2294388,30.5073172492,0,0,-1.565858,148.9, 0.5, -0.2,0,0,1024,1024,1024,1024,0,0,0,0,154.1,0,0,98,4.136,4.143,4.141,4.128,0,0,8.104,75.38,98.250695073156,20.341208,6,P-GPS,
25900,2023-05-16 18:56:47,52.208738773296,0.0700458592395196,20.341208,21.981628,76.269067073156,98.250695073156,21.32546,0,29.6977699792,34.946851512,20,5,16.904,98.250695073156,20.341208,11.2294388,30.5073172492,0,0,-0.223694,149, 0.2, -0.4,0,0,1024,1024,1024,1024,0,0,0,0,154.1,0,0,98,4.133,4.139,4.131,4.115,0,0,7.955,75.38,98.250695073156,20.341208,6,P-GPS,
26100,2023-05-16 18:56:47,52.2087387385186,0.070045893302428,20.669292,22.309712,76.269067073156,98.578779073156,21.32546,0,29.7125665676,34.961615292,20,5,16.904,98.578779073156,20.669292,11.2294388,30.5073172492,0,0,0,148.9, 0.4, -0.2,0,0,1024,1024,1024,1024,0,0,0,0,154.1,0,0,98,4.133,4.139,4.131,4.115,0,0,7.955,75.38,98.578779073156,20.669292,6,P-GPS,
26300,2023-05-16 18:56:48,52.2087386942406,0.070045962721419,20.341208,21.981628,76.269067073156,98.250695073156,21.32546,0,29.7344825788,34.984253088,20,5,16.904,98.578779073156,20.669292,11.2294388,30.5073172492,0,0,0,149, 0.5, -0.1,0,0,1024,1024,1024,1024,0,0,0,0,154.1,0,0,98,4.133,4.139,4.131,4.115,0,0,7.955,75.38,98.250695073156,20.341208,6,P-GPS,
26500,2023-05-16 18:56:48,52.2087386589663,0.0700460352789788,20.341208,21.981628,76.269067073156,98.250695073156,21.32546,0,29.7539707684,35.00492238,20,5,16.904,98.578779073156,20.669292,11.2294388,30.5073172492,0,0,0,149, 0.5, 0.1,0,0,1024,1024,1024,1024,0,0,0,0,154.1,0,0,98,4.133,4.139,4.131,4.115,0,0,7.955,75.38,98.250695073156,20.341208,6,P-GPS,
26700,2023-05-16 18:56:48,52.2087386568889,0.0700460648052922,20.341208,21.981628,76.269067073156,98.250695073156,21.32546,0,29.7580718184,35.01148406,20,5,16.904,98.578779073156,20.669292,11.2294388,30.5073172492,0,0,0,149, 0.2, 0.1,0,0,1024,1024,1024,1024,0,0,0,0,154.1,0,0,98,4.133,4.139,4.131,4.115,0,0,7.955,75.38,98.250695073156,20.341208,6,P-GPS,
26900,2023-05-16 18:56:48,52.2087386599044,0.0700460743957519,20.341208,21.981628,76.269067073156,98.250695073156,21.32546,0,29.7582686688,35.013780648,20,5,16.921,98.578779073156,20.669292,11.2294388,30.5073172492,0,0,0,149, 0.1, 0,0,0,1024,1024,1024,1024,0,0,0,0,154.1,0,0,98,4.197,4.204,4.204,4.197,0,0,8.446,75.38,98.250695073156,20.341208,6,P-GPS,
27100,2023-05-16 18:56:48,52.208738645345,0.0700460883061126,20.341208,21.981628,76.269067073156,98.250695073156,21.32546,0,29.764436648,35.020014244,20,5,16.921,98.578779073156,20.669292,11.2294388,30.5073172492,0,0,0,149, 0.1, -0.1,0,0,1024,1024,1024,1024,0,0,0,0,154.1,0,0,98,4.197,4.204,4.204,4.197,0,0,8.446,75.38,98.250695073156,20.341208,6,P-GPS,
27300,2023-05-16 18:56:49,52.2087385973275,0.0700461200552876,20.341208,21.981628,76.269067073156,98.250695073156,21.32546,0,29.7830718192,35.039043116,20,5,16.921,98.578779073156,20.669292,11.2294388,30.5073172492,0,0,0,149, 0.4, -0.2,0,0,1024,1024,1024,1024,0,0,0,0,154.1,0,0,98,4.197,4.204,4.204,4.197,0,0,8.446,75.38,98.250695073156,20.341208,6,P-GPS,
27500,2023-05-16 18:56:49,52.2087385360398,0.0700461719430301,20.341208,21.981628,76.269067073156,98.250695073156,21.32546,0,29.8081702452,35.0639775,20,5,16.921,98.578779073156,20.669292,11.2294388,30.5073172492,0,0,0,148.9, 0.7, -0.1,0,0,1024,1024,1024,1024,0,0,0,0,154.1,0,0,98,4.197,4.204,4.204,4.197,0,0,8.446,75.38,98.250695073156,20.341208,6,P-GPS,
27700,2023-05-16 18:56:49,52.2087384930596,0.0700462135762503,20.341208,22.0144364,76.236258673156,98.250695073156,21.32546,0,29.8264117156,35.082350204,20,5,16.921,98.578779073156,20.669292,11.2294388,30.5073172492,0,0,0,149, 0.9, 0,0,0,1024,1024,1024,1024,0,0,0,0,154.1,0,0,98,4.197,4.204,4.204,4.197,0,0,8.446,75.38,98.250695073156,20.341208,6,P-GPS,
27900,2023-05-16 18:56:49,52.2087384647974,0.0700462458217246,20.341208,22.0144364,76.236258673156,98.250695073156,21.32546,0,29.8389773328,35.094817396,20,5,16.779,98.578779073156,20.669292,11.2294388,30.5073172492,0,0,0,149, 0.7, 0,0,0,1024,1024,695,1024,0,0,-50,0,154.1,0,0,98,4.19,4.199,4.199,4.193,0,0,6.951,75.56,98.250695073156,20.341208,6,P-GPS,
28100,2023-05-16 18:56:49,52.2087384568688,0.0700462625770687,20.341208,22.0144364,76.236258673156,98.250695073156,21.32546,0,29.8434064668,35.099738656,20,5,16.779,98.578779073156,20.669292,11.2294388,30.5073172492,0,0,0,148.9, 0.6, 0.2,0,0,1024,1024,768,1024,0,0,-39,0,154.1,0,0,98,4.19,4.199,4.199,4.193,0,0,6.951,75.56,98.250695073156,20.341208,6,P-GPS,
28300,2023-05-16 18:56:50,52.208738439011,0.0700462698048641,20.013124,21.6863524,76.236258673156,97.922611073156,20.997376,0,29.8498041048,35.106300336,20,5,16.779,98.578779073156,20.669292,11.2294388,30.5073172492,0,0,1.342164,148.9, 0.8, 0.2,0,0,1024,1024,1024,1024,0,0,0,0,154.1,0,0,98,4.19,4.199,4.199,4.193,0,0,6.951,75.56,97.922611073156,20.013124,6,P-GPS,
28500,2023-05-16 18:56:50,52.2087384160817,0.070046246534718,19.68504,21.3582684,76.236258673156,97.594527073156,20.669292,0,29.854167622,35.116142856,20,5,16.779,98.578779073156,20.669292,11.2294388,30.5073172492,0,0,1.11847,149.1, 0.4, 0,0,0,1024,1024,988,1024,0,0,-5,0,154.1,0,0,98,4.19,4.199,4.199,4.193,0,0,6.951,75.56,97.594527073156,19.68504,6,P-GPS,
28700,2023-05-16 18:56:50,52.2087384211448,0.0700461917740317,19.356956,21.0301844,76.236258673156,97.266443073156,20.341208,0,29.8461623724,35.128610048,20,5,16.779,98.578779073156,20.669292,11.2294388,30.5073172492,0,0,0.223694,149, 0.4, 0,0,0,1024,1024,473,1022,0,0,-83,-0,154.1,0,0,98,4.19,4.199,4.199,4.193,0,0,6.951,75.56,97.266443073156,19.356956,6,P-GPS,
28900,2023-05-16 18:56:50,52.2087384212647,0.0700461408579175,19.356956,21.0301844,76.236258673156,97.266443073156,20.341208,0,29.8401256268,35.140092988,20,5,16.775,98.578779073156,20.669292,11.2294388,30.5073172492,0,0,0.223694,148.9, 0.9, -0.1,0,0,1024,1024,1024,1024,0,0,0,0,154.1,0,0,98,4.19,4.204,4.209,4.222,0,0,7.083,75.74,97.266443073156,19.356956,6,P-GPS,
29100,2023-05-16 18:56:50,52.2087383999845,0.0700460669442722,19.028872,20.7021004,76.236258673156,96.938359073156,20.013124,0,29.8380258892,35.158137608,20,5,16.775,98.578779073156,20.669292,11.2294388,30.5073172492,0,0,2.013246,148.9, 1.4, -0.4,0,0,1024,1024,1024,1024,0,0,0,0,154.1,0,0,98,4.19,4.204,4.209,4.222,0,0,7.083,75.74,96.938359073156,19.028872,6,P-GPS,
29300,2023-05-16 18:56:50,52.2087384153193,0.0700460204948517,18.372704,20.0459324,76.236258673156,96.282191073156,19.356956,0,29.8278224768,35.169948632,20,5,16.775,98.578779073156,20.669292,11.2294388,30.5073172492,0,0,1.342164,149, 0.6, 0,0,0,1024,1024,902,1024,0,0,-18,0,154.1,0,0,98,4.19,4.204,4.209,4.222,0,0,7.083,75.74,96.282191073156,18.372704,6,P-GPS,
29500,2023-05-16 18:56:51,52.208738459396,0.0700460163916448,18.372704,20.0459324,76.236258673156,96.282191073156,19.028872,0,29.813649248,35.186024748,20,5,16.775,98.578779073156,20.669292,11.2294388,30.5073172492,0,0,0.223694,148.9, 0.6, 0.2,0,0,1024,1024,364,918,0,0,-100,-16,154.1,0,0,98,4.19,4.204,4.209,4.222,0,0,7.083,75.74,96.282191073156,18.372704,6,P-GPS,
29700,2023-05-16 18:56:51,52.2087384933895,0.0700460022925506,18.04462,19.7178484,76.236258673156,95.954107073156,19.028872,0,29.8014445232,35.198820024,20,5,16.775,98.578779073156,20.669292,11.2294388,30.5073172492,0,0,0.447388,148.9, 0.5, 0,0,0,1024,1024,1024,1024,0,0,0,0,154,0,0,98,4.19,4.204,4.209,4.222,0,0,7.083,75.74,95.954107073156,18.04462,6,P-GPS,
29900,2023-05-16 18:56:51,52.2087385314094,0.0700459787148387,17.716536,19.356956,76.269067073156,95.626023073156,18.372704,0,29.7868775936,35.213911888,20,5,16.728,98.578779073156,20.669292,11.2294388,30.5073172492,0,0,2.23694,148.9, 0.3, -0.3,0,0,1024,1024,1024,1024,0,0,0,0,153.9,0,0,98,4.205,4.212,4.215,4.188,0,0,7.246,75.74,95.626023073156,17.716536,6,P-GPS,
30100,2023-05-16 18:56:51,52.2087385497383,0.07004599479214,17.060368,18.700788,76.269067073156,94.969855073156,17.716536,0,29.7830718192,35.22145782,20,5,16.728,98.578779073156,20.669292,11.2294388,30.5073172492,0,0,1.11847,149, -0.1, -0.2,0,0,1024,1024,559,1005,0,0,-70,-3,153.9,0,0,98,4.205,4.212,4.215,4.188,0,0,7.246,75.74,94.969855073156,17.060368,6,P-GPS,
30300,2023-05-16 18:56:51,52.20873853562,0.0700460525096517,16.732284,18.372704,76.269067073156,94.641771073156,17.716536,0,29.7942594836,35.235237348,20,5,16.728,98.578779073156,20.669292,11.2294388,30.5073172492,0,0,0.223694,148.9, 0.5, 0.1,0,0,1024,1024,1290,1016,0,0,40,-1,153.9,0,0,98,4.205,4.212,4.215,4.188,0,0,7.246,75.74,94.641771073156,16.732284,6,P-GPS,
30500,2023-05-16 18:56:52,52.2087384932438,0.0700460733262619,16.4042,18.0774284,76.236258673156,94.313687073156,17.388452,0,29.8098434736,35.251313464,20,5,16.728,98.578779073156,20.669292,11.2294388,30.5073172492,0,0,1.565858,148.8, 1.3, -0.2,0,0,1024,1024,1024,1024,0,0,0,0,153.8,0,0,98,4.205,4.212,4.215,4.188,0,0,7.246,75.74,94.313687073156,16.4042,6,P-GPS,
30700,2023-05-16 18:56:52,52.2087385035627,0.0700460600170524,16.076116,17.716536,76.269067073156,93.985603073156,16.732284,0,29.8050862556,35.256234724,20,5,16.728,98.578779073156,20.669292,11.2294388,30.5073172492,0,0,1.342164,148.9, 0.5, 0,0,0,1024,1024,1024,1024,0,0,0,0,153.8,0,0,98,4.205,4.212,4.215,4.188,0,0,7.246,75.74,93.985603073156,16.076116,6,P-GPS,
30900,2023-05-16 18:56:52,52.2087385495627,0.0700460844195998,15.748032,17.388452,76.269067073156,93.657519073156,16.732284,0,29.7936689324,35.27395126,20,5,16.805,98.578779073156,20.669292,11.2294388,30.5073172492,0,0,0.223694,148.7, 0.6, 0.1,0,0,1024,1024,1024,1024,0,0,0,0,153.8,0,0,98,4.142,4.166,4.176,4.18,0,0,6.591,75.74,93.657519073156,15.748032,6,P-GPS,
31100,2023-05-16 18:56:52,52.2087386026047,0.0700460962608817,15.748032,17.388452,76.269067073156,93.657519073156,16.4042,0,29.7786098768,35.293308216,20,5,16.805,98.578779073156,20.669292,11.2294388,30.5073172492,0,0,0,148.7, 0.8, 0.2,0,0,1024,1024,1024,1024,0,0,0,0,153.8,0,0,98,4.142,4.166,4.176,4.18,0,0,6.591,75.74,93.657519073156,15.748032,6,P-GPS,
31300,2023-05-16 18:56:52,52.2087386277657,0.0700460872296324,15.748032,17.388452,76.269067073156,93.657519073156,16.4042,0,29.7697516088,35.302822652,20,5,16.805,98.578779073156,20.669292,11.2294388,30.5073172492,0,0,0,148.7, 0.6, 0,0,0,1024,1024,1065,1024,0,0,6,0,153.8,0,0,98,4.142,4.166,4.176,4.18,0,0,6.591,75.74,93.657519073156,15.748032,6,P-GPS,
31500,2023-05-16 18:56:53,52.208738641734,0.0700461085215715,15.748032,17.388452,76.269067073156,93.657519073156,16.4042,0,29.7679471468,35.309712416,20,5,16.805,98.578779073156,20.669292,11.2294388,30.5073172492,0,0,0,148.7, 0.6, 0.2,0,0,1024,1024,1684,1024,0,0,100,0,153.8,0,0,98,4.142,4.166,4.176,4.18,0,0,6.591,75.74,93.657519073156,15.748032,6,P-GPS,
31700,2023-05-16 18:56:53,52.2087386509349,0.070046116874778,15.748032,17.388452,76.269067073156,93.657519073156,16.4042,0,29.766077068,35.313649424,20,5,16.805,98.578779073156,20.669292,11.2294388,30.5073172492,0,0,-0.447388,148.8, 0.5, 0.4,0,0,1024,1024,1684,1024,0,0,100,0,153.8,0,0,98,4.142,4.166,4.176,4.18,0,0,6.591,75.74,93.657519073156,15.748032,6,P-GPS,
31900,2023-05-16 18:56:53,52.2087386209636,0.0700460686778247,16.4042,18.04462,76.269067073156,94.313687073156,17.060368,0,29.769685992,35.329069372,20,5,16.604,98.578779073156,20.669292,11.2294388,30.5073172492,0,0,-2.684328,148.8, 0.5, 0.1,0,0,1024,1024,1684,1024,0,0,100,0,153.8,0,0,98,4.182,4.188,4.188,4.185,0,0,8.2,75.74,94.313687073156,16.4042,6,P-GPS,
32100,2023-05-16 18:56:53,52.2087385690695,0.0700460028238006,17.716536,19.356956,76.269067073156,95.626023073156,18.372704,0,29.7780193256,35.353019504,20,5,16.604,98.578779073156,20.669292,11.2294388,30.5073172492,0,0,-4.921268,148.7, 0.8, -0.1,0,0,1024,1024,1684,1024,0,0,100,0,153.8,0,0,98,4.182,4.188,4.188,4.185,0,0,8.2,75.74,95.626023073156,17.716536,6,P-GPS,
32300,2023-05-16 18:56:53,52.2087385882594,0.0700459628612216,19.68504,21.32546,76.269067073156,97.594527073156,20.341208,0,29.7673565956,35.36417436,20,5,16.604,98.578779073156,20.669292,11.2294388,30.5073172492,0,0,-7.381902,148.7, 0.9, 0.1,0,0,1024,1024,1648,1024,0,0,95,0,153.8,0,0,98,4.182,4.188,4.188,4.185,0,0,8.2,75.74,97.594527073156,19.68504,6,P-GPS,
32500,2023-05-16 18:56:54,52.2087385727147,0.0700459329224905,23.622048,25.262468,76.269067073156,101.53153507316,22.96588,0,29.7686689316,35.373032628,20,5,16.604,101.53153507316,23.622048,11.2294388,30.5073172492,0,0,-9.842536,148.7, 0.8, 0,0,0,1024,1024,1631,1024,0,0,92,0,153.8,0,0,98,4.182,4.188,4.188,4.185,0,0,8.2,75.74,101.53153507316,23.622048,6,P-GPS,
32700,2023-05-16 18:56:54,52.208738482094,0.0700459460639368,27.88714,29.5603684,76.236258673156,105.79662707316,26.24672,0,29.7983277252,35.406169112,20,5,16.604,105.79662707316,27.88714,11.2294388,30.5073172492,0,0,-11.1847,148.6, 0.4, -0.1,0,0,1024,1024,1608,1024,0,0,88,0,153.8,0,0,98,4.182,4.188,4.188,4.185,0,0,8.2,75.74,105.79662707316,27.88714,6,P-GPS,
32900,2023-05-16 18:56:54,52.2087383160288,0.0700459591145114,31.496064,33.1692924,76.236258673156,109.40555107316,29.52756,0,29.8514445248,35.466864652,20,5,16.659,109.40555107316,31.496064,11.2294388,30.5073172492,0,0,-11.1847,148.6, 0.4, 0,0,0,1024,1024,1596,1024,0,0,87,0,153.8,0,0,98,4.095,4.104,4.098,4.089,0,0,8.256,75.74,109.40555107316,31.496064,6,P-GPS,
