time(millisecond),datetime(utc),latitude,longitude,height_above_takeoff(feet),height_above_ground_at_drone_location(feet),ground_elevation_at_drone_location(feet),altitude_above_seaLevel(feet),height_sonar(feet),speed(mph),distance(feet),mileage(feet),satellites,gpslevel,voltage(v),max_altitude(feet),max_ascent(feet),max_speed(mph),max_distance(feet), xSpeed(mph), ySpeed(mph), zSpeed(mph), compass_heading(degrees), pitch(degrees), roll(degrees),isPhoto,isVideo,rc_elevator,rc_aileron,rc_throttle,rc_rudder,rc_elevator(percent),rc_aileron(percent),rc_throttle(percent),rc_rudder(percent),gimbal_heading(degrees),gimbal_pitch(degrees),gimbal_roll(degrees),battery_percent,voltageCell1,voltageCell2,voltageCell3,voltageCell4,voltageCell5,voltageCell6,current(A),battery_temperature(f),altitude(feet),ascent(feet),flycStateRaw,flycState,message
416300,2023-05-23 16:58:52,52.2063929098201,0.086721762519014,0,0,53.005463638432,53.530398038432,0,0,0,0,25,5,0,53.530398038432,0,0,0,0,0,0,16.1, 3.4, 0.2,0,0,1024,1024,1024,1024,0,0,0,0,8.6,0,0,80,4.137,4.144,4.143,4.138,0,0,0,90.86,53.530398038432,0,41,Motors_Started,
416500,2023-05-23 16:58:52,52.2063930457171,0.0867217103334384,0,0,53.005463638432,53.530398038432,0,0,0.050936353336,0.050936353336,25,5,0,53.530398038432,0,0,0.050936353336,0,0,0,16.1, 3.4, 0.2,0,0,1024,1024,1024,1024,0,0,0,0,8.6,0,0,80,4.137,4.144,4.143,4.138,0,0,0,90.86,53.530398038432,0,41,Motors_Started,
416700,2023-05-23 16:58:52,52.2063931614839,0.0867216587489825,0,0,53.005463638432,53.530398038432,0,0,0.094705383608,0.094720147388,25,5,0,53.530398038432,0,0,0.094705383608,0,0,0,16.1, 3.4, 0.2,0,0,1024,1024,1024,1024,0,0,0,0,8.6,0,0,80,4.137,4.144,4.143,4.138,0,0,0,90.86,53.530398038432,0,41,Motors_Started,
416900,2023-05-23 16:58:52,52.2063932502842,0.0867216152446934,0,0,53.005463638432,53.530398038432,0,0,0.128508534296,0.128547576292,25,5,0,53.530398038432,0,0,0.128508534296,0,0,0,16.1, 3.4, 0.2,0,0,1024,1024,1024,1024,0,0,0,0,8.6,0,0,80,4.137,4.144,4.143,4.138,0,0,0,90.86,53.530398038432,0,41,Motors_Started,"Setting new Return-To-Home altitude to 26m (85 ft). Data Recorder File Index is 16. Setting new Maximum Flight Altitude to 120m (394 ft)"
417100,2023-05-23 16:58:53,52.2063933160974,0.0867215565306786,0,0,53.005463638432,53.530398038432,0,0,39.307087872,0.1559137189,25,5,0,53.530398038432,0,0,39.307087872,0,0,0,16.1, 3.4, 0.2,0,0,1024,1024,1024,1024,0,0,0,0,8.6,0,0,80,4.137,4.144,4.143,4.138,0,0,0,90.86,53.530398038432,0,41,Motors_Started,
417300,2023-05-23 16:58:53,52.2063933832941,0.0867214991726779,0,0,53.005463638432,53.530398038432,0,0,39.285762412,0.183582026872,25,5,0,53.530398038432,0,0,39.307087872,0,0,0,16.1, 3.4, 0.2,0,0,1024,1024,1024,1024,0,0,0,0,8.6,0,0,80,4.137,4.144,4.143,4.138,0,0,0,90.86,53.530398038432,0,41,Motors_Started,
417500,2023-05-23 16:58:53,52.2063934367709,0.0867214534875825,0,0,53.005463638432,53.530398038432,0,0,39.269030128,0.205604993456,25,5,16.523,53.530398038432,0,0,39.307087872,0,0,0,16.1, 3.4, 0.2,0,0,1024,1024,1024,1024,0,0,0,0,8.6,0,0,80,4.118,4.124,4.12,4.112,0,0,2.022,90.86,53.530398038432,0,41,Motors_Started,
417700,2023-05-23 16:58:53,52.2063934494371,0.0867214216142602,0,0,53.005463638432,53.530398038432,0,0,39.260499944,0.214098760132,24,5,16.523,53.530398038432,0,0,39.307087872,0,0,0,16.1, 3.4, 0.2,0,0,1024,1024,1024,1024,0,0,0,0,8.6,0,0,80,4.118,4.124,4.12,4.112,0,0,2.022,90.86,53.530398038432,0,41,Motors_Started,
417900,2023-05-23 16:58:53,52.2063934395252,0.0867213770195679,0,0,53.005463638432,53.530398038432,0,0,39.252625928,0.224705059684,24,5,16.523,53.530398038432,0,0,39.307087872,0,0,0,16.1, 3.4, 0.2,0,0,1024,1024,1024,1024,0,0,0,0,8.6,0,0,80,4.118,4.124,4.12,4.112,0,0,2.022,90.86,53.530398038432,0,11,AutoTakeoff,
418100,2023-05-23 16:58:54,52.2063934059878,0.0867213351508835,0,0,53.005463638432,53.530398038432,0,0,39.24868892,0.24011155624,24,5,16.523,53.530398038432,0,0,39.307087872,0,0,0,16.2, 3.3, 0.2,0,0,1024,1024,1024,1024,0,0,0,0,8.6,0,0,80,4.118,4.124,4.12,4.112,0,0,2.022,90.86,53.530398038432,0,11,AutoTakeoff,
418300,2023-05-23 16:58:54,52.2063933423764,0.0867212880258969,0,0,53.005463638432,53.530398038432,0,0,39.248032752,0.265599746032,24,5,16.523,53.530398038432,0,0,39.307087872,0,0,0,17.1, -0.4, 0.4,0,0,1024,1024,1024,1024,0,0,0,0,8.7,0,0,80,4.118,4.124,4.12,4.112,0,0,2.022,90.86,53.530398038432,0,11,AutoTakeoff,
418500,2023-05-23 16:58:54,52.2063933127691,0.0867212206026365,0,0,53.005463638432,53.530398038432,0.328084,0,39.238190232,0.2841453503,24,5,16.444,53.530398038432,0,0,39.307087872,0,0,-0.894776,17.4, -1, 0.5,0,0,1024,1024,1024,1024,0,0,0,0,8.8,0,0,80,4.124,4.13,4.131,4.126,0,0,4.705,90.86,53.530398038432,0,11,AutoTakeoff,
418700,2023-05-23 16:58:54,52.2063933613735,0.0867211748476435,0.328084,0.328084,53.005463638432,53.858482038432,0.328084,0,39.222114116,0.304618119984,24,5,16.444,53.858482038432,0.328084,0,39.307087872,0,0,-0.894776,17.4, 1.1, 0,0,0,1024,1024,1024,1024,0,0,0,0,8.8,0,0,80,4.124,4.13,4.131,4.126,0,0,4.705,90.86,53.858482038432,0.328084,11,AutoTakeoff,
418900,2023-05-23 16:58:54,52.2063933716431,0.0867211491113336,0.656168,0.656168,53.005463638432,54.186566038432,0.656168,0,39.215224352,0.31148459002,24,5,16.444,54.186566038432,0.656168,0,39.307087872,0,0,-0.894776,17.3, 0.3, 0.1,0,0,1024,1024,1024,1024,0,0,0,0,8.9,0,0,80,4.124,4.13,4.131,4.126,0,0,4.705,90.86,54.186566038432,0.656168,11,AutoTakeoff,
419100,2023-05-23 16:58:55,52.2063933275406,0.0867211822428134,0.984252,0.984252,53.005463638432,54.514650038432,0.984252,0,39.228347712,0.3291994856,25,5,16.444,54.514650038432,0.984252,0,39.307087872,0,0,-0.894776,17.2, 0, -0.4,0,0,1024,1024,1024,1024,0,0,0,0,8.9,0,0,80,4.124,4.13,4.131,4.126,0,0,4.705,90.86,54.514650038432,0.984252,11,AutoTakeoff,
419300,2023-05-23 16:58:55,52.2063932714038,0.0867211914273629,1.312336,1.312336,53.005463638432,54.842734038432,1.312336,0,39.238190232,0.34978347576,25,5,16.444,54.842734038432,1.312336,0,39.307087872,0,0,-0.894776,17.2, -0.4, -0.5,0,0,1024,1024,1024,1024,0,0,0,0,8.9,0,0,80,4.124,4.13,4.131,4.126,0,0,4.705,90.86,54.842734038432,1.312336,11,AutoTakeoff,
419500,2023-05-23 16:58:55,52.2063931899603,0.0867211422613652,1.64042,1.64042,53.005463638432,55.170818038432,1.64042,0,39.239502568,0.38146654764,26,5,16.392,55.170818038432,1.64042,0,39.307087872,0,0,-0.894776,17.2, -0.9, -0.3,0,0,1024,1024,1024,1024,0,0,0,0,9,0,0,80,4.092,4.099,4.099,4.09,0,0,4.528,90.86,55.170818038432,1.64042,11,AutoTakeoff,
419700,2023-05-23 16:58:55,52.2063930972856,0.0867211275968411,1.968504,1.968504,53.005463638432,55.498902038432,1.968504,0,39.249673172,0.415436365,26,5,16.392,55.498902038432,1.968504,0,39.307087872,0,0,-0.894776,17.1, -1.2, -0.1,0,0,1024,1024,1024,1024,0,0,0,0,9,0,0,80,4.092,4.099,4.099,4.09,0,0,4.528,90.86,55.498902038432,1.968504,11,AutoTakeoff,
419900,2023-05-23 16:58:55,52.2063930339804,0.086721129344282,2.296588,2.296588,53.005463638432,55.826986038432,2.296588,0,39.258859524,0.43853675944,26,5,16.392,55.826986038432,2.296588,0,39.307087872,0,0,-1.11847,17.2, -1.3, -0.3,0,0,1024,1024,1024,1024,0,0,0,0,9,0,0,80,4.092,4.099,4.099,4.09,0,0,4.528,90.86,55.826986038432,2.296588,11,AutoTakeoff,"Home Point updated (Code: 3000001)"
420100,2023-05-23 16:58:56,52.2063930185857,0.0867211594701634,2.624672,2.624672,53.005463638432,56.155070038432,2.624672,0,39.267389708,0.44730644476,26,5,16.392,56.155070038432,2.624672,0,39.307087872,0,0,-1.11847,17.1, -1.1, -0.3,0,0,1024,1024,1024,1024,0,0,0,0,9,0,0,80,4.092,4.099,4.099,4.09,0,0,4.528,90.86,56.155070038432,2.624672,11,AutoTakeoff,
420300,2023-05-23 16:58:56,52.2063930157436,0.0867211959846888,2.952756,2.952756,53.005463638432,56.483154038432,2.952756,0,39.275263724,0.45553807232,26,5,16.392,56.483154038432,2.952756,0,39.307087872,0,0,-1.11847,17.1, -0.8, -0.2,0,0,1072,1024,1024,1024,7,0,0,0,9,0,0,80,4.092,4.099,4.099,4.09,0,0,4.528,90.86,56.483154038432,2.952756,11,AutoTakeoff,
420500,2023-05-23 16:58:56,52.2063930152231,0.0867212189390727,3.28084,3.28084,53.005463638432,56.811238038432,3.28084,0,39.280184984,0.46067258692,26,5,16.342,56.811238038432,3.28084,0,39.307087872,0,0,-1.11847,17.2, -1, 0,0,0,1024,1024,1024,1024,0,0,0,0,9.1,0,0,80,4.079,4.089,4.088,4.081,0,0,7.383,90.86,56.811238038432,3.28084,11,AutoTakeoff,
420700,2023-05-23 16:58:56,52.2063930186606,0.0867212255234301,3.608924,3.608924,53.005463638432,57.139322038432,3.937008,0,39.280841152,0.46260500168,26,5,16.342,57.139322038432,3.608924,0,39.307087872,0,0,-0.894776,17.2, -0.5, 0,0,0,1024,1024,1024,1024,0,0,0,0,9.1,0,0,80,4.079,4.089,4.088,4.081,0,0,7.383,90.86,57.139322038432,3.608924,6,P-GPS,
420900,2023-05-23 16:58:56,52.2063930282555,0.0867211846752512,3.608924,3.608924,53.005463638432,57.139322038432,3.937008,0,39.270998632,0.47238846656,26,5,16.342,57.139322038432,3.608924,0,39.307087872,0,0,-0.223694,16.5, -0.5, 0,0,0,1024,1024,1024,1024,0,0,0,0,9.1,0,0,80,4.079,4.089,4.088,4.081,0,0,7.383,90.86,57.139322038432,3.608924,6,P-GPS,
421100,2023-05-23 16:58:57,52.2063930510371,0.0867210972472872,3.608924,3.608924,53.005463638432,57.139322038432,3.937008,0,39.250001256,0.49362862472,26,5,16.342,57.139322038432,3.608924,0,39.307087872,0,0,0,16.2, -0.6, -0.2,0,0,1024,1024,1024,1024,0,0,0,0,9.1,0,0,80,4.079,4.089,4.088,4.081,0,0,7.383,90.86,57.139322038432,3.608924,6,P-GPS,
421300,2023-05-23 16:58:57,52.2063930690169,0.0867209939525596,3.608924,3.608924,53.005463638432,57.139322038432,3.937008,0,39.226051124,0.51763781184,26,5,16.342,57.139322038432,3.608924,0,39.307087872,0,0,0,16, -0.5, -0.3,0,0,1024,1024,1024,1024,0,0,0,0,9.1,0,0,80,4.079,4.089,4.088,4.081,0,0,7.383,90.86,57.139322038432,3.608924,6,P-GPS,
421500,2023-05-23 16:58:57,52.2063930907533,0.0867208566037035,3.608924,3.608924,53.005463638432,57.139322038432,3.937008,0,39.19455506,0.54935369212,26,5,16.334,57.139322038432,3.608924,0,39.307087872,0,0,0,16.1, -0.5, 0.2,0,0,1024,1024,1322,1024,0,0,45,0,9.1,0,0,80,4.078,4.088,4.087,4.08,0,0,7.503,90.86,57.139322038432,3.608924,6,P-GPS,
421700,2023-05-23 16:58:57,52.2063930915607,0.0867207261747133,3.608924,3.608924,53.005463638432,57.139322038432,3.937008,0,39.167652172,0.57851707888,26,5,16.334,57.139322038432,3.608924,0,39.307087872,0,0,0,16.1, -0.8, -0.1,0,0,1024,1024,1324,1024,0,0,45,0,9.1,0,0,80,4.078,4.088,4.087,4.08,0,0,7.503,90.86,57.139322038432,3.608924,6,P-GPS,
421900,2023-05-23 16:58:57,52.2063930845252,0.0867206135416615,3.937008,3.937008,53.005463638432,57.467406038432,4.265092,0,39.145670544,0.60383204032,26,5,16.334,57.467406038432,3.937008,0,39.307087872,0,0,-1.342164,16.2, -0.6, -0.2,0,0,1024,1024,1024,1024,0,0,0,0,9.1,0,0,80,4.078,4.088,4.087,4.08,0,0,7.503,90.86,57.467406038432,3.937008,6,P-GPS,
422100,2023-05-23 16:58:58,52.2063930957371,0.0867204814770667,4.593176,4.593176,53.005463638432,58.123574038432,4.593176,0,39.116799152,0.63364175256,26,5,16.334,58.123574038432,4.593176,0,39.307087872,0,0,-1.342164,16, -1.7, 0.3,0,0,1024,1024,1024,1024,0,0,0,0,9.1,0,0,80,4.078,4.088,4.087,4.08,0,0,7.503,90.86,58.123574038432,4.593176,6,P-GPS,
422300,2023-05-23 16:58:58,52.2063931319302,0.0867203709828826,4.593176,4.593176,53.005463638432,58.123574038432,4.92126,0,39.088912012,0.66165356448,26,5,16.334,58.123574038432,4.593176,0,39.307087872,0,0,-0.223694,16.1, -0.7, 0.3,0,0,1024,1024,1024,1024,0,0,0,0,9.1,0,0,80,4.078,4.088,4.087,4.08,0,0,7.503,90.86,58.123574038432,4.593176,6,P-GPS,
422500,2023-05-23 16:58:58,52.2063931424632,0.0867202747478163,4.593176,4.593176,53.005463638432,58.123574038432,4.92126,0,39.067586552,0.6835138014,26,5,16.333,58.123574038432,4.593176,0,39.307087872,0,0,0,16.2, -0.4, 0.2,0,0,1024,1024,1024,1024,0,0,0,0,9.1,0,0,80,4.077,4.088,4.086,4.079,0,0,6.905,90.86,58.123574038432,4.593176,6,P-GPS,
422700,2023-05-23 16:58:58,52.2063931234896,0.0867201910384066,4.593176,4.593176,53.005463638432,58.123574038432,4.92126,0,39.053150856,0.70346787028,26,5,16.333,58.123574038432,4.593176,0,39.307087872,0,0,0,16.2, -0.6, -0.1,0,0,1024,1024,1037,1024,0,0,2,0,9.1,0,0,80,4.077,4.088,4.086,4.079,0,0,6.905,90.86,58.123574038432,4.593176,6,P-GPS,
422900,2023-05-23 16:58:58,52.2063931331767,0.0867201280326768,4.593176,4.593176,53.005463638432,58.123574038432,4.92126,0,39.03871516,0.71799214896,27,5,16.333,58.123574038432,4.593176,0,39.307087872,0,0,0,16.2, -0.6, -0.5,0,0,1024,1024,1066,1024,0,0,6,0,9.1,0,0,80,4.077,4.088,4.086,4.079,0,0,6.905,90.86,58.123574038432,4.593176,6,P-GPS,
423100,2023-05-23 16:58:59,52.2063931614518,0.0867200425338876,4.593176,4.593176,53.005463638432,58.123574038432,4.92126,0,39.017061616,0.7397145906,27,5,16.333,58.123574038432,4.593176,0,39.307087872,0,0,0,16.2, -0.9, -0.1,0,0,1024,1024,1100,1024,0,0,12,0,9.1,0,0,80,4.077,4.088,4.086,4.079,0,0,6.905,90.86,58.123574038432,4.593176,6,P-GPS,
423300,2023-05-23 16:58:59,52.2063931903051,0.0867199459912718,4.593176,4.593176,53.005463638432,58.123574038432,4.92126,0,38.993111484,0.7637303394,27,5,16.333,58.123574038432,4.593176,0,39.307087872,0,0,0,16.2, -0.7, 0,0,0,1024,1024,1279,1024,0,0,39,0,9.1,0,0,80,4.077,4.088,4.086,4.079,0,0,6.905,90.86,58.123574038432,4.593176,6,P-GPS,
423500,2023-05-23 16:58:59,52.2063932141061,0.0867198379155459,4.92126,4.92126,53.005463638432,58.451658038432,4.92126,0,38.967520932,0.78940619324,27,5,16.346,58.451658038432,4.92126,0,39.307087872,0,0,-0.223694,16.3, -0.5, -0.1,0,0,1024,1024,1413,1024,0,0,59,0,9.1,0,0,80,4.077,4.088,4.085,4.079,0,0,7.552,90.86,58.451658038432,4.92126,6,P-GPS,
423700,2023-05-23 16:58:59,52.2063932392136,0.086719713511732,5.249344,5.249344,53.005463638432,58.779742038432,5.249344,0,38.938321456,0.81869097108,27,5,16.346,58.779742038432,5.249344,0,39.307087872,0,0,-1.789552,16.5, -0.7, -0.4,0,0,1024,1024,1446,1024,0,0,64,0,9.1,0,0,80,4.077,4.088,4.085,4.079,0,0,7.552,90.86,58.779742038432,5.249344,6,P-GPS,
423900,2023-05-23 16:58:59,52.2063932674587,0.0867195593734635,5.905512,5.905512,53.005463638432,59.435910038432,6.233596,0,38.9025603,0.85466210084,27,5,16.346,59.435910038432,5.905512,0,39.307087872,0,0,-3.802798,16.1, -0.5, -0.7,0,0,1024,1024,1425,1024,0,0,61,0,9.1,0,0,80,4.077,4.088,4.085,4.079,0,0,7.552,90.86,59.435910038432,5.905512,6,P-GPS,
424100,2023-05-23 16:59:00,52.2063932790776,0.0867193166888688,7.545932,7.545932,53.005463638432,61.076330038432,7.545932,0,38.850723028,0.9090879556,27,5,16.346,61.076330038432,7.545932,0,39.307087872,0,0,-4.921268,16.1, -0.8, -0.6,0,0,1024,1024,1369,1024,0,0,52,0,9.1,0,0,80,4.077,4.088,4.085,4.079,0,0,7.552,90.86,61.076330038432,7.545932,6,P-GPS,
424300,2023-05-23 16:59:00,52.2063932962971,0.0867190216229851,8.858268,8.858268,53.005463638432,62.388666038432,9.186352,0,38.7877309,0.9753609236,27,5,16.346,62.388666038432,8.858268,0,39.307087872,0,0,-4.697574,16.1, -1.5, 0.3,0,0,1024,1024,1313,1024,0,0,44,0,9.1,0,0,80,4.077,4.088,4.085,4.079,0,0,7.552,90.86,62.388666038432,8.858268,6,P-GPS,
424500,2023-05-23 16:59:00,52.2063933180164,0.0867187722841354,10.170604,10.170604,53.005463638432,63.701002038432,10.498688,0,38.733268956,1.03166998052,27,5,16.306,63.701002038432,10.170604,0,39.307087872,0,0,-3.579104,16.2, -1.3, 0.5,0,0,1024,1024,1299,1024,0,0,42,0,9.1,0,0,80,4.053,4.059,4.049,4.038,0,0,7.507,90.86,63.701002038432,10.170604,6,P-GPS,
424700,2023-05-23 16:59:00,52.2063933459938,0.0867185961281113,11.154856,11.154856,53.005463638432,64.685254038432,11.154856,0,38.692914624,1.07235567736,27,5,16.306,64.685254038432,11.154856,0,39.307087872,0,0,-2.684328,16.2, -1, 0.5,0,0,1024,1024,1321,1024,0,0,45,0,9.1,0,0,80,4.053,4.059,4.049,4.038,0,0,7.507,90.86,64.685254038432,11.154856,6,P-GPS,
424900,2023-05-23 16:59:00,52.2063933795932,0.0867185025910939,11.811024,11.811024,53.005463638432,65.341422038432,11.811024,0,38.668964492,1.09659780412,27,5,16.306,65.341422038432,11.811024,0,39.307087872,0,0,-2.23694,16.2, -0.7, 0.8,0,0,1024,1024,1261,1024,0,0,36,0,9.1,0,0,80,4.053,4.059,4.049,4.038,0,0,7.507,90.86,65.341422038432,11.811024,6,P-GPS,
425100,2023-05-23 16:59:01,52.2063933907023,0.086718507497908,12.467192,12.467192,53.005463638432,65.997590038432,12.795276,0,38.668308324,1.10079727932,27,5,16.306,65.997590038432,12.467192,0,39.307087872,0,0,-2.23694,16.2, -0.5, 0,0,0,1024,1024,1024,1024,0,0,0,0,9.1,0,0,80,4.053,4.059,4.049,4.038,0,0,7.507,90.86,65.997590038432,12.467192,6,P-GPS,
425300,2023-05-23 16:59:01,52.2063933745173,0.0867185664355952,13.12336,13.12336,53.005463638432,66.653758038432,13.451444,0,38.68274402,1.11523625616,27,5,16.306,66.653758038432,13.12336,0,39.307087872,0,0,-1.11847,16.1, -1, -0.8,0,0,1024,1024,1024,1024,0,0,0,0,9.1,0,0,80,4.053,4.059,4.049,4.038,0,0,7.507,90.86,66.653758038432,13.12336,6,P-GPS,
425500,2023-05-23 16:59:01,52.2063933872906,0.0867186360536414,13.451444,13.451444,53.005463638432,66.981842038432,13.451444,0,38.695211212,1.13148625668,27,5,16.312,66.981842038432,13.451444,0,39.307087872,0,0,-0.223694,16.2, -0.5, -0.8,0,0,1024,1024,1024,698,0,0,0,-49,9.1,0,0,80,4.076,4.087,4.084,4.079,0,0,9.487,91.04,66.981842038432,13.451444,6,P-GPS,
425700,2023-05-23 16:59:01,52.2063934228882,0.0867186633416788,13.451444,13.451444,53.005463638432,66.981842038432,13.451444,0,38.69586738,1.14583665084,27,5,16.312,66.981842038432,13.451444,0,39.307087872,0,0,0,16.2, -0.1, -1.4,0,0,1024,1024,1024,419,0,0,0,-92,8.3,0,0,80,4.076,4.087,4.084,4.079,0,0,9.487,91.04,66.981842038432,13.451444,6,P-GPS,
425900,2023-05-23 16:59:01,52.2063934721672,0.0867185346321705,13.451444,13.451444,53.005463638432,66.981842038432,13.451444,0,38.662402812,1.17976709812,27,5,16.312,66.981842038432,13.451444,0,39.307087872,0,0,0,14.9, 0.3, -0.5,0,0,1024,1024,1024,419,0,0,0,-92,1.5,0,0,80,4.076,4.087,4.084,4.079,0,0,9.487,91.04,66.981842038432,13.451444,6,P-GPS,
426100,2023-05-23 16:59:02,52.2063935211507,0.0867182770453997,13.451444,13.4186356,53.038272038432,66.981842038432,13.451444,0,38.60236344,1.24006893732,27,5,16.312,66.981842038432,13.451444,0,39.307087872,0,0,0,6.4, 0.3, 1.5,0,0,1024,1024,1024,419,0,0,0,-92,351.8,0,0,80,4.076,4.087,4.084,4.079,0,0,9.487,91.04,66.981842038432,13.451444,6,P-GPS,
426300,2023-05-23 16:59:02,52.2063935347914,0.0867180867560735,13.451444,13.4186356,53.038272038432,66.981842038432,13.451444,0,38.56135294,1.2829068652,27,5,16.312,66.981842038432,13.451444,0,39.307087872,0,0,0,356.3, 0.4, 1.8,0,0,1024,1024,1024,1024,0,0,0,0,342,0,0,80,4.076,4.087,4.084,4.079,0,0,9.487,91.04,66.981842038432,13.451444,6,P-GPS,
426500,2023-05-23 16:59:02,52.2063935105427,0.0867180401623088,13.451444,13.4186356,53.038272038432,66.981842038432,13.451444,0,38.555119344,1.29657484464,27,5,16.33,66.981842038432,13.451444,0,39.307087872,0,0,0,346.8, 0, 1.2,0,0,1024,1024,1024,1024,0,0,0,0,337.6,0,0,80,4.072,4.083,4.079,4.073,0,0,6.522,91.22,66.981842038432,13.451444,6,P-GPS,
426700,2023-05-23 16:59:02,52.2063934589721,0.0867180879303538,13.451444,13.451444,53.005463638432,66.981842038432,13.451444,0,38.572179712,1.3182087036,27,5,16.33,66.981842038432,13.451444,0,39.307087872,0,0,0,344.2, -0.3, 0.5,0,0,1024,1024,1024,1347,0,0,0,49,337.5,0,0,80,4.072,4.083,4.079,4.073,0,0,6.522,91.22,66.981842038432,13.451444,6,P-GPS,
426900,2023-05-23 16:59:02,52.2063934090398,0.0867180753907177,13.451444,13.451444,53.005463638432,66.981842038432,13.451444,0,38.576772888,1.33664046272,27,5,16.33,66.981842038432,13.451444,0,39.307087872,0,0,0,344.8, -0.4, 0.2,0,0,1024,1024,1024,1684,0,0,0,100,338.6,0,0,80,4.072,4.083,4.079,4.073,0,0,6.522,91.22,66.981842038432,13.451444,6,P-GPS,
427100,2023-05-23 16:59:03,52.20639336268,0.0867179779673917,13.451444,13.451444,53.005463638432,66.981842038432,13.451444,0,38.563649528,1.36421920376,27,5,16.33,66.981842038432,13.451444,0,39.307087872,0,0,0,346.5, -0.7, 0.9,0,0,1024,1024,1024,1684,0,0,0,100,348.7,0,0,80,4.072,4.083,4.079,4.073,0,0,6.522,91.22,66.981842038432,13.451444,6,P-GPS,
427300,2023-05-23 16:59:03,52.2063933251483,0.086717828596142,13.451444,13.451444,53.005463638432,66.981842038432,13.451444,0,38.538058976,1.40031500544,27,5,16.33,66.981842038432,13.451444,0,39.307087872,0,0,0,359.1, -0.6, 2.5,0,0,1024,1024,1024,1284,0,0,0,39,0.6,0,0,80,4.072,4.083,4.079,4.073,0,0,6.522,91.22,66.981842038432,13.451444,6,P-GPS,
427500,2023-05-23 16:59:03,52.2063933148723,0.0867177518065983,13.451444,13.451444,53.005463638432,66.981842038432,13.451444,0,38.523951364,1.41789046532,27,5,16.282,66.981842038432,13.451444,0,39.307087872,0,0,0,10.8, -0.1, 2.6,0,0,1024,1024,1024,1024,0,0,0,0,9.3,0,0,80,4.064,4.076,4.075,4.069,0,0,7.356,91.22,66.981842038432,13.451444,6,P-GPS,
427700,2023-05-23 16:59:03,52.2063932694163,0.0867178347750931,13.451444,13.451444,53.005463638432,66.981842038432,13.451444,0,38.547573412,1.44277235588,27,5,16.282,66.981842038432,13.451444,0,39.307087872,0,0,0,18, -0.1, 1.6,0,0,1024,1024,1024,1024,0,0,0,0,9.9,0,0,80,4.064,4.076,4.075,4.069,0,0,7.356,91.22,66.981842038432,13.451444,6,P-GPS,
427900,2023-05-23 16:59:03,52.2063931874566,0.086718052785822,13.451444,13.451444,53.005463638432,66.981842038432,13.451444,0,38.60400386,1.49995739708,27,5,16.282,66.981842038432,13.451444,0,39.307087872,0,0,0,16.9, -0.8, 0,0,0,1024,1024,1024,1024,0,0,0,0,9.9,0,0,80,4.064,4.076,4.075,4.069,0,0,7.356,91.22,66.981842038432,13.451444,6,P-GPS,
428100,2023-05-23 16:59:04,52.2063931433006,0.0867182477443104,13.451444,13.451444,53.005463638432,66.981842038432,13.451444,0,38.650591788,1.54643049568,27,5,16.282,66.981842038432,13.451444,0,39.307087872,0,0,0,17.2, -0.9, -0.5,0,0,1024,1024,1024,966,0,0,0,-9,9.9,0,0,80,4.064,4.076,4.075,4.069,0,0,7.356,91.22,66.981842038432,13.451444,6,P-GPS,
428300,2023-05-23 16:59:04,52.2063931634136,0.0867183456289608,13.451444,13.451444,53.005463638432,66.981842038432,13.451444,0,38.667652156,1.56951448592,27,5,16.282,66.981842038432,13.451444,0,39.307087872,0,0,0,17.1, -0.7, 0.1,0,0,1024,1024,1024,364,0,0,0,-100,9.9,0,0,80,4.064,4.076,4.075,4.069,0,0,7.356,91.22,66.981842038432,13.451444,6,P-GPS,
428500,2023-05-23 16:59:04,52.2063932255365,0.0867184074184717,13.451444,13.451444,53.005463638432,66.981842038432,13.451444,0,38.671589164,1.59605648152,27,5,16.274,66.981842038432,13.451444,0,39.307087872,0,0,0,16.8, -0.4, 0.3,0,0,1024,1024,1012,364,0,0,-2,-100,3.7,0,0,80,4.063,4.072,4.07,4.065,0,0,7.341,91.22,66.981842038432,13.451444,6,P-GPS,
428700,2023-05-23 16:59:04,52.2063932808959,0.0867184465192097,13.451444,13.451444,53.005463638432,66.981842038432,13.451444,0,38.671589164,1.61806763708,27,5,16.274,66.981842038432,13.451444,0,39.307087872,0,0,0,8.6, -0.3, 0.5,0,0,1024,1024,950,364,0,0,-11,-100,352.1,0,0,80,4.063,4.072,4.07,4.065,0,0,7.341,91.22,66.981842038432,13.451444,6,P-GPS,
428900,2023-05-23 16:59:04,52.2063933338716,0.0867184773300879,13.451444,13.451444,53.005463638432,66.981842038432,13.451444,0,38.670276828,1.63858601044,27,5,16.274,66.981842038432,13.451444,0,39.307087872,0,0,0,356.1, -0.3, 0.3,0,0,1024,1024,938,364,0,0,-13,-100,340.2,0,0,80,4.063,4.072,4.07,4.065,0,0,7.341,91.22,66.981842038432,13.451444,6,P-GPS,
429100,2023-05-23 16:59:05,52.206393381283,0.0867184658249369,13.451444,13.451444,53.005463638432,66.981842038432,13.451444,0,38.661090476,1.65607288764,27,5,16.274,66.981842038432,13.451444,0,39.307087872,0,0,0,344.5, -0.2, 0.2,0,0,1024,1024,918,364,0,0,-16,-100,328.2,0,0,80,4.063,4.072,4.07,4.065,0,0,7.341,91.22,66.981842038432,13.451444,6,P-GPS,
429300,2023-05-23 16:59:05,52.2063934181593,0.0867183788862564,13.451444,13.451444,53.005463638432,66.981842038432,13.451444,0,38.638124596,1.67971462068,27,5,16.274,66.981842038432,13.451444,0,39.307087872,0,0,0.223694,332.3, 0, 0.4,0,0,1024,1024,937,364,0,0,-13,-100,316.2,0,0,80,4.063,4.072,4.07,4.065,0,0,7.341,91.22,66.981842038432,13.451444,6,P-GPS,
429500,2023-05-23 16:59:05,52.2063934348476,0.0867182426138238,13.12336,13.12336,53.005463638432,66.653758038432,13.451444,0,38.607612784,1.71078417548,27,5,16.267,66.981842038432,13.451444,0,39.307087872,0,0,0.223694,320.5, 0.3, 0.8,0,0,1024,1024,1024,992,0,0,0,-5,304.1,0,0,80,4.061,4.071,4.07,4.063,0,0,7.455,91.22,66.653758038432,13.12336,6,P-GPS,
429700,2023-05-23 16:59:05,52.2063934324917,0.0867181291000618,13.12336,13.12336,53.005463638432,66.653758038432,13.12336,0,38.584646904,1.73618115792,27,5,16.267,66.981842038432,13.451444,0,39.307087872,0,0,0,308.4, 0.3, 1,0,0,1024,1024,1024,1024,0,0,0,0,295.3,0,0,80,4.061,4.071,4.07,4.063,0,0,7.455,91.22,66.653758038432,13.12336,6,P-GPS,
429900,2023-05-23 16:59:05,52.206393439326,0.0867180562108062,13.12336,13.12336,53.005463638432,66.653758038432,13.12336,0,38.568570788,1.75266737892,27,5,16.267,66.981842038432,13.451444,0,39.307087872,0,0,0,301.1, 0.3, 0.6,0,0,1395,1024,1024,1024,56,0,0,0,294.8,0,0,80,4.061,4.071,4.07,4.063,0,0,7.455,91.22,66.653758038432,13.12336,6,P-GPS,
430100,2023-05-23 16:59:06,52.2063934017408,0.0867180100084683,13.12336,13.12336,53.005463638432,66.653758038432,13.12336,0,38.56463378,1.76983601464,27,5,16.267,66.981842038432,13.451444,0,39.307087872,0,0,0,302.4, 0.1, 1,0,0,1625,1024,1024,1024,91,0,0,0,294.8,0,0,80,4.061,4.071,4.07,4.063,0,0,7.455,91.22,66.653758038432,13.12336,6,P-GPS,
430300,2023-05-23 16:59:06,52.2063933602748,0.0867179502040504,13.12336,13.12336,53.005463638432,66.653758038432,13.12336,0,38.5580721,1.790026304,27,5,16.267,66.981842038432,13.451444,0,39.307087872,0,0,0,302, -3.7, 0.6,0,0,1635,1024,1024,1024,93,0,0,0,294.8,0,0,80,4.061,4.071,4.07,4.063,0,0,7.455,91.22,66.653758038432,13.12336,6,P-GPS,
430500,2023-05-23 16:59:06,52.2063934345735,0.0867175969553739,13.12336,13.12336,53.005463638432,66.653758038432,13.12336,0.223694,38.474738764,1.87353024368,27,5,16.266,66.981842038432,13.451444,0.223694,39.307087872,0,-0.223694,0,302.1, -4.3, 0.7,0,0,1637,1024,1024,1024,93,0,0,0,294.8,0,0,80,4.06,4.07,4.068,4.059,0,0,7.3,91.22,66.653758038432,13.12336,6,P-GPS,
430700,2023-05-23 16:59:06,52.2063936755115,0.0867168617440718,13.12336,13.0905516,53.038272038432,66.653758038432,13.12336,0.7158208,38.28904322,2.0599410108,27,5,16.266,66.981842038432,13.451444,0.7158208,39.307087872,0.223694,-0.671082,0,301.9, -7.2, 0.6,0,0,1638,1024,1024,1024,93,0,0,0,294.8,0,0,80,4.06,4.07,4.068,4.059,0,0,7.3,91.22,66.653758038432,13.12336,6,P-GPS,
430900,2023-05-23 16:59:06,52.2063941341154,0.0867155182835349,13.12336,13.0905516,53.038272038432,66.653758038432,13.12336,1.2974252,37.947179692,2.40377960448,27,5,16.266,66.981842038432,13.451444,1.2974252,39.307087872,0.671082,-1.11847,0,301.9, -10.7, 0.6,0,0,1633,1024,1024,1024,92,0,0,0,294.8,0,0,80,4.06,4.07,4.068,4.059,0,0,7.3,91.22,66.653758038432,13.12336,6,P-GPS,
431100,2023-05-23 16:59:07,52.2063949180671,0.0867133015498838,13.12336,13.0905516,53.038272038432,66.653758038432,13.12336,2.3040482,37.379266288,2.97602043644,27,5,16.266,66.981842038432,13.451444,2.3040482,39.307087872,1.11847,-2.013246,0,301.8, -13.1, 1.5,0,0,1629,1024,1024,1024,92,0,0,0,294.8,0,0,80,4.06,4.07,4.068,4.059,0,0,7.3,91.22,66.653758038432,13.12336,6,P-GPS,
431300,2023-05-23 16:59:07,52.2063961605714,0.0867100469202045,13.12336,13.0577432,53.071080438432,66.653758038432,13.451444,3.2211936,36.532481484,3.8333662644,27,5,16.266,66.981842038432,13.451444,3.2211936,39.307087872,1.789552,-2.684328,0,301.5, -15.4, 1.3,0,0,1629,1024,1024,1024,92,0,0,0,294.8,0,0,80,4.06,4.07,4.068,4.059,0,0,7.3,91.22,66.653758038432,13.12336,6,P-GPS,
431500,2023-05-23 16:59:07,52.2063979118752,0.0867055562067379,13.12336,13.0577432,53.071080438432,66.653758038432,13.451444,4.4067718,35.360237352,5.0234909744,27,5,16.253,66.981842038432,13.451444,4.4067718,39.307087872,2.23694,-3.802798,0,301.7, -17.9, 0.3,0,0,1621,1024,1024,1024,90,0,0,0,294.8,0,0,80,4.059,4.068,4.068,4.061,0,0,7.565,91.22,66.653758038432,13.12336,6,P-GPS,
431700,2023-05-23 16:59:07,52.2064002025541,0.0866996518415275,13.12336,13.0249348,53.103888838432,66.653758038432,13.451444,5.7265664,33.82217956,6.585958216,27,5,16.253,66.981842038432,13.451444,5.7265664,39.307087872,2.908022,-4.921268,0,301.4, -19.9, 0.4,0,0,1608,1024,1024,1024,88,0,0,0,294.8,0,0,80,4.059,4.068,4.068,4.061,0,0,7.565,91.22,66.653758038432,13.12336,6,P-GPS,
431900,2023-05-23 16:59:07,52.2064030863844,0.086692193232467,13.12336,12.9921264,53.136697238432,66.653758038432,13.451444,7.3371632,31.8839905216,8.5577758644,27,5,16.253,66.981842038432,13.451444,7.3371632,39.307087872,3.802798,-6.263432,0,301.4, -20, 0.9,0,0,1586,1024,1024,1024,85,0,0,0,294.8,0,0,80,4.059,4.068,4.068,4.061,0,0,7.565,91.22,66.653758038432,13.12336,6,P-GPS,
432100,2023-05-23 16:59:08,52.2064065636384,0.0866831719778603,13.12336,12.9265096,53.202314038432,66.653758038432,13.451444,8.6345884,29.5471138064,10.940617148,27,5,16.253,66.981842038432,13.451444,8.6345884,39.307087872,4.47388,-7.381902,0,301.2, -19.1, 1,0,0,1580,1024,1024,1024,84,0,0,0,294.8,0,0,80,4.059,4.068,4.068,4.061,0,0,7.565,91.22,66.653758038432,13.12336,6,P-GPS,
432300,2023-05-23 16:59:08,52.206410589828,0.0866727293478211,13.12336,12.8937012,53.235122438432,66.653758038432,13.12336,9.7530584,26.8519693632,13.6991146116,27,5,16.253,66.981842038432,13.451444,9.7530584,39.307087872,5.144962,-8.276678,0,301.5, -18.3, 0.8,0,0,1580,1024,1024,1024,84,0,0,0,294.8,0,0,80,4.059,4.068,4.068,4.061,0,0,7.565,91.22,66.653758038432,13.12336,6,P-GPS,
432500,2023-05-23 16:59:08,52.2064151261611,0.0866609781501452,13.12336,12.8608928,53.267930838432,66.653758038432,12.795276,10.737312,23.835794726,16.8043640548,27,5,16.229,66.981842038432,13.451444,10.737312,39.307087872,5.59235,-9.171454,0,301.4, -11.9, 0.9,0,0,1553,1024,1024,1024,80,0,0,0,294.8,0,0,80,4.055,4.061,4.06,4.054,0,0,7.759,91.22,66.653758038432,13.12336,6,P-GPS,
432700,2023-05-23 16:59:08,52.2064199903896,0.0866484079968086,13.12336,12.795276,53.333547638432,66.653758038432,12.795276,11.5426104,20.6375990856,20.128281484,27,5,16.229,66.981842038432,13.451444,11.5426104,39.307087872,6.039738,-9.842536,0,301.5, -14.9, 1.3,0,0,1206,1024,1024,1024,28,0,0,0,294.8,0,0,80,4.055,4.061,4.06,4.054,0,0,7.759,91.22,66.653758038432,13.12336,6,P-GPS,
432900,2023-05-23 16:59:08,52.2064252061158,0.0866350187410263,13.12336,12.7296592,53.399164438432,66.653758038432,12.467192,12.3479088,17.280676406,23.6755913088,27,5,16.229,66.981842038432,13.451444,12.3479088,39.307087872,6.487126,-10.513618,0,301.5, -10.6, 0.9,0,0,1024,1024,1024,1024,0,0,0,0,294.8,0,0,80,4.055,4.061,4.06,4.054,0,0,7.759,91.22,66.653758038432,13.12336,6,P-GPS,
433100,2023-05-23 16:59:09,52.2064306090409,0.0866211613038835,13.12336,12.6640424,53.464781238432,66.653758038432,12.467192,12.3479088,13.9060699988,27.3478355208,27,5,16.229,66.981842038432,13.451444,12.3479088,39.307087872,6.487126,-10.513618,-0.223694,301.6, 17, 0.9,0,0,1024,1024,1024,1024,0,0,0,0,294.8,0,0,80,4.055,4.061,4.06,4.054,0,0,7.759,91.22,66.653758038432,13.12336,6,P-GPS,
433300,2023-05-23 16:59:09,52.206435431072,0.0866088008050134,13.12336,12.5984256,53.530398038432,66.653758038432,12.139108,9.9320136,11.05725101,30.6239511112,27,5,16.229,66.981842038432,13.451444,12.3479088,39.307087872,5.144962,-8.500372,0,301.8, 30.7, -0.1,0,0,1024,1024,1024,1024,0,0,0,0,294.8,0,0,80,4.055,4.061,4.06,4.054,0,0,7.759,91.22,66.653758038432,13.12336,6,P-GPS,
433500,2023-05-23 16:59:09,52.2064391174496,0.0865992285403467,13.12336,12.5656172,53.563206438432,66.653758038432,11.811024,7.4042714,9.0489504208,33.151575864,27,5,16.231,66.981842038432,13.451444,12.3479088,39.307087872,3.579104,-6.487126,0.223694,301.9, 31.2, 2,0,0,1024,1024,1074,1024,0,0,8,0,294.8,0,0,80,4.058,4.066,4.065,4.058,0,0,7.996,91.4,66.653758038432,13.12336,6,P-GPS,
433700,2023-05-23 16:59:09,52.2064416674071,0.0865928748486633,13.12336,12.5328088,53.596014838432,66.653758038432,11.48294,4.7199434,7.8944556332,34.849738648,27,5,16.231,66.981842038432,13.451444,12.3479088,39.307087872,2.460634,-4.026492,0,302.8, 27.9, 3,0,0,1024,1024,1557,1024,0,0,81,0,294.8,0,0,80,4.058,4.066,4.065,4.058,0,0,7.996,91.4,66.653758038432,13.12336,6,P-GPS,
433900,2023-05-23 16:59:09,52.206443227112,0.0865896238851151,13.12336,12.5328088,53.596014838432,66.653758038432,11.154856,2.1027236,7.4231301588,35.772967024,27,5,16.231,66.981842038432,13.451444,12.3479088,39.307087872,1.11847,-1.789552,-0.447388,301.9, 19.3, 0.5,0,0,1024,1024,1605,1024,0,0,88,0,294.8,0,0,80,4.058,4.066,4.065,4.058,0,0,7.996,91.4,66.653758038432,13.12336,6,P-GPS,
434100,2023-05-23 16:59:10,52.2064438809323,0.0865887180117431,13.779528,13.1561684,53.628823238432,67.309926038432,11.811024,0.6263432,7.3426511536,36.08595916,27,5,16.231,67.309926038432,13.779528,12.3479088,39.307087872,0.447388,-0.447388,-2.684328,302.3, 5.2, 0.4,0,0,1024,1024,1573,1024,0,0,83,0,294.8,0,0,80,4.058,4.066,4.065,4.058,0,0,7.996,91.4,67.309926038432,13.779528,6,P-GPS,
434300,2023-05-23 16:59:10,52.2064441367682,0.0865887115007783,14.76378,14.1404204,53.628823238432,68.294178038432,13.12336,0,7.3836288452,36.179135016,27,5,16.231,68.294178038432,14.76378,12.3479088,39.307087872,0,0,-4.921268,301.7, -0.3, 0.5,0,0,1024,1024,1553,1024,0,0,80,0,294.8,0,0,80,4.058,4.066,4.065,4.058,0,0,7.996,91.4,68.294178038432,14.76378,6,P-GPS,
434500,2023-05-23 16:59:10,52.2064442929601,0.0865887578499012,16.732284,16.1089244,53.628823238432,70.262682038432,15.419948,0,7.4190619172,36.237205884,27,5,16.256,70.262682038432,16.732284,12.3479088,39.307087872,0,0,-7.381902,301.6, -0.7, 1,0,0,1024,1024,1485,1024,0,0,70,0,294.8,0,0,80,4.036,4.05,4.048,4.042,0,0,7.131,91.58,70.262682038432,16.732284,6,P-GPS,
434700,2023-05-23 16:59:10,52.2064444417974,0.0865887385371841,19.356956,18.7335964,53.628823238432,72.887354038432,18.04462,0.223694,7.4405842276,36.291667828,27,5,16.256,72.887354038432,19.356956,12.3479088,39.307087872,0,-0.223694,-8.052984,301.3, -0.2, 1.2,0,0,1024,1024,1374,1024,0,0,53,0,294.8,0,0,80,4.036,4.05,4.048,4.042,0,0,7.131,91.58,72.887354038432,19.356956,6,P-GPS,
434900,2023-05-23 16:59:10,52.2064445732673,0.0865886961267931,21.32546,20.7021004,53.628823238432,74.855858038432,20.341208,0,7.45488869,36.340552344,27,5,16.256,74.855858038432,21.32546,12.3479088,39.307087872,0,0,-6.71082,301.4, 0.3, 1.7,0,0,1024,1024,1216,1024,0,0,29,0,294.8,0,0,80,4.036,4.05,4.048,4.042,0,0,7.131,91.58,74.855858038432,21.32546,6,P-GPS,
435100,2023-05-23 16:59:11,52.2064446721616,0.0865887178999069,22.96588,22.3425204,53.628823238432,76.496278038432,21.981628,0,7.476378192,36.376969668,27,5,16.256,76.496278038432,22.96588,12.3479088,39.307087872,0,0,-4.697574,301.4, 0.8, 0.9,0,0,1024,1024,1024,1024,0,0,0,0,294.8,0,0,80,4.036,4.05,4.048,4.042,0,0,7.131,91.58,76.496278038432,22.96588,6,P-GPS,
435300,2023-05-23 16:59:11,52.2064447321686,0.086588783380013,23.950132,23.3267724,53.628823238432,77.480530038432,23.293964,0,7.4997049644,36.403216388,27,5,16.256,77.480530038432,23.950132,12.3479088,39.307087872,0,0,-2.23694,301.4, 1.6, 0.4,0,0,1024,1024,1145,1024,0,0,18,0,294.8,0,0,80,4.036,4.05,4.048,4.042,0,0,7.131,91.58,77.480530038432,23.950132,6,P-GPS,
435500,2023-05-23 16:59:11,52.2064447378077,0.0865889016118655,24.278216,23.6548564,53.628823238432,77.808614038432,23.950132,0,7.5238847552,36.429791192,27,5,16.045,77.808614038432,24.278216,12.3479088,39.307087872,0,0,-0.447388,301.4, 2, 0.3,0,0,1024,1024,1598,1024,0,0,87,0,294.8,0,0,80,4.027,4.048,4.056,4.052,0,0,11.779,91.22,77.808614038432,24.278216,6,P-GPS,
435700,2023-05-23 16:59:11,52.2064446530146,0.0865891429684051,24.6063,23.9829404,53.628823238432,78.136698038432,24.278216,0,7.5566603468,36.492127152,27,5,16.045,78.136698038432,24.6063,12.3479088,39.307087872,0,0,-0.894776,301.5, 1.4, 0.2,0,0,1024,1024,1620,1024,0,0,90,0,294.8,0,0,80,4.027,4.048,4.056,4.052,0,0,11.779,91.22,78.136698038432,24.6063,6,P-GPS,
435900,2023-05-23 16:59:11,52.2064444466998,0.0865895021898346,25.262468,24.6391084,53.628823238432,78.792866038432,24.934384,0,7.5925855448,36.602035292,27,5,16.045,78.792866038432,25.262468,12.3479088,39.307087872,0,0,-3.131716,301.7, 0, 0.8,0,0,1024,1024,1622,1024,0,0,91,0,294.8,0,0,80,4.027,4.048,4.056,4.052,0,0,11.779,91.22,78.792866038432,25.262468,6,P-GPS,
436100,2023-05-23 16:59:12,52.2064441937381,0.0865898449608554,26.574804,25.9514444,53.628823238432,80.105202038432,26.24672,0,7.6190619236,36.722114036,27,5,16.045,80.105202038432,26.574804,12.3479088,39.307087872,0,0,-5.59235,301.7, -0.3, 1.3,0,0,1024,1024,1400,1024,0,0,57,0,294.8,0,0,80,4.027,4.048,4.056,4.052,0,0,11.779,91.22,80.105202038432,26.574804,6,P-GPS,
436300,2023-05-23 16:59:12,52.206444000732,0.08659021881885,28.871392,28.2480324,53.628823238432,82.401790038432,28.543308,0,7.663057988,36.831366008,27,5,16.045,82.401790038432,28.871392,12.3479088,39.307087872,0,0,-7.605596,301.6, -0.4, 1.4,0,0,1024,1024,1024,1024,0,0,0,0,294.8,0,0,80,4.027,4.048,4.056,4.052,0,0,11.779,91.22,82.401790038432,28.871392,6,P-GPS,
436500,2023-05-23 16:59:12,52.2064438906772,0.0865905694533549,31.16798,30.5446204,53.628823238432,84.698378038432,31.16798,0,7.7165028716,36.91929252,27,5,16.321,84.698378038432,31.16798,12.3479088,39.307087872,0,0,-6.71082,301.4, -0.9, 1,0,0,1024,1024,1024,1024,0,0,0,0,294.8,0,0,80,4.02,4.03,4.03,4.023,0,0,6.782,91.76,84.698378038432,31.16798,6,P-GPS,
436700,2023-05-23 16:59:12,52.20644384599,0.0865908710896164,32.480316,31.8569564,53.628823238432,86.010714038432,32.8084,0,7.77066954,36.988846328,27,5,16.321,86.010714038432,32.480316,12.3479088,39.307087872,0,0,-4.47388,301.5, -0.5, 0.1,0,0,1024,1024,1024,1024,0,0,0,0,294.8,0,0,80,4.02,4.03,4.03,4.023,0,0,6.782,91.76,86.010714038432,32.480316,6,P-GPS,
436900,2023-05-23 16:59:12,52.2064438112255,0.0865911286064897,33.464568,32.8412084,53.628823238432,86.994966038432,33.792652,0,7.8176183604,37.047901448,27,5,16.321,86.994966038432,33.464568,12.3479088,39.307087872,0,0,-2.013246,301.5, -0.5, -0.8,0,0,1024,1024,1024,1024,0,0,0,0,294.8,0,0,80,4.02,4.03,4.03,4.023,0,0,6.782,91.76,86.994966038432,33.464568,6,P-GPS,
437100,2023-05-23 16:59:13,52.2064437525357,0.0865912960532682,33.792652,33.1692924,53.628823238432,87.323050038432,34.120736,0,7.8427824032,37.090880452,27,5,16.321,87.323050038432,33.792652,12.3479088,39.307087872,0,0,-0.447388,301.7, -0.3, -0.7,0,0,1468,1024,1024,1024,67,0,0,0,294.8,0,0,80,4.02,4.03,4.03,4.023,0,0,6.782,91.76,87.323050038432,33.792652,6,P-GPS,
437300,2023-05-23 16:59:13,52.2064436534208,0.0865913741289284,33.792652,33.1692924,53.628823238432,87.323050038432,34.44882,0,7.843832272,37.1309067,27,5,16.321,87.323050038432,33.792652,12.3479088,39.307087872,0,0,0,301.7, -0.3, 0.3,0,0,1655,1024,1024,1024,96,0,0,0,294.8,0,0,80,4.02,4.03,4.03,4.023,0,0,6.782,91.76,87.323050038432,33.792652,6,P-GPS,
437500,2023-05-23 16:59:13,52.2064436291615,0.0865912684227324,33.792652,33.1692924,53.628823238432,87.323050038432,31.496064,0.223694,7.8186354208,37.156169168,27,5,15.997,87.323050038432,33.792652,12.3479088,39.307087872,0,-0.223694,0,301.5, -18, 1.4,0,0,1644,1024,1024,1024,94,0,0,0,294.8,0,0,80,4.068,4.079,4.078,4.072,0,0,11.621,91.58,87.323050038432,33.792652,6,P-GPS,
437700,2023-05-23 16:59:13,52.2064441711365,0.0865898187038081,33.792652,33.1692924,53.628823238432,87.323050038432,31.16798,2.1027236,7.6101052304,37.53609044,27,5,15.997,87.323050038432,33.792652,12.3479088,39.307087872,1.11847,-1.789552,0,301.6, -25.6, -0.1,0,0,1616,1024,1024,1024,90,0,0,0,294.8,0,0,80,4.068,4.079,4.078,4.072,0,0,11.621,91.58,87.323050038432,33.792652,6,P-GPS,
437900,2023-05-23 16:59:13,52.2064455124579,0.0865861745066403,33.792652,33.136484,53.661631638432,87.323050038432,31.16798,3.914645,7.1442259504,38.486549788,27,5,15.997,87.323050038432,33.792652,12.3479088,39.307087872,2.013246,-3.35541,0,301.3, -24, 0.6,0,0,1581,1024,1024,1024,84,0,0,0,294.8,0,0,80,4.068,4.079,4.078,4.072,0,0,11.621,91.58,87.323050038432,33.792652,6,P-GPS,
438100,2023-05-23 16:59:14,52.206447621274,0.0865804395820386,33.792652,33.136484,53.661631638432,87.323050038432,29.855644,5.7265664,6.6237863012,39.98195666,27,5,15.997,87.323050038432,33.792652,12.3479088,39.307087872,2.908022,-4.921268,0,301.2, -23.1, 1.2,0,0,1559,1024,1024,1024,81,0,0,0,294.8,0,0,80,4.068,4.079,4.078,4.072,0,0,11.621,91.58,87.323050038432,33.792652,6,P-GPS,
438300,2023-05-23 16:59:14,52.2064504873602,0.086572822510667,33.792652,33.1036756,53.694440038432,87.323050038432,30.511812,7.3371632,6.445374222,41.980316304,27,5,15.997,87.323050038432,33.792652,12.3479088,39.307087872,3.802798,-6.263432,0,301.3, -20.2, 1.1,0,0,1553,1024,1024,1024,80,0,0,0,294.8,0,0,80,4.068,4.079,4.078,4.072,0,0,11.621,91.58,87.323050038432,33.792652,6,P-GPS,
438500,2023-05-23 16:59:14,52.2064539872394,0.0865636174645932,33.792652,33.0708672,53.727248438432,87.323050038432,31.16798,8.6345884,7.040518598,44.402232392,27,5,16.245,87.323050038432,33.792652,12.3479088,39.307087872,4.47388,-7.381902,0,301.4, -18.9, 0.6,0,0,1509,1024,1024,1024,73,0,0,0,294.8,0,0,80,4.041,4.049,4.048,4.043,0,0,5.102,91.76,87.323050038432,33.792652,6,P-GPS,
438700,2023-05-23 16:59:14,52.2064580126986,0.0865530779782725,33.464568,32.6771664,53.792865238432,86.994966038432,31.496064,9.7530584,8.5602364944,47.179135368,27,5,16.245,87.323050038432,33.792652,12.3479088,39.307087872,5.144962,-8.276678,0,301.3, -17.4, 1.1,0,0,1024,1024,1024,1024,0,0,0,0,294.8,0,0,80,4.041,4.049,4.048,4.043,0,0,5.102,91.76,86.994966038432,33.464568,6,P-GPS,
438900,2023-05-23 16:59:14,52.2064625040501,0.0865414007786034,33.464568,32.6115496,53.858482038432,86.994966038432,34.776904,10.737312,10.8528218696,50.261484548,27,5,16.245,87.323050038432,33.792652,12.3479088,39.307087872,5.59235,-9.171454,0,301.4, -6.7, 0.9,0,0,1024,1024,1024,1024,0,0,0,0,294.8,0,0,80,4.041,4.049,4.048,4.043,0,0,5.102,91.76,86.994966038432,33.464568,6,P-GPS,
439100,2023-05-23 16:59:15,52.2064670595957,0.0865295998557488,33.464568,32.5787412,53.891290438432,86.994966038432,34.776904,9.9320136,13.498524054,53.379922968,27,5,16.245,87.323050038432,33.792652,12.3479088,39.307087872,5.144962,-8.500372,0,301.9, 27.8, 0.6,0,0,1024,1024,1024,1024,0,0,0,0,294.8,0,0,80,4.041,4.049,4.048,4.043,0,0,5.102,91.76,86.994966038432,33.464568,6,P-GPS,
439300,2023-05-23 16:59:15,52.2064707471331,0.0865200762992502,33.464568,32.5131244,53.956907238432,86.994966038432,34.44882,7.3371632,15.7635831816,55.898623836,27,5,16.245,87.323050038432,33.792652,12.3479088,39.307087872,3.802798,-6.263432,0,302.1, 31.8, 0.5,0,0,1024,1024,1024,1024,0,0,0,0,294.8,0,0,80,4.041,4.049,4.048,4.043,0,0,5.102,91.76,86.994966038432,33.464568,6,P-GPS,
439500,2023-05-23 16:59:15,52.2064733238718,0.0865136377133921,33.464568,32.5131244,53.956907238432,86.994966038432,27.559056,4.4067718,17.3593181408,57.61811208,27,5,16.189,87.323050038432,33.792652,12.3479088,39.307087872,2.23694,-3.802798,0.223694,301.9, 30.6, 1.3,0,0,1024,1024,1024,1024,0,0,0,0,294.8,0,0,80,4.045,4.054,4.055,4.049,0,0,8.164,91.94,86.994966038432,33.464568,6,P-GPS,
439700,2023-05-23 16:59:15,52.2064747662528,0.0865103088803817,33.464568,32.480316,53.989715638432,86.994966038432,33.792652,2.1027236,18.225230242,58.529529432,27,5,16.189,87.323050038432,33.792652,12.3479088,39.307087872,1.11847,-1.789552,0,301.7, 17.3, 0.3,0,0,1024,1024,1024,1024,0,0,0,0,294.8,0,0,80,4.045,4.054,4.055,4.049,0,0,8.164,91.94,86.994966038432,33.464568,6,P-GPS,
439900,2023-05-23 16:59:15,52.2064754654199,0.0865088323941575,33.464568,32.480316,53.989715638432,86.994966038432,34.120736,1.006623,18.627953352,58.94685228,27,5,16.189,87.323050038432,33.792652,12.3479088,39.307087872,0.447388,-0.894776,0,301.9, 8.9, 1.4,0,0,1024,1024,1024,1024,0,0,0,0,294.8,0,0,80,4.045,4.054,4.055,4.049,0,0,8.164,91.94,86.994966038432,33.464568,6,P-GPS,
440100,2023-05-23 16:59:16,52.2064758165005,0.0865082085507599,33.464568,32.480316,53.989715638432,86.994966038432,34.120736,0.4921268,18.8144034892,59.136156748,27,5,16.189,87.323050038432,33.792652,12.3479088,39.307087872,0.223694,-0.447388,0,301.6, 4.5, 1.8,0,0,1024,1024,1024,1024,0,0,0,0,294.8,0,0,80,4.045,4.054,4.055,4.049,0,0,8.164,91.94,86.994966038432,33.464568,6,P-GPS,
440300,2023-05-23 16:59:16,52.2064760554617,0.0865080257474706,33.464568,32.480316,53.989715638432,86.994966038432,33.792652,0,18.9084979804,59.232613444,27,5,16.189,87.323050038432,33.792652,12.3479088,39.307087872,0,0,0,301.6, 2.3, 1.3,0,0,1024,1024,1024,1024,0,0,0,0,294.8,0,0,80,4.045,4.054,4.055,4.049,0,0,8.164,91.94,86.994966038432,33.464568,6,P-GPS,
440500,2023-05-23 16:59:16,52.2064762152432,0.0865080859817591,33.464568,32.480316,53.989715638432,86.994966038432,33.464568,0,18.9467197664,59.292324732,27,5,16.2,87.323050038432,33.792652,12.3479088,39.307087872,0,0,0,301.5, 1.4, 0.7,0,0,1024,1024,1024,1024,0,0,0,0,294.8,0,0,79,4.032,4.045,4.048,4.042,0,0,7.55,91.76,86.994966038432,33.464568,6,P-GPS,
440700,2023-05-23 16:59:16,52.2064763069434,0.0865082561685249,33.792652,32.8084,53.989715638432,87.323050038432,32.8084,0,18.9503943072,59.342849668,27,5,16.2,87.323050038432,33.792652,12.3479088,39.307087872,0,0,0,301.5, 1.1, 0,0,0,1024,1024,1024,1024,0,0,0,0,294.8,0,0,79,4.032,4.045,4.048,4.042,0,0,7.55,91.76,87.323050038432,33.792652,6,P-GPS,
440900,2023-05-23 16:59:16,52.2064763246684,0.0865084646452162,33.792652,32.8084,53.989715638432,87.323050038432,32.480316,0,18.927494044,59.390093764,27,5,16.2,87.323050038432,33.792652,12.3479088,39.307087872,0,0,0,301.5, 0.8, 0,0,0,1024,1024,1024,1024,0,0,0,0,294.8,0,0,79,4.032,4.045,4.048,4.042,0,0,7.55,91.76,87.323050038432,33.792652,6,P-GPS,
441100,2023-05-23 16:59:17,52.2064762645629,0.0865086567938196,33.792652,32.8084,53.989715638432,87.323050038432,32.480316,0,18.8841541476,59.438322112,27,5,16.2,87.323050038432,33.792652,12.3479088,39.307087872,0,0,0,301.5, 0.4, 0.6,0,0,1024,1024,1024,1024,0,0,0,0,294.8,0,0,79,4.032,4.045,4.048,4.042,0,0,7.55,91.76,87.323050038432,33.792652,6,P-GPS,
441300,2023-05-23 16:59:17,52.2064761786882,0.0865088554918315,33.792652,32.8084,53.989715638432,87.323050038432,32.152232,0,18.8324481092,59.492784056,27,5,16.2,87.323050038432,33.792652,12.3479088,39.307087872,0,0,0,301.5, 0.2, 1.5,0,0,1024,1024,1024,1024,0,0,0,0,294.8,0,0,79,4.032,4.045,4.048,4.042,0,0,7.55,91.76,87.323050038432,33.792652,6,P-GPS,
441500,2023-05-23 16:59:17,52.206476100121,0.0865090863567359,33.792652,32.8084,53.989715638432,87.323050038432,31.824148,0,18.7785767164,59.551839176,27,5,16.202,87.323050038432,33.792652,12.3479088,39.307087872,0,0,0,301.6, 0, 1.7,0,0,1024,1024,1024,1024,0,0,0,0,294.8,0,0,79,4.045,4.056,4.055,4.049,0,0,8.09,91.94,87.323050038432,33.792652,6,P-GPS,
441700,2023-05-23 16:59:17,52.2064760795476,0.0865093343954895,33.792652,32.8084,53.989715638432,87.323050038432,31.824148,0,18.7394034868,59.607613456,26,5,16.202,87.323050038432,33.792652,12.3479088,39.307087872,0,0,0,301.6, 0, 1.3,0,0,1024,1024,1024,1024,0,0,0,0,294.8,0,0,79,4.045,4.056,4.055,4.049,0,0,8.09,91.94,87.323050038432,33.792652,6,P-GPS,
441900,2023-05-23 16:59:17,52.2064760951736,0.0865095565406637,33.792652,32.8084,53.989715638432,87.323050038432,31.824148,0,18.7143706776,59.657482224,26,5,16.202,87.323050038432,33.792652,12.3479088,39.307087872,0,0,0,301.6, 0.1, 0.9,0,0,1024,1024,1024,1024,0,0,0,0,294.8,0,0,79,4.045,4.056,4.055,4.049,0,0,8.09,91.94,87.323050038432,33.792652,6,P-GPS,
442100,2023-05-23 16:59:18,52.2064761258989,0.0865097562067579,33.792652,32.8084,53.989715638432,87.323050038432,31.824148,0,18.6968838004,59.703742068,26,5,16.202,87.323050038432,33.792652,12.3479088,39.307087872,0,0,0,301.6, 0.4, 0.6,0,0,1024,1024,1024,1024,0,0,0,0,294.8,0,0,79,4.045,4.056,4.055,4.049,0,0,8.09,91.94,87.323050038432,33.792652,6,P-GPS,
442300,2023-05-23 16:59:18,52.206476172837,0.0865099385766819,33.792652,32.8084,53.989715638432,87.323050038432,31.824148,0,18.6865491544,59.748033408,26,5,16.202,87.323050038432,33.792652,12.3479088,39.307087872,0,0,0,301.6, 0.3, 0.6,0,0,1024,1024,1024,1024,0,0,0,0,294.8,0,0,79,4.045,4.056,4.055,4.049,0,0,8.09,91.94,87.323050038432,33.792652,6,P-GPS,
442500,2023-05-23 16:59:18,52.2064762317174,0.0865101184931988,33.792652,32.8084,53.989715638432,87.323050038432,31.824148,0,18.680118708,59.793637084,26,5,16.202,87.323050038432,33.792652,12.3479088,39.307087872,0,0,0,301.6, 0.6, 0.5,0,0,1024,1024,1024,1024,0,0,0,0,294.9,-45.1,0,79,4.043,4.054,4.053,4.047,0,0,7.195,91.94,87.323050038432,33.792652,6,P-GPS,
442700,2023-05-23 16:59:18,52.206476270881,0.0865102614827942,33.792652,32.8084,53.989715638432,87.323050038432,31.824148,0,18.6728680516,59.828413988,26,5,16.202,87.323050038432,33.792652,12.3479088,39.307087872,0,0,0,301.7, 0.5, 0.6,0,0,1024,1024,1024,1024,0,0,0,0,295,-89.9,0,79,4.043,4.054,4.053,4.047,0,0,7.195,91.94,87.323050038432,33.792652,6,P-GPS,
442900,2023-05-23 16:59:18,52.2064763048274,0.0865103907444938,33.792652,32.8084,53.989715638432,87.323050038432,31.824148,0,18.6659126708,59.859910052,26,5,16.202,87.323050038432,33.792652,12.3479088,39.307087872,0,0,0,301.6, 0.3, 0.8,0,0,1024,1024,1024,1024,0,0,0,0,295,-89.9,0,79,4.043,4.054,4.053,4.047,0,0,7.195,91.94,87.323050038432,33.792652,6,P-GPS,
443100,2023-05-23 16:59:19,52.206476337266,0.0865105184055375,33.464568,32.480316,53.989715638432,86.994966038432,31.824148,0,18.658793248,59.890749948,26,5,16.202,87.323050038432,33.792652,12.3479088,39.307087872,0,0,0,301.7, 0.5, 0.9,0,0,1024,1024,1024,1024,0,0,0,0,295,-89.9,0,79,4.043,4.054,4.053,4.047,0,0,7.195,91.94,86.994966038432,33.464568,6,P-GPS,
443300,2023-05-23 16:59:19,52.206476390625,0.0865106496313607,33.464568,32.480316,53.989715638432,86.994966038432,31.824148,0,18.6574481036,59.92618302,26,5,16.202,87.323050038432,33.792652,12.3479088,39.307087872,0,0,0,301.7, 0.4, 0.6,0,0,1024,1024,1024,1024,0,0,0,0,295,-89.9,0,79,4.043,4.054,4.053,4.047,0,0,7.195,91.94,86.994966038432,33.464568,6,P-GPS,
443500,2023-05-23 16:59:19,52.20647644075,0.0865107680414522,33.464568,32.480316,53.989715638432,86.994966038432,31.824148,0,18.6568575524,59.958335252,26,5,16.197,87.323050038432,33.792652,12.3479088,39.307087872,0,0,0,301.7, 0, 0.4,0,0,1024,1024,1024,1024,0,0,0,0,295,-89.9,0,79,4.044,4.054,4.053,4.046,0,0,7.356,92.12,86.994966038432,33.464568,6,P-GPS,
443700,2023-05-23 16:59:19,52.2064764730815,0.0865108377224063,33.464568,32.480316,53.989715638432,86.994966038432,31.824148,0,18.6573824868,59.977692208,26,5,16.197,87.323050038432,33.792652,12.3479088,39.307087872,0,0,0,301.6, 0.3, 0.7,0,0,1024,1024,1024,1024,0,0,0,0,295,-90,0,79,4.044,4.054,4.053,4.046,0,0,7.356,92.12,86.994966038432,33.464568,6,P-GPS,
443900,2023-05-23 16:59:19,52.2064764937064,0.086510868431933,33.464568,32.480316,53.989715638432,86.994966038432,31.824148,0,18.6595150328,59.987862812,26,5,16.197,87.323050038432,33.792652,12.3479088,39.307087872,0,0,0,301.6, 0.5, 0.9,0,0,1371,1024,1024,1024,53,0,0,0,295,-90,0,79,4.044,4.054,4.053,4.046,0,0,7.356,92.12,86.994966038432,33.464568,6,P-GPS,
444100,2023-05-23 16:59:20,52.2064765108531,0.0865109060298718,33.464568,32.4475076,54.022524038432,86.994966038432,31.824148,0,18.6597446916,59.9983615,26,5,16.197,87.323050038432,33.792652,12.3479088,39.307087872,0,0,0,301.7, -0.9, 0.4,0,0,1459,1024,1024,1024,66,0,0,0,295,-90,0,79,4.044,4.054,4.053,4.046,0,0,7.356,92.12,86.994966038432,33.464568,6,P-GPS,
444300,2023-05-23 16:59:20,52.2064765743553,0.0865107445313821,33.464568,32.4475076,54.022524038432,86.994966038432,31.824148,0.223694,18.6995740892,60.041340504,26,5,16.197,87.323050038432,33.792652,12.3479088,39.307087872,0,-0.223694,0,301.6, -9.5, 0.8,0,0,1471,1024,1024,1024,68,0,0,0,295,-89.9,0,79,4.044,4.054,4.053,4.046,0,0,7.356,92.12,86.994966038432,33.464568,6,P-GPS,
444500,2023-05-23 16:59:20,52.2064769292825,0.0865098052504347,33.464568,32.4475076,54.022524038432,86.994966038432,31.496064,1.006623,18.9272643852,60.288059672,26,5,16.191,87.323050038432,33.792652,12.3479088,39.307087872,0.447388,-0.894776,0,301.5, -13.3, 1.2,0,0,1143,1024,1024,1024,18,0,0,0,295,-89.9,0,79,4.041,4.051,4.051,4.044,0,0,7.419,92.12,86.994966038432,33.464568,6,P-GPS,
444700,2023-05-23 16:59:20,52.2064777233496,0.0865077456606505,33.464568,32.4475076,54.022524038432,86.994966038432,30.511812,2.1027236,19.4327762124,60.832022944,26,5,16.191,87.323050038432,33.792652,12.3479088,39.307087872,1.11847,-1.789552,0,301.5, -11.2, 1.2,0,0,1024,1024,1024,1024,0,0,0,0,295,-90,0,79,4.041,4.051,4.051,4.044,0,0,7.419,92.12,86.994966038432,33.464568,6,P-GPS,
444900,2023-05-23 16:59:20,52.2064788193318,0.0865048973773874,33.464568,32.4475076,54.022524038432,86.994966038432,29.855644,2.3040482,20.1345478884,61.583991472,26,5,16.191,87.323050038432,33.792652,12.3479088,39.307087872,1.11847,-2.013246,0,301.5, 14.8, 0.3,0,0,1024,1024,1024,1024,0,0,0,0,295,-90,0,79,4.041,4.051,4.051,4.044,0,0,7.419,92.12,86.994966038432,33.464568,6,P-GPS,
445100,2023-05-23 16:59:21,52.2064795361125,0.0865029332572904,33.464568,32.4146992,54.055332438432,86.994966038432,29.855644,1.006623,20.6092854364,62.095146344,26,5,16.191,87.323050038432,33.792652,12.3479088,39.307087872,0.447388,-0.894776,0,302, 16, 1.4,0,0,1024,1024,1675,1024,0,0,99,0,295,-89.9,0,79,4.041,4.051,4.051,4.044,0,0,7.419,92.12,86.994966038432,33.464568,6,P-GPS,
445300,2023-05-23 16:59:21,52.2064797011712,0.0865024699687644,33.792652,32.7427832,54.055332438432,87.323050038432,29.855644,0,20.7203418704,62.214897004,26,5,16.191,87.323050038432,33.792652,12.3479088,39.307087872,0,0,-0.894776,301.8, 4.9, 1.4,0,0,1024,1024,1669,1024,0,0,98,0,295,-89.9,0,79,4.041,4.051,4.051,4.044,0,0,7.419,92.12,87.323050038432,33.792652,6,P-GPS,
445500,2023-05-23 16:59:21,52.206479667289,0.0865027378409725,34.44882,33.3989512,54.055332438432,87.979218038432,30.839896,0.223694,20.6738523676,62.276248712,26,5,16.187,87.979218038432,34.44882,12.3479088,39.307087872,0,0.223694,-3.131716,301.8, 0.5, 1.1,0,0,1024,1024,1644,1024,0,0,94,0,295,-90,0,79,4.04,4.048,4.05,4.041,0,0,7.55,92.12,87.979218038432,34.44882,6,P-GPS,
445700,2023-05-23 16:59:21,52.2064796185262,0.0865031104827483,35.761156,34.7112872,54.055332438432,89.291554038432,32.8084,0.223694,20.6088589272,62.361550552,26,5,16.187,89.291554038432,35.761156,12.3479088,39.307087872,0,0.223694,-5.368656,301.9, 0.1, 1,0,0,1024,1024,1620,1024,0,0,90,0,295,-89.9,0,79,4.04,4.048,4.05,4.041,0,0,7.55,92.12,89.291554038432,35.761156,6,P-GPS,
445900,2023-05-23 16:59:21,52.2064796016536,0.0865034290377328,38.057744,37.0078752,54.055332438432,91.588142038432,35.433072,0,20.5605977708,62.43274478,26,5,16.187,91.588142038432,38.057744,12.3479088,39.307087872,0,0,-7.82929,301.8, -0.3, 0.7,0,0,1024,1024,1499,1024,0,0,72,0,295,-90,0,79,4.04,4.048,4.05,4.041,0,0,7.55,92.12,91.588142038432,38.057744,6,P-GPS,
446100,2023-05-23 16:59:22,52.2064796065539,0.0865036277077856,41.666668,40.6167992,54.055332438432,95.197066038432,38.057744,0,20.5350072188,62.477364204,26,5,16.187,95.197066038432,41.666668,12.3479088,39.307087872,0,0,-8.94776,301.6, 0, 0.5,0,0,1024,1024,1024,1024,0,0,0,0,295,-89.9,0,79,4.04,4.048,4.05,4.041,0,0,7.55,92.12,95.197066038432,41.666668,6,P-GPS,
446300,2023-05-23 16:59:22,52.2064796109487,0.0865037516957085,44.29134,43.2414712,54.055332438432,97.821738038432,40.682416,0,20.5194888456,62.505251344,26,5,16.187,97.821738038432,44.29134,12.3479088,39.307087872,0,0,-7.381902,301.6, -0.4, 1.7,0,0,1024,1024,1024,1024,0,0,0,0,295,-89.9,0,79,4.04,4.048,4.05,4.041,0,0,7.55,92.12,97.821738038432,44.29134,6,P-GPS,
446500,2023-05-23 16:59:22,52.20647960849,0.0865038223727039,44.947508,43.8976392,54.055332438432,98.477906038432,42.65092,0,20.509187008,62.520999376,26,5,16.042,98.477906038432,44.947508,12.3479088,39.307087872,0,0,-5.144962,301.6, -0.3, 2.8,0,0,1024,1024,938,364,0,0,-13,-100,294.5,-89.9,0,79,3.981,3.992,3.99,3.981,0,0,9.51,91.94,98.477906038432,44.947508,6,P-GPS,
446700,2023-05-23 16:59:22,52.2064796451436,0.0865038718532409,46.259844,45.2099752,54.055332438432,99.790242038432,43.963256,0,20.5131568244,62.538387828,26,5,16.042,99.790242038432,46.259844,12.3479088,39.307087872,0,0,-2.684328,300.5, -0.1, 5.1,0,0,1024,1024,984,364,0,0,-6,-100,285.3,-90,0,79,3.981,3.992,3.99,3.981,0,0,9.51,91.94,99.790242038432,46.259844,6,P-GPS,
446900,2023-05-23 16:59:22,52.2064797663568,0.0865039445467831,46.587928,45.5380592,54.055332438432,100.11832603843,44.29134,0,20.5385833344,62.58530384,26,5,16.042,100.11832603843,46.587928,12.3479088,39.307087872,0,0,-0.447388,289.6, 1.3, 4.9,0,0,1024,1024,1000,364,0,0,-4,-100,273.4,-89.9,0,79,3.981,3.992,3.99,3.981,0,0,9.51,91.94,100.11832603843,46.587928,6,P-GPS,
447100,2023-05-23 16:59:23,52.2064800359147,0.086504150402313,46.587928,45.5380592,54.055332438432,100.11832603843,44.29134,0.223694,20.5895019712,62.693899644,26,5,16.042,100.11832603843,46.587928,12.3479088,39.307087872,0.223694,0,0,277.3, 0.2, 1.8,0,0,1024,1024,1022,399,0,0,-0,-95,261.4,-89.9,0,79,3.981,3.992,3.99,3.981,0,0,9.51,91.94,100.11832603843,46.587928,6,P-GPS,
447300,2023-05-23 16:59:23,52.2064803458056,0.0865043121978677,46.587928,45.5380592,54.055332438432,100.11832603843,44.29134,0.223694,20.6585308448,62.812666052,26,5,16.042,100.11832603843,46.587928,12.3479088,39.307087872,0.223694,0,0,265.5, -2, -1.5,0,0,1024,1024,1009,370,0,0,-2,-99,250.6,-89.9,0,79,3.981,3.992,3.99,3.981,0,0,9.51,91.94,100.11832603843,46.587928,6,P-GPS,
447500,2023-05-23 16:59:23,52.2064805020618,0.0865042316093874,46.587928,45.5380592,54.055332438432,100.11832603843,44.29134,0.223694,20.715059718,62.87237734,26,5,16.182,100.11832603843,46.587928,12.3479088,39.307087872,0.223694,0,0,255.4, -3.5, -3,0,0,1024,1024,986,364,0,0,-6,-100,240.7,-89.9,0,79,4.063,4.071,4.071,4.063,0,0,11.064,92.3,100.11832603843,46.587928,6,P-GPS,
447700,2023-05-23 16:59:23,52.2064803578464,0.0865038345908108,46.587928,45.5380592,54.055332438432,100.11832603843,44.29134,0,20.7258208732,62.9757238,26,5,16.182,100.11832603843,46.587928,12.3479088,39.307087872,0,0,0,245.1, -3.2, -2.5,0,0,1024,1024,1024,559,0,0,0,-70,228.8,-90,0,79,4.063,4.071,4.071,4.063,0,0,11.064,92.3,100.11832603843,46.587928,6,P-GPS,
447900,2023-05-23 16:59:23,52.2064799293894,0.0865031985572654,46.587928,45.5380592,54.055332438432,100.11832603843,44.29134,0.223694,20.6868773024,63.187009896,26,5,16.182,100.11832603843,46.587928,12.3479088,39.307087872,0,-0.223694,0,232.9, -1.9, -1.9,0,0,1622,1024,1024,1024,91,0,0,0,219.9,-90,0,79,4.063,4.071,4.071,4.063,0,0,11.064,92.3,100.11832603843,46.587928,6,P-GPS,
448100,2023-05-23 16:59:24,52.2064792986291,0.0865024694829758,46.259844,45.2427836,54.022524038432,99.790242038432,44.29134,0.3131716,20.604659452,63.469162136,26,5,16.182,100.11832603843,46.587928,12.3479088,39.307087872,-0.223694,-0.223694,0,225.7, -1.3, -0.1,0,0,1684,1024,1024,1024,100,0,0,0,219.3,-89.9,0,79,4.063,4.071,4.071,4.063,0,0,11.064,92.3,99.790242038432,46.259844,6,P-GPS,
448300,2023-05-23 16:59:24,52.2064784921528,0.0865015006772666,46.259844,45.2427836,54.022524038432,99.790242038432,44.29134,0.9395148,20.5099087928,63.834319628,26,5,16.182,100.11832603843,46.587928,12.3479088,39.307087872,-0.671082,-0.671082,0,226.7, -15.4, 0.4,0,0,1666,1024,1024,1024,97,0,0,0,219.3,-89.9,0,79,4.063,4.071,4.071,4.063,0,0,11.064,92.3,99.790242038432,46.259844,6,P-GPS,
448500,2023-05-23 16:59:24,52.206477079786,0.0864994344926404,46.259844,45.2427836,54.022524038432,99.790242038432,43.963256,2.3711564,20.4128287372,64.526576868,26,5,16.177,100.11832603843,46.587928,12.3479088,39.307087872,-1.565858,-1.789552,0,226.4, -19.4, 0.5,0,0,1624,1024,1024,1024,91,0,0,0,219.3,-89.9,0,79,4.036,4.046,4.047,4.038,0,0,5.903,92.3,99.790242038432,46.259844,6,P-GPS,
448700,2023-05-23 16:59:24,52.2064748488378,0.0864958688743958,46.259844,45.275592,53.989715638432,99.790242038432,43.963256,4.1159696,20.353675192,65.665684516,26,5,16.177,100.11832603843,46.587928,12.3479088,39.307087872,-2.908022,-2.908022,0,226.4, -22.2, 0,0,0,1604,1024,1024,1024,88,0,0,0,219.3,-89.9,0,79,4.036,4.046,4.047,4.038,0,0,5.903,92.3,99.790242038432,46.259844,6,P-GPS,
448900,2023-05-23 16:59:24,52.2064716542063,0.0864906529100403,46.259844,45.3084004,53.956907238432,99.790242038432,40.026248,5.8607828,20.3983930412,67.3146347,26,5,16.177,100.11832603843,46.587928,12.3479088,39.307087872,-4.026492,-4.250186,0,226.1, -22, 0.1,0,0,1593,1024,1024,1024,86,0,0,0,219.3,-90,0,79,4.036,4.046,4.047,4.038,0,0,5.903,92.3,99.790242038432,46.259844,6,P-GPS,
