time(millisecond),datetime(utc),latitude,longitude,height_above_takeoff(feet),height_above_ground_at_drone_location(feet),ground_elevation_at_drone_location(feet),altitude_above_seaLevel(feet),height_sonar(feet),speed(mph),distance(feet),mileage(feet),satellites,gpslevel,voltage(v),max_altitude(feet),max_ascent(feet),max_speed(mph),max_distance(feet), xSpeed(mph), ySpeed(mph), zSpeed(mph), compass_heading(degrees), pitch(degrees), roll(degrees),isPhoto,isVideo,rc_elevator,rc_aileron,rc_throttle,rc_rudder,rc_elevator(percent),rc_aileron(percent),rc_throttle(percent),rc_rudder(percent),gimbal_heading(degrees),gimbal_pitch(degrees),gimbal_roll(degrees),battery_percent,voltageCell1,voltageCell2,voltageCell3,voltageCell4,voltageCell5,voltageCell6,current(A),battery_temperature(f),altitude(feet),ascent(feet),flycStateRaw,flycState,message
100,2023-05-23 16:48:57,0,0,0,,,53.457739899624,0.328084,0,0,0,0,0,0,53.457739899624,0,0,0,0,0,0,352.5, 3.9, 1,0,0,1024,1024,1024,1024,0,0,0,0,352.5,0,0,100,4.298,4.303,4.302,4.298,0,0,0,74.3,53.457739899624,0,41,Motors_Started,"Remote controller not bound/still confirming binding status (Code: 30306)"
300,2023-05-23 16:48:57,0,0,0,,,53.457739899624,0.328084,0,0,0,0,0,0,53.457739899624,0,0,0,0,0,0,352.5, 3.9, 1,0,0,1024,1024,1024,1024,0,0,0,0,352.5,0,0,100,4.298,4.303,4.302,4.298,0,0,0,74.3,53.457739899624,0,41,Motors_Started,
500,2023-05-23 16:48:57,0,0,0,,,53.457739899624,0,0,0,0,0,0,0,53.457739899624,0,0,0,0,0,0,352.6, 3.9, 1,0,0,1024,1024,1024,1024,0,0,0,0,352.5,0,0,100,4.298,4.303,4.302,4.298,0,0,0,74.3,53.457739899624,0,41,Motors_Started,"GPS signal weak. Hovering unstable. Fly with caution (Code: 30002)"
700,2023-05-23 16:48:57,0,0,0,,,53.457739899624,0,0,0,0,0,0,0,53.457739899624,0,0,0,0,0,0,352.4, 4, 1,0,0,1024,1024,1024,1024,0,0,0,0,352.5,0,0,100,4.298,4.303,4.302,4.298,0,0,0,74.3,53.457739899624,0,41,Motors_Started,
900,2023-05-23 16:48:57,0,0,0,,,53.457739899624,0,0,0,0,0,0,17.301,53.457739899624,0,0,0,0,0,0,352.4, 3.9, 1,0,0,1024,1024,1024,1024,0,0,0,0,352.5,0,0,100,4.298,4.303,4.302,4.298,0,0,1.799,74.3,53.457739899624,0,41,Motors_Started,"Setting new Return-To-Home altitude to 26m (85 ft). Data Recorder File Index is 16. Setting new Maximum Flight Altitude to 30m (98 ft)"
1100,2023-05-23 16:48:58,0,0,0,,,53.457739899624,0,0,0,0,0,0,17.301,53.457739899624,0,0,0,0,0,0,352.5, 3.9, 1,0,0,1024,1024,1024,1024,0,0,0,0,352.5,0,0,100,4.298,4.303,4.302,4.298,0,0,1.799,74.3,53.457739899624,0,41,Motors_Started,
1300,2023-05-23 16:48:58,0,0,0,,,53.457739899624,0,0,0,0,0,0,17.301,53.457739899624,0,0,0,0,0,0,352.5, 3.9, 1,0,0,1024,1024,1024,1024,0,0,0,0,352.5,0,0,100,4.298,4.303,4.302,4.298,0,0,1.799,74.3,53.457739899624,0,41,Motors_Started,
1500,2023-05-23 16:48:58,0,0,0,,,53.457739899624,0,0,0,0,0,0,17.301,53.457739899624,0,0,0,0,0,0,352.4, 3.9, 1,0,0,1024,1024,1024,1024,0,0,0,0,352.5,0,0,100,4.298,4.303,4.302,4.298,0,0,1.799,74.3,53.457739899624,0,41,Motors_Started,
1700,2023-05-23 16:48:58,0,0,0,,,53.457739899624,0,0,0,0,0,0,17.301,53.457739899624,0,0,0,0,0,0,352.5, 3.9, 1,0,0,1024,1024,1024,1024,0,0,0,0,352.5,0,0,100,4.298,4.303,4.302,4.298,0,0,1.799,74.3,53.457739899624,0,11,AutoTakeoff,
1900,2023-05-23 16:48:58,0,0,0,,,53.457739899624,0,0,0,0,0,0,17.193,53.457739899624,0,0,0,0,0,0,352.1, 3.3, 1,0,0,1024,1024,1024,1024,0,0,0,0,352.5,0,0,100,4.326,4.327,4.319,4.313,0,0,4.3,74.3,53.457739899624,0,11,AutoTakeoff,
2100,2023-05-23 16:48:59,0,0,0,,,53.457739899624,0,0,0,0,0,0,17.193,53.457739899624,0,0,0,0,0,-0.447388,352.8, -1.7, 0.4,0,0,1024,1024,1024,1024,0,0,0,0,352.5,0,0,100,4.326,4.327,4.319,4.313,0,0,4.3,74.3,53.457739899624,0,11,AutoTakeoff,
2300,2023-05-23 16:48:59,0,0,0,,,53.457739899624,0.328084,0,0,0,0,0,17.193,53.457739899624,0,0,0,0,0,-0.894776,352.6, -0.1, 0.4,0,0,1024,1024,1024,1024,0,0,0,0,352.5,0,0,100,4.326,4.327,4.319,4.313,0,0,4.3,74.3,53.457739899624,0,11,AutoTakeoff,
2500,2023-05-23 16:48:59,0,0,0.328084,,,53.785823899624,0.328084,0,0,0,0,0,17.193,53.785823899624,0.328084,0,0,0,0,-0.894776,352.6, 0.6, 0.5,0,0,1024,1024,1024,1024,0,0,0,0,352.5,0,0,100,4.326,4.327,4.319,4.313,0,0,4.3,74.3,53.785823899624,0.328084,11,AutoTakeoff,
2700,2023-05-23 16:48:59,0,0,0.656168,,,54.113907899624,0.984252,0,0,0,0,0,17.193,54.113907899624,0.656168,0,0,0,0,-0.894776,352.7, 0, 0.4,0,0,1024,1024,1024,1024,0,0,0,0,352.5,0,0,100,4.326,4.327,4.319,4.313,0,0,4.3,74.3,54.113907899624,0.656168,11,AutoTakeoff,
2900,2023-05-23 16:48:59,0,0,0.984252,,,54.441991899624,1.312336,0,0,0,0,0,17.064,54.441991899624,0.984252,0,0,0,0,-0.894776,352.7, -0.5, 0.6,0,0,1024,1024,1024,1024,0,0,0,0,352.5,0,0,100,4.257,4.262,4.259,4.257,0,0,4.656,74.3,54.441991899624,0.984252,11,AutoTakeoff,
3100,2023-05-23 16:49:00,0,0,1.312336,,,54.770075899624,1.312336,0,0,0,0,0,17.064,54.770075899624,1.312336,0,0,0,0,-0.894776,352.7, -0.7, -0.1,0,0,1024,1024,1024,1024,0,0,0,0,352.5,0,0,100,4.257,4.262,4.259,4.257,0,0,4.656,74.3,54.770075899624,1.312336,11,AutoTakeoff,
3300,2023-05-23 16:49:00,0,0,1.64042,,,55.098159899624,1.64042,0,0,0,0,0,17.064,55.098159899624,1.64042,0,0,0,0,-0.894776,352.5, -0.9, -0.5,0,0,1024,1024,1024,1024,0,0,0,0,352.5,0,0,100,4.257,4.262,4.259,4.257,0,0,4.656,74.3,55.098159899624,1.64042,11,AutoTakeoff,
3500,2023-05-23 16:49:00,0,0,1.968504,,,55.426243899624,2.296588,0,0,0,0,0,17.064,55.426243899624,1.968504,0,0,0,0,-1.11847,352.5, -1.1, -0.3,0,0,1024,1024,1024,1024,0,0,0,0,352.5,0,0,100,4.257,4.262,4.259,4.257,0,0,4.656,74.3,55.426243899624,1.968504,11,AutoTakeoff,
3700,2023-05-23 16:49:00,0,0,2.296588,,,55.754327899624,2.624672,0,0,0,0,0,17.064,55.754327899624,2.296588,0,0,0,0,-1.11847,352.4, -1.3, -0.1,0,0,1024,1024,1024,1024,0,0,0,0,352.5,0,0,100,4.257,4.262,4.259,4.257,0,0,4.656,74.3,55.754327899624,2.296588,11,AutoTakeoff,
3900,2023-05-23 16:49:00,0,0,2.624672,,,56.082411899624,2.952756,0,0,0,0,0,17.012,56.082411899624,2.624672,0,0,0,0,-1.11847,352.5, -1.2, 0,0,0,1024,1024,1024,1024,0,0,0,0,352.5,0,0,100,4.25,4.256,4.254,4.253,0,0,7.234,74.3,56.082411899624,2.624672,11,AutoTakeoff,
4100,2023-05-23 16:49:01,0,0,2.952756,,,56.410495899624,3.28084,0,0,0,0,0,17.012,56.410495899624,2.952756,0,0,0,0,-1.11847,352.6, -1.5, 0,0,0,1024,1024,1024,1024,0,0,0,0,352.5,0,0,100,4.25,4.256,4.254,4.253,0,0,7.234,74.3,56.410495899624,2.952756,11,AutoTakeoff,
4300,2023-05-23 16:49:01,0,0,3.608924,,,57.066663899624,3.608924,0,0,0,5,0,17.012,57.066663899624,3.608924,0,0,0,0,-1.11847,352.5, -1, 1,0,0,1024,1024,1024,1024,0,0,0,0,352.5,0,0,100,4.25,4.256,4.254,4.253,0,0,7.234,74.3,57.066663899624,3.608924,6,P-GPS,
4500,2023-05-23 16:49:01,0,0,3.608924,,,57.066663899624,3.937008,0,0,0,5,0,17.012,57.066663899624,3.608924,0,0,0,0,-0.223694,352.6, -1, 2.2,0,0,1024,1024,1024,1024,0,0,0,0,352.5,0,0,100,4.25,4.256,4.254,4.253,0,0,7.234,74.3,57.066663899624,3.608924,6,P-GPS,
4700,2023-05-23 16:49:01,0,0,3.937008,,,57.394747899624,3.937008,0,0,0,5,0,17.012,57.394747899624,3.937008,0,0,0,0,0,352.5, -1.2, 2.2,0,0,1024,1024,1024,1024,0,0,0,0,352.5,0,0,100,4.25,4.256,4.254,4.253,0,0,7.234,74.3,57.394747899624,3.937008,6,P-GPS,
4900,2023-05-23 16:49:01,0,0,3.937008,,,57.394747899624,3.937008,0,0,0,5,0,17.018,57.394747899624,3.937008,0,0,0,0,0,352.4, -1.3, 1.1,0,0,1024,1024,1317,1024,0,0,44,0,352.5,0,0,100,4.26,4.27,4.269,4.265,0,0,7.132,74.3,57.394747899624,3.937008,6,P-GPS,
5100,2023-05-23 16:49:02,0,0,3.937008,,,57.394747899624,3.937008,0,0,0,5,0,17.018,57.394747899624,3.937008,0,0,0,0,0,352.4, -1.5, 0.4,0,0,1024,1024,1301,1024,0,0,42,0,352.5,0,0,100,4.26,4.27,4.269,4.265,0,0,7.132,74.3,57.394747899624,3.937008,6,P-GPS,
5300,2023-05-23 16:49:02,0,0,3.937008,,,57.394747899624,4.265092,0,0,0,5,0,17.018,57.394747899624,3.937008,0,0,0,0,-1.342164,352.4, -1.3, 0.4,0,0,1024,1024,1277,1024,0,0,38,0,352.5,0,0,100,4.26,4.27,4.269,4.265,0,0,7.132,74.3,57.394747899624,3.937008,6,P-GPS,
5500,2023-05-23 16:49:02,0,0,4.593176,,,58.050915899624,4.92126,0,0,0,5,0,17.018,58.050915899624,4.593176,0,0,0,0,-2.013246,352.4, -2, 0.8,0,0,1024,1024,1279,1024,0,0,39,0,352.5,0,0,100,4.26,4.27,4.269,4.265,0,0,7.132,74.3,58.050915899624,4.593176,6,P-GPS,
5700,2023-05-23 16:49:02,0,0,5.249344,,,58.707083899624,5.577428,0,0,0,5,0,17.018,58.707083899624,5.249344,0,0,0,0,-1.789552,352.4, -1.5, 0.3,0,0,1024,1024,1230,1024,0,0,31,0,352.5,0,0,100,4.26,4.27,4.269,4.265,0,0,7.132,74.3,58.707083899624,5.249344,6,P-GPS,
5900,2023-05-23 16:49:02,0,0,5.905512,,,59.363251899624,5.905512,0,0,0,5,0,16.888,59.363251899624,5.905512,0,0,0,0,-1.565858,352.5, -1.3, 0.4,0,0,1024,1024,1208,1024,0,0,28,0,352.5,0,0,100,4.255,4.262,4.261,4.256,0,0,7.346,74.3,59.363251899624,5.905512,6,P-GPS,
6100,2023-05-23 16:49:03,0,0,6.233596,,,59.691335899624,6.56168,0,0,0,5,0,16.888,59.691335899624,6.233596,0,0,0,0,-1.11847,352.6, -1.5, 0.6,0,0,1024,1024,1236,1024,0,0,32,0,352.5,0,0,100,4.255,4.262,4.261,4.256,0,0,7.346,74.3,59.691335899624,6.233596,6,P-GPS,
6300,2023-05-23 16:49:03,0,0,6.56168,,,60.019419899624,6.56168,0,0,0,5,0,16.888,60.019419899624,6.56168,0,0,0,0,-0.894776,352.7, -1.9, 0,0,0,1024,1024,1245,1024,0,0,33,0,352.5,0,0,100,4.255,4.262,4.261,4.256,0,0,7.346,74.3,60.019419899624,6.56168,6,P-GPS,
6500,2023-05-23 16:49:03,0,0,6.889764,,,60.347503899624,7.217848,0,0,0,5,0,16.888,60.347503899624,6.889764,0,0,0,0,-1.11847,352.7, -2.3, 0.7,0,0,1024,1024,1270,1024,0,0,37,0,352.5,0,0,100,4.255,4.262,4.261,4.256,0,0,7.346,74.3,60.347503899624,6.889764,6,P-GPS,
6700,2023-05-23 16:49:03,0,0,7.217848,,,60.675587899624,7.545932,0,0,0,5,0,16.888,60.675587899624,7.217848,0,0,0,0,-1.342164,352.4, -2.9, 0.3,0,0,1024,1024,1280,1024,0,0,39,0,352.5,0,0,100,4.255,4.262,4.261,4.256,0,0,7.346,74.3,60.675587899624,7.217848,6,P-GPS,
6900,2023-05-23 16:49:03,0,0,7.874016,,,61.331755899624,7.874016,0,0,0,5,0,17.024,61.331755899624,7.874016,0,0,0,0,-1.565858,352.3, -3.2, 1,0,0,1024,1024,1273,1024,0,0,38,0,352.5,0,0,100,4.242,4.251,4.249,4.244,0,0,6.541,74.48,61.331755899624,7.874016,6,P-GPS,
7100,2023-05-23 16:49:04,0,0,8.2021,,,61.659839899624,8.530184,0,0,0,5,0,17.024,61.659839899624,8.2021,0,0,0,0,-1.565858,352.2, -3.2, 1.8,0,0,1024,1024,1251,1024,0,0,34,0,352.5,0,0,100,4.242,4.251,4.249,4.244,0,0,6.541,74.48,61.659839899624,8.2021,6,P-GPS,
7300,2023-05-23 16:49:04,0,0,8.858268,,,62.316007899624,8.858268,0,0,0,5,0,17.024,62.316007899624,8.858268,0,0,0,0,-1.565858,352.3, -2.9, 2,0,0,1024,1024,1024,1024,0,0,0,0,352.5,0,0,100,4.242,4.251,4.249,4.244,0,0,6.541,74.48,62.316007899624,8.858268,6,P-GPS,
7500,2023-05-23 16:49:04,0,0,9.186352,,,62.644091899624,9.514436,0,0,0,5,0,17.024,62.644091899624,9.186352,0,0,0,0,-1.11847,352.3, -3.2, 2.1,0,0,1024,1024,1024,1024,0,0,0,0,352.5,0,0,100,4.242,4.251,4.249,4.244,0,0,6.541,74.48,62.644091899624,9.186352,6,P-GPS,
7700,2023-05-23 16:49:04,0,0,9.514436,,,62.972175899624,9.514436,0,0,0,5,0,17.024,62.972175899624,9.514436,0,0,0,0,-0.223694,352.4, -2.3, 1.7,0,0,1024,1024,1024,1024,0,0,0,0,352.5,0,0,100,4.242,4.251,4.249,4.244,0,0,6.541,74.48,62.972175899624,9.514436,6,P-GPS,
7900,2023-05-23 16:49:04,0,0,9.514436,,,62.972175899624,9.514436,0,0,0,5,0,16.994,62.972175899624,9.514436,0,0,0,0,0,352.4, -2, 1.5,0,0,1024,1024,1024,1024,0,0,0,0,352.5,0,0,100,4.253,4.258,4.256,4.258,0,0,7.116,74.48,62.972175899624,9.514436,6,P-GPS,
8100,2023-05-23 16:49:05,0,0,9.514436,,,62.972175899624,9.514436,0,0,0,5,0,16.994,62.972175899624,9.514436,0,0,0,0,0,352.4, -2.2, 1.2,0,0,1024,1024,1024,996,0,0,0,-4,352.5,0,0,100,4.253,4.258,4.256,4.258,0,0,7.116,74.48,62.972175899624,9.514436,6,P-GPS,
8300,2023-05-23 16:49:05,0,0,9.514436,,,62.972175899624,9.514436,0,0,0,5,0,16.994,62.972175899624,9.514436,0,0,0,0,0,352.4, -2.4, 1.7,0,0,1024,1024,1024,680,0,0,0,-52,352.4,0,0,100,4.253,4.258,4.256,4.258,0,0,7.116,74.48,62.972175899624,9.514436,6,P-GPS,
8500,2023-05-23 16:49:05,0,0,9.514436,,,62.972175899624,9.514436,0,0,0,5,0,16.994,62.972175899624,9.514436,0,0,0,0,0,352.3, -2.4, 1.9,0,0,1024,1024,1024,457,0,0,0,-86,351.2,0,0,100,4.253,4.258,4.256,4.258,0,0,7.116,74.48,62.972175899624,9.514436,6,P-GPS,
8700,2023-05-23 16:49:05,0,0,9.514436,,,62.972175899624,9.514436,0,0,0,5,0,16.994,62.972175899624,9.514436,0,0,0,0,0,350.6, -2.3, 1.8,0,0,1024,1024,1024,432,0,0,0,-90,345.8,0,0,100,4.253,4.258,4.256,4.258,0,0,7.116,74.48,62.972175899624,9.514436,6,P-GPS,
8900,2023-05-23 16:49:05,0,0,9.514436,,,62.972175899624,9.514436,0,0,0,5,0,16.994,62.972175899624,9.514436,0,0,0,0,0,343.9, -2.3, 1.6,0,0,1024,1024,1024,1006,0,0,0,-3,336.7,0,0,100,4.246,4.25,4.25,4.248,0,0,6.296,74.66,62.972175899624,9.514436,6,P-GPS,
9100,2023-05-23 16:49:06,0,0,9.514436,,,62.972175899624,9.514436,0,0,0,5,0,16.994,62.972175899624,9.514436,0,0,0,0,0,334.2, -2.6, 1.2,0,0,1024,1024,1024,1024,0,0,0,0,330.1,0,0,100,4.246,4.25,4.25,4.248,0,0,6.296,74.66,62.972175899624,9.514436,6,P-GPS,
9300,2023-05-23 16:49:06,0,0,9.514436,,,62.972175899624,9.514436,0,0,0,5,0,16.994,62.972175899624,9.514436,0,0,0,0,0,329.2, -2.7, 1.5,0,0,1024,1024,1024,1024,0,0,0,0,329.7,0,0,100,4.246,4.25,4.25,4.248,0,0,6.296,74.66,62.972175899624,9.514436,6,P-GPS,
9500,2023-05-23 16:49:06,0,0,9.514436,,,62.972175899624,9.514436,0,0,0,5,0,16.994,62.972175899624,9.514436,0,0,0,0,0,329.7, -2.2, 3,0,0,1024,1024,1024,1670,0,0,0,98,329.7,0,0,100,4.246,4.25,4.25,4.248,0,0,6.296,74.66,62.972175899624,9.514436,6,P-GPS,
9700,2023-05-23 16:49:06,0,0,9.514436,,,62.972175899624,9.514436,0,0,0,5,0,16.994,62.972175899624,9.514436,0,0,0,0,0,329.6, -2.1, 3.4,0,0,1024,1024,1024,1684,0,0,0,100,334.8,0,0,100,4.246,4.25,4.25,4.248,0,0,6.296,74.66,62.972175899624,9.514436,6,P-GPS,
9900,2023-05-23 16:49:06,0,0,9.514436,,,62.972175899624,9.514436,0,0,0,5,0,16.982,62.972175899624,9.514436,0,0,0,0,0,336.9, -2, 3.3,0,0,1024,1024,1024,1684,0,0,0,100,346.3,0,0,100,4.243,4.249,4.247,4.244,0,0,6.855,74.66,62.972175899624,9.514436,6,P-GPS,
10100,2023-05-23 16:49:07,0,0,9.514436,,,62.972175899624,9.514436,0,0,0,5,0,16.982,62.972175899624,9.514436,0,0,0,0,0,349.4, -2.6, 3.2,0,0,1024,1024,1024,1663,0,0,0,97,358.3,0,0,100,4.243,4.249,4.247,4.244,0,0,6.855,74.66,62.972175899624,9.514436,6,P-GPS,
10300,2023-05-23 16:49:07,0,0,9.514436,,,62.972175899624,9.514436,0.223694,0,0,5,0,16.982,62.972175899624,9.514436,0.223694,0,0,0.223694,0,1.1, -2.6, 2.3,0,0,1024,1024,1024,1024,0,0,0,0,9.6,0,0,100,4.243,4.249,4.247,4.244,0,0,6.855,74.66,62.972175899624,9.514436,6,P-GPS,
10500,2023-05-23 16:49:07,0,0,9.514436,,,62.972175899624,9.514436,0.223694,0,0,5,0,16.982,62.972175899624,9.514436,0.223694,0,0,0.223694,0,11.7, -2.1, 0.7,0,0,1024,1024,1024,580,0,0,0,-67,11.8,0,0,100,4.243,4.249,4.247,4.244,0,0,6.855,74.66,62.972175899624,9.514436,6,P-GPS,
10700,2023-05-23 16:49:07,0,0,9.514436,,,62.972175899624,9.514436,0.223694,0,0,5,0,16.982,62.972175899624,9.514436,0.223694,0,0,0.223694,0,11.9, -1.9, -1.2,0,0,1024,1024,1024,364,0,0,0,-100,10.9,0,0,100,4.243,4.249,4.247,4.244,0,0,6.855,74.66,62.972175899624,9.514436,6,P-GPS,
10900,2023-05-23 16:49:07,0,0,9.514436,,,62.972175899624,9.514436,0,0,0,5,0,16.964,62.972175899624,9.514436,0.223694,0,0,0,0,10.1, -2.2, -1.6,0,0,1024,1024,1024,1024,0,0,0,0,1.7,0,0,100,4.247,4.244,4.246,4.241,0,0,6.894,74.66,62.972175899624,9.514436,6,P-GPS,
11100,2023-05-23 16:49:08,0,0,9.514436,,,62.972175899624,9.514436,0,0,0,5,0,16.964,62.972175899624,9.514436,0.223694,0,0,0,0,359, -2.4, -1.7,0,0,1024,1024,1024,1024,0,0,0,0,355.2,0,0,100,4.247,4.244,4.246,4.241,0,0,6.894,74.66,62.972175899624,9.514436,6,P-GPS,
11300,2023-05-23 16:49:08,0,0,9.514436,,,62.972175899624,9.514436,0,0,0,5,0,16.964,62.972175899624,9.514436,0.223694,0,0,0,0,354.6, -2.4, -1.2,0,0,1024,1024,1024,1024,0,0,0,0,355.1,0,0,100,4.247,4.244,4.246,4.241,0,0,6.894,74.66,62.972175899624,9.514436,6,P-GPS,
11500,2023-05-23 16:49:08,0,0,9.514436,,,62.972175899624,9.84252,0.223694,0,0,5,0,16.964,62.972175899624,9.514436,0.223694,0,0,-0.223694,0,355.1, -2.5, 0.8,0,0,1024,1024,1024,482,0,0,0,-82,355.1,0,0,100,4.247,4.244,4.246,4.241,0,0,6.894,74.66,62.972175899624,9.514436,6,P-GPS,
11700,2023-05-23 16:49:08,0,0,9.514436,,,62.972175899624,9.514436,0,0,0,5,0,16.964,62.972175899624,9.514436,0.223694,0,0,0,0,355, -2.2, 1.6,0,0,1024,1024,1024,375,0,0,0,-98,352.4,0,0,100,4.247,4.244,4.246,4.241,0,0,6.894,74.66,62.972175899624,9.514436,6,P-GPS,
11900,2023-05-23 16:49:08,0,0,9.514436,,,62.972175899624,9.514436,0,0,0,5,0,16.964,62.972175899624,9.514436,0.223694,0,0,0,0,350.9, -2.1, 2,0,0,1024,1024,1024,364,0,0,0,-100,342.2,0,0,100,4.245,4.244,4.245,4.24,0,0,6.928,74.84,62.972175899624,9.514436,6,P-GPS,
12100,2023-05-23 16:49:09,0,0,9.514436,,,62.972175899624,9.514436,0,0,0,5,0,16.964,62.972175899624,9.514436,0.223694,0,0,0,0,339.4, -2.5, 1.6,0,0,1024,1024,1024,364,0,0,0,-100,330.5,0,0,100,4.245,4.244,4.245,4.24,0,0,6.928,74.84,62.972175899624,9.514436,6,P-GPS,
12300,2023-05-23 16:49:09,0,0,9.514436,,,62.972175899624,9.84252,0,0,0,5,0,16.964,62.972175899624,9.514436,0.223694,0,0,0,0,327.6, -2.4, 1.6,0,0,1024,1024,1020,364,0,0,-1,-100,318.5,0,0,100,4.245,4.244,4.245,4.24,0,0,6.928,74.84,62.972175899624,9.514436,6,P-GPS,
12500,2023-05-23 16:49:09,0,0,9.514436,,,62.972175899624,9.514436,0,0,0,5,0,16.964,62.972175899624,9.514436,0.223694,0,0,0,0,315.6, -1.6, 2.6,0,0,1024,1024,999,844,0,0,-4,-27,306.5,0,0,100,4.245,4.244,4.245,4.24,0,0,6.928,74.84,62.972175899624,9.514436,6,P-GPS,
12700,2023-05-23 16:49:09,0,0,9.514436,,,62.972175899624,9.514436,0,0,0,5,0,16.964,62.972175899624,9.514436,0.223694,0,0,0,0,303.5, -0.9, 3.2,0,0,1024,1024,1024,1024,0,0,0,0,298.1,0,0,100,4.245,4.244,4.245,4.24,0,0,6.928,74.84,62.972175899624,9.514436,6,P-GPS,
12900,2023-05-23 16:49:09,0,0,9.514436,,,62.972175899624,9.514436,0,0,0,5,0,16.964,62.972175899624,9.514436,0.223694,0,0,0,0,297.2, -0.6, 3.7,0,0,1024,1024,1024,364,0,0,0,-100,297.5,0,0,100,4.242,4.245,4.244,4.24,0,0,6.821,74.84,62.972175899624,9.514436,6,P-GPS,
13100,2023-05-23 16:49:10,0,0,9.514436,,,62.972175899624,9.514436,0,0,0,5,0,16.964,62.972175899624,9.514436,0.223694,0,0,0,0,297.4, -0.3, 4.6,0,0,1024,1024,1024,1024,0,0,0,0,295.5,0,0,100,4.242,4.245,4.244,4.24,0,0,6.821,74.84,62.972175899624,9.514436,6,P-GPS,
13300,2023-05-23 16:49:10,0,0,9.514436,,,62.972175899624,9.514436,0,0,0,5,0,16.964,62.972175899624,9.514436,0.223694,0,0,0,0,294.2, -0.3, 4.5,0,0,1024,1024,1043,1024,0,0,3,0,291.2,0,0,100,4.242,4.245,4.244,4.24,0,0,6.821,74.84,62.972175899624,9.514436,6,P-GPS,
13500,2023-05-23 16:49:10,0,0,9.514436,,,62.972175899624,9.514436,0,0,0,5,0,16.964,62.972175899624,9.514436,0.223694,0,0,0,0,290.9, -0.6, 3.2,0,0,1024,1024,1378,1024,0,0,54,0,291.2,0,0,100,4.242,4.245,4.244,4.24,0,0,6.821,74.84,62.972175899624,9.514436,6,P-GPS,
13700,2023-05-23 16:49:10,0,0,9.514436,,,62.972175899624,9.514436,0,0,0,5,0,16.964,62.972175899624,9.514436,0.223694,0,0,0,0,291.3, -0.2, 3.5,0,0,1024,1024,1657,1024,0,0,96,0,291.2,0,0,100,4.242,4.245,4.244,4.24,0,0,6.821,74.84,62.972175899624,9.514436,6,P-GPS,
13900,2023-05-23 16:49:10,0,0,9.84252,,,63.300259899624,9.84252,0,0,0,5,0,16.942,63.300259899624,9.84252,0.223694,0,0,0,-1.789552,291.1, -0.2, 2.4,0,0,1024,1024,1639,1024,0,0,93,0,291.2,0,0,99,4.234,4.238,4.239,4.235,0,0,7.015,74.84,63.300259899624,9.84252,6,P-GPS,
14100,2023-05-23 16:49:11,0,0,10.826772,,,64.284511899624,10.826772,0,0,0,5,0,16.942,64.284511899624,10.826772,0.223694,0,0,0,-4.026492,291.3, 0, 3.3,0,0,1024,1024,1564,1024,0,0,82,0,291.2,0,0,99,4.234,4.238,4.239,4.235,0,0,7.015,74.84,64.284511899624,10.826772,6,P-GPS,
14300,2023-05-23 16:49:11,0,0,12.139108,,,65.596847899624,12.467192,0,0,0,5,0,16.942,65.596847899624,12.139108,0.223694,0,0,0,-6.263432,291.3, 0.2, 3.3,0,0,1024,1024,1522,1024,0,0,75,0,291.2,0,0,99,4.234,4.238,4.239,4.235,0,0,7.015,74.84,65.596847899624,12.139108,6,P-GPS,
14500,2023-05-23 16:49:11,0,0,14.76378,,,68.221519899624,14.435696,0,0,0,5,0,16.942,68.221519899624,14.76378,0.223694,0,0,0,-7.82929,290.8, -0.2, 3.2,0,0,1024,1024,1468,1024,0,0,67,0,291.2,0,0,99,4.234,4.238,4.239,4.235,0,0,7.015,74.84,68.221519899624,14.76378,6,P-GPS,
14700,2023-05-23 16:49:11,0,0,18.04462,,,71.502359899624,16.732284,0,0,0,5,0,16.942,71.502359899624,18.04462,0.223694,0,0,0,-7.381902,290.9, -0.5, 1.9,0,0,1024,1024,1401,1024,0,0,57,0,291.2,0,0,99,4.234,4.238,4.239,4.235,0,0,7.015,74.84,71.502359899624,18.04462,6,P-GPS,
14900,2023-05-23 16:49:11,0,0,19.356956,,,72.814695899624,18.700788,0,0,0,5,0,16.571,72.814695899624,19.356956,0.223694,0,0,0,-6.039738,290.8, -1.3, 2,0,0,1024,1024,1024,1024,0,0,0,0,291.2,0,0,99,4.163,4.182,4.181,4.187,0,0,11.547,74.84,72.814695899624,19.356956,6,P-GPS,
15100,2023-05-23 16:49:12,0,0,20.669292,,,74.127031899624,20.341208,0,0,0,5,0,16.571,74.127031899624,20.669292,0.223694,0,0,0,-3.579104,290.8, -1.1, 2.7,0,0,1024,1024,1024,1024,0,0,0,0,291.2,0,0,99,4.163,4.182,4.181,4.187,0,0,11.547,74.84,74.127031899624,20.669292,6,P-GPS,
15300,2023-05-23 16:49:12,0,0,21.653544,,,75.111283899624,20.997376,0,0,0,5,0,16.571,75.111283899624,21.653544,0.223694,0,0,0,-1.342164,290.8, -0.8, 3.2,0,0,1048,1024,1024,1024,4,0,0,0,291.2,0,0,99,4.163,4.182,4.181,4.187,0,0,11.547,74.84,75.111283899624,21.653544,6,P-GPS,
15500,2023-05-23 16:49:12,0,0,21.653544,,,75.111283899624,21.32546,0,0,0,5,0,16.571,75.111283899624,21.653544,0.223694,0,0,0,-0.223694,290.7, -0.5, 3.8,0,0,1440,1024,1024,1024,63,0,0,0,291.2,0,0,99,4.163,4.182,4.181,4.187,0,0,11.547,74.84,75.111283899624,21.653544,6,P-GPS,
15700,2023-05-23 16:49:12,0,0,21.981628,,,75.439367899624,21.653544,0.223694,0,0,5,0,16.571,75.439367899624,21.981628,0.223694,0,-0.223694,0,0,290.7, -1.9, 1.5,0,0,1451,1024,1024,1024,65,0,0,0,291.2,0,0,99,4.163,4.182,4.181,4.187,0,0,11.547,74.84,75.439367899624,21.981628,6,P-GPS,
15900,2023-05-23 16:49:12,0,0,21.981628,,,75.439367899624,21.32546,0.3131716,0,0,5,0,17.088,75.439367899624,21.981628,0.3131716,0,-0.223694,-0.223694,0,290.4, -10.5, 2.6,0,0,1465,1024,1024,1024,67,0,0,0,291.2,0,0,99,4.247,4.248,4.245,4.243,0,0,6.148,75.02,75.439367899624,21.981628,6,P-GPS,
16100,2023-05-23 16:49:13,0,0,21.981628,,,75.439367899624,21.653544,1.11847,0,0,5,0,17.088,75.439367899624,21.981628,1.11847,0,0,-1.11847,0,290.4, -9.9, 3.5,0,0,1545,1024,1024,1024,79,0,0,0,291.2,0,0,99,4.247,4.248,4.245,4.243,0,0,6.148,75.02,75.439367899624,21.981628,6,P-GPS,
16300,2023-05-23 16:49:13,0,0,21.653544,,,75.111283899624,21.653544,1.8119214,0,0,5,0,17.088,75.439367899624,21.981628,1.8119214,0,0.223694,-1.789552,0,290.2, -11.8, 3.8,0,0,1558,1024,1024,1024,81,0,0,0,291.2,0,0,99,4.247,4.248,4.245,4.243,0,0,6.148,75.02,75.111283899624,21.653544,6,P-GPS,
16500,2023-05-23 16:49:13,0,0,21.653544,,,75.111283899624,21.32546,2.5053728,0,0,5,0,17.088,75.439367899624,21.981628,2.5053728,0,0.447388,-2.460634,0,290.4, -12.2, 3.3,0,0,1560,1024,1024,1024,81,0,0,0,291.2,0,0,99,4.247,4.248,4.245,4.243,0,0,6.148,75.02,75.111283899624,21.653544,6,P-GPS,
16700,2023-05-23 16:49:13,0,0,21.653544,,,75.111283899624,21.32546,3.467257,0,0,5,0,17.088,75.439367899624,21.981628,3.467257,0,0.894776,-3.35541,0,290.3, -15.9, 3.9,0,0,1542,1024,1024,1024,78,0,0,0,291.2,0,0,99,4.247,4.248,4.245,4.243,0,0,6.148,75.02,75.111283899624,21.653544,6,P-GPS,
16900,2023-05-23 16:49:13,0,0,21.653544,,,75.111283899624,21.32546,4.4515106,0,0,5,0,16.879,75.439367899624,21.981628,4.4515106,0,1.342164,-4.250186,0,290.5, -11.6, 3.4,0,0,1536,1024,1024,1024,78,0,0,0,291.2,0,0,99,4.215,4.225,4.221,4.213,0,0,7.613,75.2,75.111283899624,21.653544,6,P-GPS,
17100,2023-05-23 16:49:14,0,0,21.653544,,,75.111283899624,21.653544,5.1673314,0,0,5,0,16.879,75.439367899624,21.981628,5.1673314,0,1.565858,-4.921268,0,290.4, -15.3, 2.5,0,0,1521,1024,1024,1024,75,0,0,0,291.2,0,0,99,4.215,4.225,4.221,4.213,0,0,7.613,75.2,75.111283899624,21.653544,6,P-GPS,
17300,2023-05-23 16:49:14,0,0,21.653544,,,75.111283899624,21.653544,6.0844768,0,0,5,0,16.879,75.439367899624,21.981628,6.0844768,0,1.789552,-5.816044,0,290.3, -8.8, 3.3,0,0,1498,1024,1024,1024,72,0,0,0,291.2,0,0,99,4.215,4.225,4.221,4.213,0,0,7.613,75.2,75.111283899624,21.653544,6,P-GPS,
17500,2023-05-23 16:49:14,0,0,21.653544,,,75.111283899624,21.653544,6.375279,0,0,5,0,16.879,75.439367899624,21.981628,6.375279,0,2.013246,-6.039738,0,290.5, -7.1, 3.4,0,0,1490,1024,1024,1024,71,0,0,0,291.2,0,0,99,4.215,4.225,4.221,4.213,0,0,7.613,75.2,75.111283899624,21.653544,6,P-GPS,
17700,2023-05-23 16:49:14,0,0,21.653544,,,75.111283899624,21.653544,6.8002976,0,0,5,0,16.879,75.439367899624,21.981628,6.8002976,0,2.013246,-6.487126,0,290.4, -6.6, 3.4,0,0,1478,1024,1024,1024,69,0,0,0,291.2,0,0,99,4.215,4.225,4.221,4.213,0,0,7.613,75.2,75.111283899624,21.653544,6,P-GPS,
17900,2023-05-23 16:49:14,0,0,21.653544,,,75.111283899624,21.653544,7.0687304,0,0,5,0,16.859,75.439367899624,21.981628,7.0687304,0,2.23694,-6.71082,0,290.5, -6.5, 3.5,0,0,1475,1024,1024,1024,68,0,0,0,291.2,0,0,99,4.212,4.223,4.222,4.217,0,0,8.017,75.2,75.111283899624,21.653544,6,P-GPS,
18100,2023-05-23 16:49:15,0,0,21.653544,,,75.111283899624,21.32546,7.2924244,0,0,5,0,16.859,75.439367899624,21.981628,7.2924244,0,2.23694,-6.934514,0,290.5, -6.2, 3.4,0,0,1448,1024,1024,1024,64,0,0,0,291.2,0,0,99,4.212,4.223,4.222,4.217,0,0,8.017,75.2,75.111283899624,21.653544,6,P-GPS,
18300,2023-05-23 16:49:15,0,0,21.981628,,,75.439367899624,20.997376,7.3595326,0,0,5,0,16.859,75.439367899624,21.981628,7.3595326,0,2.460634,-6.934514,0,290.3, -5.8, 3,0,0,1436,1024,1024,1024,62,0,0,0,291.2,0,0,99,4.212,4.223,4.222,4.217,0,0,8.017,75.2,75.439367899624,21.981628,6,P-GPS,
18500,2023-05-23 16:49:15,0,0,21.981628,,,75.439367899624,20.997376,7.7845512,0,0,13,0,16.859,75.439367899624,21.981628,7.7845512,0,2.460634,-7.381902,0,290.5, -6.5, 2.7,0,0,1419,1024,1024,1024,60,0,0,0,291.2,0,0,99,4.212,4.223,4.222,4.217,0,0,8.017,75.2,75.439367899624,21.981628,6,P-GPS,
18700,2023-05-23 16:49:15,0,0,21.653544,,,75.111283899624,20.997376,7.9858758,0,0,13,0,16.859,75.439367899624,21.981628,7.9858758,0,2.460634,-7.605596,0,290.7, -5.5, 3.7,0,0,1410,1024,1024,1024,58,0,0,0,291.2,0,0,99,4.212,4.223,4.222,4.217,0,0,8.017,75.2,75.111283899624,21.653544,6,P-GPS,
18900,2023-05-23 16:49:15,0,0,21.653544,,,75.111283899624,20.997376,8.0753534,0,0,13,0,16.896,75.439367899624,21.981628,8.0753534,0,2.684328,-7.605596,0,290.5, -7.5, 3,0,0,1373,1024,1024,1024,53,0,0,0,291.2,0,0,99,4.229,4.235,4.238,4.233,0,0,7.458,75.38,75.111283899624,21.653544,6,P-GPS,
19100,2023-05-23 16:49:16,0,0,21.653544,,,75.111283899624,20.997376,8.4780026,0,0,13,0,16.896,75.439367899624,21.981628,8.4780026,0,2.684328,-8.052984,0,290.5, -8, 3.5,0,0,1060,1024,1024,1024,5,0,0,0,291.2,0,0,99,4.229,4.235,4.238,4.233,0,0,7.458,75.38,75.111283899624,21.653544,6,P-GPS,
19300,2023-05-23 16:49:16,0,0,21.653544,,,75.111283899624,20.997376,8.7688048,0,0,13,0,16.896,75.439367899624,21.981628,8.7688048,0,2.908022,-8.276678,0,290.7, -3.5, 3.1,0,0,1024,1024,1024,1024,0,0,0,0,291.2,0,0,99,4.229,4.235,4.238,4.233,0,0,7.458,75.38,75.111283899624,21.653544,6,P-GPS,
19500,2023-05-23 16:49:16,0,0,21.653544,,,75.111283899624,20.669292,8.276678,0,0,13,0,16.896,75.439367899624,21.981628,8.7688048,0,2.684328,-7.82929,0,291.2, 21, 3,0,0,1024,1024,1024,1024,0,0,0,0,291.2,0,0,99,4.229,4.235,4.238,4.233,0,0,7.458,75.38,75.111283899624,21.653544,6,P-GPS,
19700,2023-05-23 16:49:16,0,0,21.653544,,,75.111283899624,20.669292,5.9502604,0,0,13,0,16.896,75.439367899624,21.981628,8.7688048,0,2.013246,-5.59235,0,292.9, 29.6, 4.2,0,0,1024,1024,1220,1024,0,0,30,0,291.2,0,0,99,4.229,4.235,4.238,4.233,0,0,7.458,75.38,75.111283899624,21.653544,6,P-GPS,
19900,2023-05-23 16:49:16,0,0,21.981628,,,75.439367899624,20.341208,3.6238428,0,0,13,2,16.902,75.439367899624,21.981628,8.7688048,0,1.342164,-3.35541,0,294.8, 28.3, 5.1,0,0,1024,1024,1569,1024,0,0,83,0,291.2,0,0,99,4.215,4.242,4.225,4.22,0,0,6.7,75.38,75.439367899624,21.981628,6,P-GPS,
20100,2023-05-23 16:49:17,0,0,21.981628,,,75.439367899624,20.013124,1.2079476,0,0,13,2,16.902,75.439367899624,21.981628,8.7688048,0,0.447388,-1.11847,-0.894776,296.7, 14.2, 4.1,0,0,1024,1024,1024,1024,0,0,0,0,291.2,0,0,99,4.215,4.242,4.225,4.22,0,0,6.7,75.38,75.439367899624,21.981628,6,P-GPS,
20300,2023-05-23 16:49:17,0,0,22.637796,,,76.095535899624,20.997376,0.223694,0,0,13,2,16.902,76.095535899624,22.637796,8.7688048,0,0.223694,0,-3.131716,298.2, 2.4, 4.4,0,0,1024,1024,1024,1024,0,0,0,0,291.2,0,0,99,4.215,4.242,4.225,4.22,0,0,6.7,75.38,76.095535899624,22.637796,6,P-GPS,
20500,2023-05-23 16:49:17,52.2064206636951,0.0865732241896685,23.622048,23.622048,53.457739899624,77.079787899624,21.653544,0.223694,0,0,13,2,16.902,77.079787899624,23.622048,8.7688048,0,0.223694,0,-1.789552,300.8, 0.6, 4.5,0,0,1295,1024,1024,1024,41,0,0,0,291.2,0,0,99,4.215,4.242,4.225,4.22,0,0,6.7,75.38,77.079787899624,23.622048,6,P-GPS,"No GPS. Fly with caution GPS signal weak. Hovering unstable. Fly with caution (Code: 30002)"
20700,2023-05-23 16:49:17,52.2064189615656,0.0865792928291784,23.950132,23.9829404,53.424931499624,77.407871899624,22.309712,0.223694,1.49223101888,1.49223101888,13,2,16.902,77.407871899624,23.950132,8.7688048,1.49223101888,0.223694,0,-0.671082,303.6, 0.8, 0.4,0,0,1557,1024,1024,1024,81,0,0,0,291.2,0,0,99,4.215,4.242,4.225,4.22,0,0,6.7,75.38,77.407871899624,23.950132,6,P-GPS,
20900,2023-05-23 16:49:17,52.2064172791317,0.0865851065930721,23.950132,24.0157488,53.392123099624,77.407871899624,22.309712,0.223694,2.92970481816,2.9297573116,13,2,16.624,77.407871899624,23.950132,8.7688048,2.92970481816,0.223694,0,0,306.6, -9.1, -0.4,0,0,1580,1024,1024,1024,84,0,0,0,291.2,0,0,99,4.25,4.251,4.245,4.23,0,0,9.346,75.56,77.407871899624,23.950132,6,P-GPS,
21100,2023-05-23 16:49:18,52.2064159753702,0.0865895488010737,23.950132,24.0157488,53.392123099624,77.407871899624,22.309712,1.2974252,4.0309056408,4.031004066,13,2,16.624,77.407871899624,23.950132,8.7688048,4.0309056408,0.671082,-1.11847,0,306.6, -19.5, 0.7,0,0,1550,1024,1024,1024,80,0,0,0,291.2,0,0,99,4.25,4.251,4.245,4.23,0,0,9.346,75.56,77.407871899624,23.950132,6,P-GPS,
21300,2023-05-23 16:49:18,52.2064155965157,0.0865916409107334,24.278216,24.3438328,53.392123099624,77.735955899624,22.637796,2.908022,4.5137140552,4.5187665488,13,2,16.624,77.735955899624,24.278216,8.7688048,4.5137140552,1.565858,-2.460634,0,306.7, -16.8, 2.4,0,0,1024,1024,1024,1024,0,0,0,0,291.2,0,0,99,4.25,4.251,4.245,4.23,0,0,9.346,75.56,77.735955899624,24.278216,6,P-GPS,
21500,2023-05-23 16:49:18,52.2064163836987,0.0865907958413156,24.278216,24.3438328,53.392123099624,77.735955899624,22.637796,3.7133204,4.2277560408,4.8625657724,20,2,16.624,77.735955899624,24.278216,8.7688048,4.5137140552,2.013246,-3.131716,0,306.1, -6.2, 3.6,0,0,1024,1024,1024,1024,0,0,0,0,291.2,0,0,99,4.25,4.251,4.245,4.23,0,0,9.346,75.56,77.735955899624,24.278216,6,P-GPS,
21700,2023-05-23 16:49:18,52.2064180802252,0.0865879574310937,24.278216,24.3438328,53.392123099624,77.735955899624,22.637796,3.1093466,3.426345254,5.7490487404,20,3,16.624,77.735955899624,24.278216,8.7688048,4.5137140552,1.565858,-2.684328,0,305.1, 24.9, 4,0,0,1024,1024,1103,1024,0,0,12,0,291.2,0,0,99,4.25,4.251,4.245,4.23,0,0,9.346,75.56,77.735955899624,24.278216,6,P-GPS,
21900,2023-05-23 16:49:18,52.2064198912057,0.0865849984684178,24.278216,24.3110244,53.424931499624,77.735955899624,22.309712,1.006623,2.64761491412,6.6840881404,20,3,16.826,77.735955899624,24.278216,8.7688048,4.5137140552,0.447388,-0.894776,0,304.1, 17.1, 4.4,0,0,1024,1024,1589,1024,0,0,86,0,291.2,0,0,99,4.221,4.223,4.228,4.163,0,0,6.903,75.38,77.735955899624,24.278216,6,P-GPS,"Setting new Maximum Flight Altitude to 120m (394 ft)"
22100,2023-05-23 16:49:19,52.2064216726134,0.0865824172517926,24.6063,24.6063,53.457739899624,78.064039899624,22.637796,0,2.08814639228,7.5532810816,20,3,16.826,78.064039899624,24.6063,8.7688048,4.5137140552,0,0,-1.789552,303, 4.4, 2.6,0,0,1024,1024,1576,1024,0,0,84,0,291.2,0,0,99,4.221,4.223,4.228,4.163,0,0,6.903,75.38,78.064039899624,24.6063,6,P-GPS,
22300,2023-05-23 16:49:19,52.20642358326,0.0865795111422147,25.590552,25.5577436,53.490548299624,79.048291899624,23.622048,0.223694,1.76368443964,8.506233868,20,3,16.826,79.048291899624,25.590552,8.7688048,4.5137140552,0,0.223694,-4.250186,303.8, -0.2, 2.6,0,0,1024,1024,1455,1024,0,0,65,0,291.2,0,0,99,4.221,4.223,4.228,4.163,0,0,6.903,75.38,79.048291899624,25.590552,6,P-GPS,
22500,2023-05-23 16:49:19,52.2064256851959,0.0865761080534499,27.230972,27.1981636,53.490548299624,80.688711899624,25.262468,0.223694,1.94224415664,9.5865488632,21,3,16.826,80.688711899624,27.230972,8.7688048,4.5137140552,0,0.223694,-6.487126,304.9, -1.3, 2.2,0,0,1024,1024,1027,1024,0,0,0,0,291.2,0,0,99,4.221,4.223,4.228,4.163,0,0,6.903,75.38,80.688711899624,27.230972,6,P-GPS,
22700,2023-05-23 16:49:19,52.2064278565188,0.0865724851243855,28.871392,28.8057752,53.523356699624,82.329131899624,27.230972,0.223694,2.6294948348,10.7195869572,21,3,16.826,82.329131899624,28.871392,8.7688048,4.5137140552,0,0.223694,-5.816044,303.2, -2.9, 1.9,0,0,1024,1024,1024,1024,0,0,0,0,291.2,0,0,99,4.221,4.223,4.228,4.163,0,0,6.903,75.38,82.329131899624,28.871392,6,P-GPS,
22900,2023-05-23 16:49:19,52.2064299504199,0.0865689055545726,30.183728,30.0853028,53.556165099624,83.641467899624,28.871392,0,3.5231628424,11.8259846304,21,3,16.559,83.641467899624,30.183728,8.7688048,4.5137140552,0,0,-3.579104,301.5, -2.8, 0.9,0,0,1322,1024,1024,1024,45,0,0,0,291.2,0,0,99,4.227,4.234,4.238,4.247,0,0,10.897,75.38,83.641467899624,30.183728,6,P-GPS,
23100,2023-05-23 16:49:20,52.206431827039,0.086565601339073,30.839896,30.7086624,53.588973499624,84.297635899624,29.855644,0,4.4151576216,12.8332681272,21,3,16.559,84.297635899624,30.839896,8.7688048,4.5137140552,0,0,-1.342164,301.2, -1.2, 0.1,0,0,1544,1024,1024,1024,79,0,0,0,291.2,0,0,99,4.227,4.234,4.238,4.247,0,0,10.897,75.38,84.297635899624,30.839896,6,P-GPS,
23300,2023-05-23 16:49:20,52.2064333892207,0.0865626119678671,31.16798,31.0367464,53.588973499624,84.625719899624,30.183728,0,5.21407497,13.7116802288,21,3,16.559,84.625719899624,31.16798,8.7688048,5.21407497,0,0,-0.223694,301.2, -8.9, 0.6,0,0,1500,1024,1024,1024,72,0,0,0,291.2,0,0,99,4.227,4.234,4.238,4.247,0,0,10.897,75.38,84.625719899624,31.16798,6,P-GPS,
23500,2023-05-23 16:49:20,52.2064348283897,0.0865594463006234,31.16798,31.003938,53.621781899624,84.625719899624,30.183728,0.9171454,6.0164700088,14.5929794696,21,3,16.559,84.625719899624,31.16798,8.7688048,6.0164700088,0.223694,-0.894776,0,300.9, -17.5, 2,0,0,1497,1024,1024,1024,72,0,0,0,291.2,0,0,99,4.227,4.234,4.238,4.247,0,0,10.897,75.38,84.625719899624,31.16798,6,P-GPS,
23700,2023-05-23 16:49:20,52.206436483938,0.0865554004727271,31.16798,31.003938,53.621781899624,84.625719899624,30.183728,2.1922012,7.0140750276,15.6806763548,20,5,16.559,84.625719899624,31.16798,8.7688048,7.0140750276,0.894776,-2.013246,0,300.6, -17, 3.1,0,0,1492,1024,1024,1024,71,0,0,0,291.2,0,0,99,4.227,4.234,4.238,4.247,0,0,10.897,75.38,84.625719899624,31.16798,6,P-GPS,
23900,2023-05-23 16:49:20,52.2064384659049,0.0865503607303615,30.839896,30.6430456,53.654590299624,84.297635899624,30.511812,3.5119958,8.2655186372,17.0195871588,20,5,16.913,84.625719899624,31.16798,8.7688048,8.2655186372,1.565858,-3.131716,0,300.4, -17.4, 3.4,0,0,1479,1024,1024,1024,69,0,0,0,291.2,0,0,99,4.206,4.21,4.208,4.209,0,0,5.893,75.74,84.297635899624,30.839896,6,P-GPS,
24100,2023-05-23 16:49:21,52.2064407971738,0.0865443460841549,30.839896,30.6102372,53.687398699624,84.297635899624,30.511812,4.6080964,9.780019998,18.6107617504,20,5,16.913,84.625719899624,31.16798,8.7688048,9.780019998,2.23694,-4.026492,0,300.3, -16.5, 3.8,0,0,1473,1024,1024,1024,68,0,0,0,291.2,0,0,99,4.206,4.21,4.208,4.209,0,0,5.893,75.74,84.297635899624,30.839896,6,P-GPS,
24300,2023-05-23 16:49:21,52.2064433617325,0.0865375857970449,30.839896,30.6102372,53.687398699624,84.297635899624,30.511812,5.7265664,11.4923560108,20.388452096,20,5,16.913,84.625719899624,31.16798,8.7688048,11.4923560108,2.908022,-4.921268,0,299.1, -15, 3.6,0,0,1466,1024,1024,1024,67,0,0,0,291.2,0,0,99,4.206,4.21,4.208,4.209,0,0,5.893,75.74,84.297635899624,30.839896,6,P-GPS,
24500,2023-05-23 16:49:21,52.2064463959036,0.0865296130908663,30.839896,30.5446204,53.753015499624,84.297635899624,30.511812,6.598973,13.5358928216,22.4868117432,20,5,16.913,84.625719899624,31.16798,8.7688048,13.5358928216,3.131716,-5.816044,0,298, -10.3, 3.4,0,0,1463,1024,1024,1024,67,0,0,0,291.2,0,0,99,4.206,4.21,4.208,4.209,0,0,5.893,75.74,84.297635899624,30.839896,6,P-GPS,
24700,2023-05-23 16:49:21,52.2064495017134,0.0865213124354608,30.839896,30.511812,53.785823899624,84.297635899624,30.511812,7.2029468,15.6658797664,24.6613196868,20,5,16.913,84.625719899624,31.16798,8.7688048,15.6658797664,3.579104,-6.263432,0,298.2, -9.8, 3.5,0,0,1461,1024,1024,1024,66,0,0,0,291.2,0,0,99,4.206,4.21,4.208,4.209,0,0,5.893,75.74,84.297635899624,30.839896,6,P-GPS,
24900,2023-05-23 16:49:21,52.2064526612741,0.086512917407761,30.839896,30.4790036,53.818632299624,84.297635899624,30.511812,7.605596,17.8354008332,26.8640428544,20,5,16.838,84.625719899624,31.16798,8.7688048,17.8354008332,3.579104,-6.71082,0,297.6, -8.2, 2.9,0,0,1446,1024,1024,1024,64,0,0,0,291.2,0,0,99,4.219,4.221,4.221,4.216,0,0,7.892,75.92,84.297635899624,30.839896,6,P-GPS,"Home Point updated (Code: 3000001)"
25100,2023-05-23 16:49:22,52.2064560787032,0.086503795661322,30.839896,30.4461952,53.851440699624,84.297635899624,30.511812,8.0977228,20.1972119324,29.2544956868,20,5,16.838,84.625719899624,31.16798,8.7688048,20.1972119324,3.802798,-7.158208,0,297.9, -10.6, 2.8,0,0,1446,1024,1024,1024,64,0,0,0,291.2,0,0,99,4.219,4.221,4.221,4.216,0,0,7.892,75.92,84.297635899624,30.839896,6,P-GPS,
25300,2023-05-23 16:49:22,52.2064595573193,0.0864944348614705,30.839896,30.3805784,53.917057499624,84.297635899624,30.511812,8.7016966,22.6207028236,31.7021663688,20,5,16.838,84.625719899624,31.16798,8.7688048,22.6207028236,4.250186,-7.605596,0,297.8, -10.6, 1.9,0,0,1414,1024,1024,1024,59,0,0,0,291.2,0,0,99,4.219,4.221,4.221,4.216,0,0,7.892,75.92,84.297635899624,30.839896,6,P-GPS,
25500,2023-05-23 16:49:22,52.2064631707358,0.0864845340569419,30.511812,30.019686,53.949865899624,83.969551899624,30.183728,9.2161928,25.1742790208,34.278544404,20,5,16.838,84.625719899624,31.16798,9.2161928,25.1742790208,4.47388,-8.052984,0,297.8, -9.9, 2.2,0,0,1024,1024,1024,1024,0,0,0,0,291.2,0,0,99,4.219,4.221,4.221,4.216,0,0,7.892,75.92,83.969551899624,30.511812,6,P-GPS,
25700,2023-05-23 16:49:22,52.206466890896,0.086474150511375,30.511812,29.9868776,53.982674299624,83.969551899624,30.183728,9.5964726,27.841536324,36.967848952,20,5,16.838,84.625719899624,31.16798,9.5964726,27.841536324,4.47388,-8.500372,0,297.8, -6.7, 2.3,0,0,1024,1024,1024,1024,0,0,0,0,291.2,0,0,99,4.219,4.221,4.221,4.216,0,0,7.892,75.92,83.969551899624,30.511812,6,P-GPS,
25900,2023-05-23 16:49:22,52.2064704726749,0.0864639467425297,30.511812,29.9540692,54.015482699624,83.969551899624,29.855644,9.3056704,30.4502634416,39.597114128,21,5,16.876,84.625719899624,31.16798,9.5964726,30.4502634416,4.250186,-8.276678,0,298.2, 23.4, 1.7,0,0,1024,1024,1024,1024,0,0,0,0,291.2,0,0,99,4.217,4.224,4.225,4.238,0,0,6.958,75.74,83.969551899624,30.511812,6,P-GPS,
26100,2023-05-23 16:49:23,52.2064734648703,0.0864552704886784,30.511812,29.9212608,54.048291099624,83.969551899624,29.855644,7.0016222,32.6595482892,41.823164068,21,5,16.876,84.625719899624,31.16798,9.5964726,32.6595482892,3.131716,-6.263432,0,298.6, 28.5, 2.2,0,0,1024,1024,1024,1024,0,0,0,0,291.2,0,0,99,4.217,4.224,4.225,4.238,0,0,6.958,75.74,83.969551899624,30.511812,6,P-GPS,
26300,2023-05-23 16:49:23,52.2064755905654,0.0864492203100081,30.839896,30.2165364,54.081099499624,84.297635899624,29.52756,4.6080964,34.209646764,43.38254732,21,5,16.876,84.625719899624,31.16798,9.5964726,34.209646764,1.789552,-4.250186,0,299.2, 29.5, 4.6,0,0,1024,1024,1024,1024,0,0,0,0,291.2,0,0,99,4.217,4.224,4.225,4.238,0,0,6.958,75.74,84.297635899624,30.839896,6,P-GPS,
26500,2023-05-23 16:49:23,52.206476778492,0.0864463374658585,30.839896,30.183728,54.113907899624,84.297635899624,29.52756,1.9908766,34.986221592,44.159122148,21,5,16.876,84.625719899624,31.16798,9.5964726,34.986221592,0.894776,-1.789552,0,299, 21.3, 5,0,0,1024,1024,1024,1024,0,0,0,0,291.2,0,0,99,4.217,4.224,4.225,4.238,0,0,6.958,75.74,84.297635899624,30.839896,6,P-GPS,
26700,2023-05-23 16:49:23,52.2064773069291,0.0864457923062307,30.839896,30.183728,54.113907899624,84.297635899624,29.52756,0.7158208,35.197835772,44.387140528,21,5,16.876,84.625719899624,31.16798,9.5964726,35.197835772,0.223694,-0.671082,0,297.3, 8.6, 4.5,0,0,1024,1024,1024,1024,0,0,0,0,291.2,0,0,99,4.217,4.224,4.225,4.238,0,0,6.958,75.74,84.297635899624,30.839896,6,P-GPS,
26900,2023-05-23 16:49:23,52.2064775843985,0.0864462700425982,30.839896,30.183728,54.113907899624,84.297635899624,29.52756,0.223694,35.171260968,44.534450244,21,5,16.791,84.625719899624,31.16798,9.5964726,35.197835772,0.223694,0,0,297.8, 2.9, 4.6,0,0,1024,1024,1024,1024,0,0,0,0,291.2,0,0,99,4.192,4.198,4.201,4.203,0,0,7.512,75.74,84.297635899624,30.839896,6,P-GPS,
27100,2023-05-23 16:49:24,52.2064777231054,0.0864470323881629,30.839896,30.183728,54.113907899624,84.297635899624,29.855644,0.223694,35.063649416,44.712271772,21,5,16.791,84.625719899624,31.16798,9.5964726,35.197835772,0.223694,0,0,298, 0.6, 3.8,0,0,1024,1024,1024,1024,0,0,0,0,291.2,0,0,99,4.192,4.198,4.201,4.203,0,0,7.512,75.74,84.297635899624,30.839896,6,P-GPS,
27300,2023-05-23 16:49:24,52.2064778118286,0.0864478406984135,30.839896,30.183728,54.113907899624,84.297635899624,30.183728,0.223694,34.93766516,44.895670728,21,5,16.791,84.625719899624,31.16798,9.5964726,35.197835772,0.223694,0,0,297.9, 0, 2.5,0,0,1024,1024,1024,1024,0,0,0,0,291.2,0,0,99,4.192,4.198,4.201,4.203,0,0,7.512,75.74,84.297635899624,30.839896,6,P-GPS,
27500,2023-05-23 16:49:24,52.2064778589723,0.0864485838640667,31.16798,30.511812,54.113907899624,84.625719899624,30.511812,0,34.814961744,45.062993568,21,5,16.791,84.625719899624,31.16798,9.5964726,35.197835772,0,0,0,297.9, -0.8, 2.2,0,0,1024,1024,1024,1024,0,0,0,0,291.2,0,0,99,4.192,4.198,4.201,4.203,0,0,7.512,75.74,84.625719899624,31.16798,6,P-GPS,
27700,2023-05-23 16:49:24,52.2064778657188,0.0864492531409281,31.16798,30.511812,54.113907899624,84.625719899624,30.839896,0,34.696851504,45.212599872,21,5,16.791,84.625719899624,31.16798,9.5964726,35.197835772,0,0,0,297.8, -1, 2.2,0,0,1024,1024,1024,1024,0,0,0,0,291.2,0,0,99,4.192,4.198,4.201,4.203,0,0,7.512,75.74,84.625719899624,31.16798,6,P-GPS,
27900,2023-05-23 16:49:24,52.2064778311941,0.0864497753601516,31.16798,30.511812,54.113907899624,84.625719899624,30.839896,0,34.595801632,45.330053944,21,5,16.854,84.625719899624,31.16798,9.5964726,35.197835772,0,0,0,297.8, -1, 2.1,0,0,1024,1024,1024,1024,0,0,0,0,291.2,0,0,99,4.218,4.217,4.22,4.214,0,0,7.403,75.92,84.625719899624,31.16798,6,P-GPS,
28100,2023-05-23 16:49:25,52.2064777465188,0.0864501635017283,31.16798,30.511812,54.113907899624,84.625719899624,30.839896,0,34.508203204,45.422245548,21,5,16.854,84.625719899624,31.16798,9.5964726,35.197835772,0,0,0,297.8, -0.9, 2.2,0,0,1024,1024,1024,1024,0,0,0,0,291.2,0,0,99,4.218,4.217,4.22,4.214,0,0,7.403,75.92,84.625719899624,31.16798,6,P-GPS,
28300,2023-05-23 16:49:25,52.2064776328358,0.0864504159999512,31.16798,30.511812,54.113907899624,84.625719899624,30.839896,0,34.437993228,45.49212744,21,5,16.854,84.625719899624,31.16798,9.5964726,35.197835772,0,0,0,297.8, -0.3, 2,0,0,1024,1024,1024,1024,0,0,0,0,291.2,0,0,99,4.218,4.217,4.22,4.214,0,0,7.403,75.92,84.625719899624,31.16798,6,P-GPS,
28500,2023-05-23 16:49:25,52.2064774613648,0.0864505599681135,31.16798,30.511812,54.113907899624,84.625719899624,30.511812,0,34.374673016,45.5626655,21,5,16.854,84.625719899624,31.16798,9.5964726,35.197835772,0,0,0,297.9, 0, 2.5,0,0,1024,1024,1024,1024,0,0,0,0,291.2,0,0,99,4.218,4.217,4.22,4.214,0,0,7.403,75.92,84.625719899624,31.16798,6,P-GPS,
28700,2023-05-23 16:49:25,52.2064772419662,0.086450650960857,31.16798,30.511812,54.113907899624,84.625719899624,30.511812,0,34.310040468,45.645014584,21,5,16.854,84.625719899624,31.16798,9.5964726,35.197835772,0,0,0,297.8, 0.1, 3.4,0,0,1024,1024,1024,1024,0,0,0,0,291.2,0,0,99,4.218,4.217,4.22,4.214,0,0,7.403,75.92,84.625719899624,31.16798,6,P-GPS,
28900,2023-05-23 16:49:25,52.206477041055,0.0864507744000835,31.16798,30.511812,54.113907899624,84.625719899624,30.511812,0,34.244095584,45.72342666,21,5,16.857,84.625719899624,31.16798,9.5964726,35.197835772,0,0,0,297.9, -0.3, 2.8,0,0,1024,1024,1024,1024,0,0,0,0,291.2,0,0,99,4.215,4.22,4.217,4.214,0,0,7.073,75.92,84.625719899624,31.16798,6,P-GPS,
29100,2023-05-23 16:49:26,52.2064768693741,0.0864509106585365,31.16798,30.511812,54.113907899624,84.625719899624,30.839896,0,34.182087708,45.792980468,21,5,16.857,84.625719899624,31.16798,9.5964726,35.197835772,0,0,0,297.9, -0.8, 2.6,0,0,1024,1024,1024,1024,0,0,0,0,291.2,0,0,99,4.215,4.22,4.217,4.214,0,0,7.073,75.92,84.625719899624,31.16798,6,P-GPS,
29300,2023-05-23 16:49:26,52.2064766738214,0.0864509919005597,31.16798,30.511812,54.113907899624,84.625719899624,30.839896,0,34.124673008,45.866799368,21,5,16.857,84.625719899624,31.16798,9.5964726,35.197835772,0,0,0,297.9, -0.7, 3.2,0,0,1024,1024,1024,1024,0,0,0,0,291.2,0,0,99,4.215,4.22,4.217,4.214,0,0,7.073,75.92,84.625719899624,31.16798,6,P-GPS,
29500,2023-05-23 16:49:26,52.2064764742766,0.0864510485945328,31.16798,30.5446204,54.081099499624,84.625719899624,30.839896,0,34.071195316,45.940618268,21,5,16.857,84.625719899624,31.16798,9.5964726,35.197835772,0,0,0,297.7, -1.2, 3.6,0,0,1024,1024,1024,1024,0,0,0,0,291.2,0,0,99,4.215,4.22,4.217,4.214,0,0,7.073,75.92,84.625719899624,31.16798,6,P-GPS,
29700,2023-05-23 16:49:26,52.2064763332096,0.0864510571220445,31.16798,30.5446204,54.081099499624,84.625719899624,30.839896,0,34.038715,45.992127456,21,5,16.857,84.625719899624,31.16798,9.5964726,35.197835772,0,0,0,297.8, -1.1, 3.6,0,0,1024,1024,1024,1024,0,0,0,0,291.2,0,0,99,4.215,4.22,4.217,4.214,0,0,7.073,75.92,84.625719899624,31.16798,6,P-GPS,
29900,2023-05-23 16:49:26,52.206476264156,0.086451046518573,31.16798,30.5446204,54.081099499624,84.625719899624,30.839896,0,34.02559164,46.017389924,21,5,16.851,84.625719899624,31.16798,9.5964726,35.197835772,0,0,0,297.9, -0.5, 3.4,0,0,1024,1024,1024,1024,0,0,0,0,291.2,0,0,99,4.211,4.217,4.216,4.213,0,0,7.121,76.1,84.625719899624,31.16798,6,P-GPS,
30100,2023-05-23 16:49:27,52.2064762228463,0.0864510494612635,31.16798,30.5446204,54.081099499624,84.625719899624,31.16798,0,34.016077204,46.032481788,21,5,16.851,84.625719899624,31.16798,9.5964726,35.197835772,0,0,0,297.9, -0.2, 2.9,0,0,1024,1024,1024,1024,0,0,0,0,291.2,0,0,99,4.211,4.217,4.216,4.213,0,0,7.121,76.1,84.625719899624,31.16798,6,P-GPS,
30300,2023-05-23 16:49:27,52.2064761751929,0.0864510685083695,31.16798,30.5446204,54.081099499624,84.625719899624,30.839896,0,34.002297676,46.050526408,21,5,16.851,84.625719899624,31.16798,9.5964726,35.197835772,0,0,0,297.9, -0.3, 3.1,0,0,1024,1024,1024,1024,0,0,0,0,291.2,0,0,99,4.211,4.217,4.216,4.213,0,0,7.121,76.1,84.625719899624,31.16798,6,P-GPS,
30500,2023-05-23 16:49:27,52.2064761295269,0.0864511061901855,31.16798,30.5446204,54.081099499624,84.625719899624,30.839896,0,33.985565392,46.069227196,21,5,16.851,84.625719899624,31.16798,9.5964726,35.197835772,0,0,0,297.8, -0.4, 3,0,0,1024,1024,1024,1024,0,0,0,0,291.2,0,0,99,4.211,4.217,4.216,4.213,0,0,7.121,76.1,84.625719899624,31.16798,6,P-GPS,
30700,2023-05-23 16:49:27,52.2064761010548,0.0864511661134295,31.16798,30.5446204,54.081099499624,84.625719899624,30.839896,0,33.968833108,46.08595948,21,5,16.851,84.625719899624,31.16798,9.5964726,35.197835772,0,0,0,297.9, -0.6, 2.6,0,0,1024,1024,1024,1024,0,0,0,0,291.2,0,0,99,4.211,4.217,4.216,4.213,0,0,7.121,76.1,84.625719899624,31.16798,6,P-GPS,
30900,2023-05-23 16:49:27,52.2064760885214,0.0864512284830907,31.16798,30.5446204,54.081099499624,84.625719899624,30.839896,0,33.954725496,46.10072326,21,5,16.852,84.625719899624,31.16798,9.5964726,35.197835772,0,0,0,297.9, -0.6, 2.6,0,0,1024,1024,1024,1024,0,0,0,0,291.2,0,0,99,4.212,4.218,4.215,4.211,0,0,7.154,76.1,84.625719899624,31.16798,6,P-GPS,
31100,2023-05-23 16:49:28,52.2064760829187,0.0864512879310307,31.16798,30.5446204,54.081099499624,84.625719899624,31.16798,0,33.942914472,46.114174704,21,5,16.852,84.625719899624,31.16798,9.5964726,35.197835772,0,0,0,297.9, -0.5, 2.6,0,0,1024,1024,1024,1024,0,0,0,0,291.2,0,0,99,4.212,4.218,4.215,4.211,0,0,7.154,76.1,84.625719899624,31.16798,6,P-GPS,
31300,2023-05-23 16:49:28,52.206476047079,0.0864513452051543,31.16798,30.5446204,54.081099499624,84.625719899624,31.16798,0,33.924869852,46.132547408,21,5,16.852,84.625719899624,31.16798,9.5964726,35.197835772,0,0,0,297.8, -0.8, 2.8,0,0,1024,1024,1024,1024,0,0,0,0,291.2,0,0,99,4.212,4.218,4.215,4.211,0,0,7.154,76.1,84.625719899624,31.16798,6,P-GPS,
31500,2023-05-23 16:49:28,52.2064760147003,0.0864514075188974,31.16798,30.5446204,54.081099499624,84.625719899624,30.839896,0,33.906497148,46.150592028,21,5,16.852,84.625719899624,31.16798,9.5964726,35.197835772,0,0,0,297.7, -1.1, 2.8,0,0,1024,1024,1024,1024,0,0,0,0,291.2,0,0,99,4.212,4.218,4.215,4.211,0,0,7.154,76.1,84.625719899624,31.16798,6,P-GPS,
31700,2023-05-23 16:49:28,52.2064760115006,0.086451458285551,31.16798,30.5446204,54.081099499624,84.625719899624,30.839896,0,33.896654628,46.162074968,21,5,16.852,84.625719899624,31.16798,9.5964726,35.197835772,0,0,0,297.8, -1, 2.7,0,0,1024,1024,1024,1024,0,0,0,0,291.2,0,0,99,4.212,4.218,4.215,4.211,0,0,7.154,76.1,84.625719899624,31.16798,6,P-GPS,
31900,2023-05-23 16:49:28,52.2064760235457,0.0864514840358403,31.16798,30.5446204,54.081099499624,84.625719899624,30.511812,0,33.894686124,46.169292816,21,5,16.856,84.625719899624,31.16798,9.5964726,35.197835772,0,0,0,297.9, -1, 2.7,0,0,1024,1024,1024,1024,0,0,0,0,291.2,0,0,99,4.211,4.218,4.217,4.213,0,0,7.057,76.1,84.625719899624,31.16798,6,P-GPS,
32100,2023-05-23 16:49:29,52.2064760462437,0.0864514530222589,31.16798,30.5446204,54.081099499624,84.625719899624,30.839896,0,33.905184812,46.180119588,21,5,16.856,84.625719899624,31.16798,9.5964726,35.197835772,0,0,0,297.8, -0.7, 2.7,0,0,1024,1024,1024,1024,0,0,0,0,291.2,0,0,99,4.211,4.218,4.217,4.213,0,0,7.057,76.1,84.625719899624,31.16798,6,P-GPS,
32300,2023-05-23 16:49:29,52.2064760686248,0.0864513960417055,31.16798,30.5446204,54.081099499624,84.625719899624,30.839896,0,33.920276676,46.195211452,21,5,16.856,84.625719899624,31.16798,9.5964726,35.197835772,0,0,0,297.9, -0.4, 3,0,0,1024,1024,1024,1024,0,0,0,0,291.2,0,0,99,4.211,4.218,4.217,4.213,0,0,7.057,76.1,84.625719899624,31.16798,6,P-GPS,
32500,2023-05-23 16:49:29,52.2064761203389,0.0864513661954146,31.16798,30.5446204,54.081099499624,84.625719899624,30.839896,0,33.93700896,46.215224576,21,5,16.856,84.625719899624,31.16798,9.5964726,35.197835772,0,0,0,297.9, -0.2, 2.5,0,0,1024,1024,1024,1024,0,0,0,0,291.2,0,0,99,4.211,4.218,4.217,4.213,0,0,7.057,76.1,84.625719899624,31.16798,6,P-GPS,
32700,2023-05-23 16:49:29,52.2064761752357,0.0864513511115046,31.16798,30.5446204,54.081099499624,84.625719899624,30.839896,0,33.95177274,46.235565784,21,5,16.856,84.625719899624,31.16798,9.5964726,35.197835772,0,0,0,297.8, -0.5, 2.5,0,0,1024,1024,1024,1024,0,0,0,0,291.2,0,0,99,4.211,4.218,4.217,4.213,0,0,7.057,76.1,84.625719899624,31.16798,6,P-GPS,
32900,2023-05-23 16:49:29,52.2064762383739,0.0864513277307451,31.16798,30.5446204,54.081099499624,84.625719899624,31.16798,0,33.969489276,46.259187832,21,5,16.853,84.625719899624,31.16798,9.5964726,35.197835772,0,0,0,297.8, -0.6, 2.3,0,0,1024,1024,1024,1024,0,0,0,0,291.2,0,0,99,4.211,4.218,4.215,4.212,0,0,7.065,76.1,84.625719899624,31.16798,6,P-GPS,
33100,2023-05-23 16:49:30,52.2064762902379,0.0864512946202346,31.16798,30.5446204,54.081099499624,84.625719899624,31.16798,0,33.986877728,46.27952904,21,5,16.853,84.625719899624,31.16798,9.5964726,35.197835772,0,0,0,297.7, -0.3, 2.7,0,0,1024,1024,1024,1024,0,0,0,0,291.2,0,0,99,4.211,4.218,4.215,4.212,0,0,7.065,76.1,84.625719899624,31.16798,6,P-GPS,
33300,2023-05-23 16:49:30,52.2064763609963,0.0864512553237832,31.16798,30.5446204,54.081099499624,84.625719899624,30.839896,0,34.00918744,46.306760012,21,5,16.853,84.625719899624,31.16798,9.5964726,35.197835772,0,0,0,297.7, -0.1, 2.6,0,0,1024,1024,1024,1024,0,0,0,0,291.2,0,0,99,4.211,4.218,4.215,4.212,0,0,7.065,76.1,84.625719899624,31.16798,6,P-GPS,
33500,2023-05-23 16:49:30,52.2064764330869,0.0864511866004268,31.16798,30.5446204,54.081099499624,84.625719899624,30.839896,0,34.037402664,46.337271824,21,5,16.853,84.625719899624,31.16798,9.5964726,35.197835772,0,0,0,297.8, 0, 2.4,0,0,1024,1024,1024,1024,0,0,0,0,291.2,0,0,99,4.211,4.218,4.215,4.212,0,0,7.065,76.1,84.625719899624,31.16798,6,P-GPS,
33700,2023-05-23 16:49:30,52.2064765079189,0.0864511060713595,31.16798,30.511812,54.113907899624,84.625719899624,30.839896,0,34.06824256,46.370080224,21,5,16.853,84.625719899624,31.16798,9.5964726,35.197835772,0,0,0,297.9, 0.4, 2.1,0,0,1024,1024,1024,1024,0,0,0,0,291.2,0,0,99,4.211,4.218,4.215,4.212,0,0,7.065,76.1,84.625719899624,31.16798,6,P-GPS,
33900,2023-05-23 16:49:30,52.2064765868887,0.0864510363694362,31.16798,30.511812,54.113907899624,84.625719899624,31.16798,0,34.09777012,46.402888624,21,5,16.849,84.625719899624,31.16798,9.5964726,35.197835772,0,0,0,298, 0.7, 2.6,0,0,1024,1024,1094,1024,0,0,11,0,291.2,0,0,99,4.21,4.217,4.213,4.21,0,0,7.059,76.28,84.625719899624,31.16798,6,P-GPS,
34100,2023-05-23 16:49:31,52.2064766797497,0.086451019013853,31.16798,30.511812,54.113907899624,84.625719899624,30.839896,0,34.121064084,46.43700936,21,5,16.849,84.625719899624,31.16798,9.5964726,35.197835772,0,0,0,298, 0.4, 2.3,0,0,1024,1024,1024,1024,0,0,0,0,291.2,0,0,99,4.21,4.217,4.213,4.21,0,0,7.059,76.28,84.625719899624,31.16798,6,P-GPS,
34300,2023-05-23 16:49:31,52.2064767715785,0.0864510753793072,31.16798,30.511812,54.113907899624,84.625719899624,30.839896,0,34.131234688,46.472770516,21,5,16.849,84.625719899624,31.16798,9.5964726,35.197835772,0,0,0,297.9, 0.3, 1.9,0,0,1024,1024,1024,1024,0,0,0,0,291.2,0,0,99,4.21,4.217,4.213,4.21,0,0,7.059,76.28,84.625719899624,31.16798,6,P-GPS,
34500,2023-05-23 16:49:31,52.2064768533111,0.0864511834270741,31.16798,30.511812,54.113907899624,84.625719899624,31.16798,0,34.129922352,46.511156344,25,5,16.849,84.625719899624,31.16798,9.5964726,35.197835772,0,0,0,297.9, -0.2, 1.6,0,0,1024,1024,1024,1024,0,0,0,0,291.2,0,0,99,4.21,4.217,4.213,4.21,0,0,7.059,76.28,84.625719899624,31.16798,6,P-GPS,
34700,2023-05-23 16:49:31,52.2064769110649,0.0864512765936341,31.16798,30.511812,54.113907899624,84.625719899624,31.16798,0,34.12565726,46.540683904,25,5,16.849,84.625719899624,31.16798,9.5964726,35.197835772,0,0,0,297.9, -0.3, 1.4,0,0,1099,1024,1024,1024,11,0,0,0,291.2,0,0,99,4.21,4.217,4.213,4.21,0,0,7.059,76.28,84.625719899624,31.16798,6,P-GPS,
34900,2023-05-23 16:49:31,52.2064769253117,0.0864513267172294,31.16798,30.511812,54.113907899624,84.625719899624,30.839896,0,34.120079832,46.553151096,25,5,16.849,84.625719899624,31.16798,9.5964726,35.197835772,0,0,0,297.9, -0.4, 1.5,0,0,1536,1024,1024,1024,78,0,0,0,291.2,0,0,99,4.21,4.217,4.213,4.21,0,0,7.059,76.28,84.625719899624,31.16798,6,P-GPS,
35100,2023-05-23 16:49:32,52.2064768760477,0.0864513128495382,31.16798,30.511812,54.113907899624,84.625719899624,30.839896,0,34.111549648,46.571195716,25,5,16.853,84.625719899624,31.16798,9.5964726,35.197835772,0,0,0,297.8, -6.6, 1.1,0,0,1024,1024,1024,1024,0,0,0,0,291.2,0,0,99,4.213,4.214,4.215,4.213,0,0,7.068,76.28,84.625719899624,31.16798,6,P-GPS,
35300,2023-05-23 16:49:32,52.2064769227973,0.0864507285891724,31.16798,30.511812,54.113907899624,84.625719899624,31.16798,0.7158208,34.226379048,46.703085484,25,5,16.853,84.625719899624,31.16798,9.5964726,35.197835772,0.223694,-0.671082,0,297.6, -13.7, 2,0,0,1024,1024,1024,1024,0,0,0,0,291.2,0,0,99,4.213,4.214,4.215,4.213,0,0,7.068,76.28,84.625719899624,31.16798,6,P-GPS,
35500,2023-05-23 16:49:32,52.2064772254663,0.0864491963281289,31.16798,30.511812,54.113907899624,84.625719899624,30.839896,1.1408394,34.56693024,47.062993632,25,5,16.853,84.625719899624,31.16798,9.5964726,35.197835772,0.223694,-1.11847,0,298.2, 9, 2.6,0,0,1024,1024,1024,1024,0,0,0,0,291.2,0,0,99,4.213,4.214,4.215,4.213,0,0,7.068,76.28,84.625719899624,31.16798,6,P-GPS,
35700,2023-05-23 16:49:32,52.2064773501663,0.0864481524139142,31.16798,30.511812,54.113907899624,84.625719899624,30.839896,0.447388,34.781497176,47.300854532,25,5,16.853,84.625719899624,31.16798,9.5964726,35.197835772,0,-0.447388,0,298, 6.9, 4.1,0,0,1024,1024,1344,1024,0,0,48,0,291.2,0,0,99,4.213,4.214,4.215,4.213,0,0,7.068,76.28,84.625719899624,31.16798,6,P-GPS,
35900,2023-05-23 16:49:32,52.2064773580136,0.0864478848247915,31.16798,30.511812,54.113907899624,84.625719899624,30.839896,0,34.831365944,47.36056582,25,5,16.853,84.625719899624,31.16798,9.5964726,35.197835772,0,0,0,298.1, 2.9, 3.2,0,0,1024,1024,1581,1024,0,0,84,0,291.2,0,0,99,4.213,4.214,4.215,4.213,0,0,7.068,76.28,84.625719899624,31.16798,6,P-GPS,
36100,2023-05-23 16:49:33,52.2064773142966,0.0864480614700991,31.16798,30.511812,54.113907899624,84.625719899624,30.839896,0,34.79002736,47.40321674,25,5,16.788,84.625719899624,31.16798,9.5964726,35.197835772,0,0,-1.11847,298.2, 0.4, 1.9,0,0,1024,1024,1637,1024,0,0,93,0,291.2,0,0,98,4.197,4.21,4.206,4.2,0,0,7.475,76.46,84.625719899624,31.16798,6,P-GPS,
36300,2023-05-23 16:49:33,52.2064772509743,0.0864484172420802,31.824148,31.16798,54.113907899624,85.281887899624,31.824148,0.223694,34.712271452,47.486221992,25,5,16.788,85.281887899624,31.824148,9.5964726,35.197835772,0,0.223694,-3.579104,297.9, -1.3, 2,0,0,1024,1024,1587,1024,0,0,85,0,291.2,0,0,98,4.197,4.21,4.206,4.2,0,0,7.475,76.46,85.281887899624,31.824148,6,P-GPS,
36500,2023-05-23 16:49:33,52.2064772214656,0.0864486501689649,33.464568,32.8084,54.113907899624,86.922307899624,33.464568,0,34.664043104,47.5393716,25,5,16.788,86.922307899624,33.464568,9.5964726,35.197835772,0,0,-6.039738,297.9, -0.9, 2.3,0,0,1024,1024,1024,1024,0,0,0,0,291.2,0,0,98,4.197,4.21,4.206,4.2,0,0,7.475,76.46,86.922307899624,33.464568,6,P-GPS,
36700,2023-05-23 16:49:33,52.2064772490382,0.0864487945844721,35.104988,34.44882,54.113907899624,88.562727899624,35.433072,0,34.64402998,47.573164252,25,5,16.788,88.562727899624,35.104988,9.5964726,35.197835772,0,0,-5.59235,297.7, -1, 2.8,0,0,1540,1024,1024,1024,78,0,0,0,291.2,0,0,98,4.197,4.21,4.206,4.2,0,0,7.475,76.46,88.562727899624,35.104988,6,P-GPS,
36900,2023-05-23 16:49:33,52.2064772781657,0.0864488807682582,36.417324,35.761156,54.113907899624,89.875063899624,36.745408,0,34.634843628,47.59514588,25,5,16.788,89.875063899624,36.417324,9.5964726,35.197835772,0,0,-3.579104,297.7, -1.2, 0.8,0,0,1679,1024,1024,1024,99,0,0,0,291.2,0,0,98,4.197,4.21,4.206,4.2,0,0,7.475,76.46,89.875063899624,36.417324,6,P-GPS,
37100,2023-05-23 16:49:34,52.2064772905277,0.0864487863016021,37.073492,36.417324,54.113907899624,90.531231899624,34.44882,0.223694,34.654528668,47.616799424,25,5,16.529,90.531231899624,37.073492,9.5964726,35.197835772,0,-0.223694,-1.11847,297.4, -18.7, 1.3,0,0,1684,1024,1024,1024,100,0,0,0,291.2,0,0,98,4.187,4.231,4.229,4.225,0,0,10.65,76.28,90.531231899624,37.073492,6,P-GPS,
37300,2023-05-23 16:49:34,52.2064775600728,0.0864477463086448,37.401576,36.745408,54.113907899624,90.859315899624,34.44882,1.4092722,34.8999355,47.86909602,25,5,16.529,90.859315899624,37.401576,9.5964726,35.197835772,0.447388,-1.342164,0,297.4, -27.8, 1.2,0,0,1683,1024,1024,1024,100,0,0,0,291.2,0,0,98,4.187,4.231,4.229,4.225,0,0,10.65,76.28,90.859315899624,37.401576,6,P-GPS,
37500,2023-05-23 16:49:34,52.2064784747363,0.0864446264835478,37.401576,36.745408,54.113907899624,90.859315899624,28.543308,3.7133204,35.65944996,48.642390008,25,5,16.529,90.859315899624,37.401576,9.5964726,35.65944996,1.565858,-3.35541,0,297.2, -28.3, 1.2,0,0,1657,1024,1024,1024,96,0,0,0,291.2,0,0,98,4.187,4.231,4.229,4.225,0,0,10.65,76.28,90.859315899624,37.401576,6,P-GPS,
37700,2023-05-23 16:49:34,52.2064801570937,0.0864388864896199,37.401576,36.7125996,54.146716299624,90.859315899624,28.215224,5.4133948,37.058400136,50.064962232,25,5,16.529,90.859315899624,37.401576,9.5964726,37.058400136,2.23694,-4.921268,0,297.5, -18.8, 1.9,0,0,1632,1024,1024,1024,92,0,0,0,291.2,0,0,98,4.187,4.231,4.229,4.225,0,0,10.65,76.28,90.859315899624,37.401576,6,P-GPS,
