time(millisecond),datetime(utc),latitude,longitude,height_above_takeoff(feet),height_above_ground_at_drone_location(feet),ground_elevation_at_drone_location(feet),altitude_above_seaLevel(feet),height_sonar(feet),speed(mph),distance(feet),mileage(feet),satellites,gpslevel,voltage(v),max_altitude(feet),max_ascent(feet),max_speed(mph),max_distance(feet), xSpeed(mph), ySpeed(mph), zSpeed(mph), compass_heading(degrees), pitch(degrees), roll(degrees),isPhoto,isVideo,rc_elevator,rc_aileron,rc_throttle,rc_rudder,rc_elevator(percent),rc_aileron(percent),rc_throttle(percent),rc_rudder(percent),gimbal_heading(degrees),gimbal_pitch(degrees),gimbal_roll(degrees),battery_percent,voltageCell1,voltageCell2,voltageCell3,voltageCell4,voltageCell5,voltageCell6,current(A),battery_temperature(f),altitude(feet),ascent(feet),flycStateRaw,flycState,message
0,2023-05-25 13:48:36,52.8252059015121,-1.24756755509046,0,0,178.48651194516,178.48651194516,0.328084,0,0,0,23,5,0,178.48651194516,0,0,0,0,0,0,72.1, 3.6, -1.5,0,0,1024,1024,1024,1024,0,0,0,0,72.4,0,0,81,4.117,4.128,4.124,4.12,0,0,0,86.9,178.48651194516,0,41,Motors_Started,"Aircraft in Warning Zone (Class D Airspace). Fly with caution (Code: 190002). Remote controller not bound/still confirming binding status (Code: 30306). Aircraft not in flight. Vision systems and obstacle avoidance disabled (Code: 180059)"
200,2023-05-25 13:48:36,52.825205771587,-1.2475674758813,0,0,178.48651194516,178.48651194516,0.328084,0,0.050517390068,0.050517390068,23,5,0,178.48651194516,0,0,0.050517390068,0,0,0,72.1, 3.6, -1.5,0,0,1024,1024,1024,1024,0,0,0,0,72.4,0,0,81,4.117,4.128,4.124,4.12,0,0,0,86.9,178.48651194516,0,41,Motors_Started,
400,2023-05-25 13:48:36,52.8252056586671,-1.2475674074162,0,0,178.48651194516,178.48651194516,0.328084,0,0.094393703808,0.094394031892,23,5,0,178.48651194516,0,0,0.094393703808,0,0,0,72.2, 3.6, -1.5,0,0,1024,1024,1024,1024,0,0,0,0,72.4,0,0,81,4.117,4.128,4.124,4.12,0,0,0,86.9,178.48651194516,0,41,Motors_Started,"Setting new Return-To-Home altitude to 26m (85 ft). Data Recorder File Index is 21. Setting new Maximum Flight Altitude to 120m (394 ft). Unable to take off"
600,2023-05-25 13:48:36,52.8252055745148,-1.24756735913131,0,0,178.48651194516,178.48651194516,0,0,0.126885502748,0.12688976784,23,5,0,178.48651194516,0,0,0.126885502748,0,0,0,72, 3.5, -1.5,0,0,1024,1024,1024,1024,0,0,0,0,72.4,0,0,81,4.117,4.128,4.124,4.12,0,0,0,86.9,178.48651194516,0,41,Motors_Started,
800,2023-05-25 13:48:37,52.8252054977256,-1.24756730955004,0,0,178.48651194516,178.48651194516,0,0,0.156951448592,0.156962931532,23,5,0,178.48651194516,0,0,0.156951448592,0,0,0,71.9, 3.5, -1.6,0,0,1024,1024,1024,1024,0,0,0,0,72.4,0,0,81,4.117,4.128,4.124,4.12,0,0,0,86.9,178.48651194516,0,41,Motors_Started,
1000,2023-05-25 13:48:37,52.8252054010571,-1.24756724786366,0,0,178.48651194516,178.48651194516,0,0,0.194748365812,0.194763457676,23,5,0,178.48651194516,0,0,0.194748365812,0,0,0,71.9, 3.5, -1.6,0,0,1024,1024,1024,1024,0,0,0,0,72.4,0,0,81,4.117,4.128,4.124,4.12,0,0,0,86.9,178.48651194516,0,41,Motors_Started,
1200,2023-05-25 13:48:37,52.8252052897639,-1.24756717465433,0,0,178.48651194516,178.48651194516,0,0,0.238434062748,0.238458669048,23,5,0,178.48651194516,0,0,0.238434062748,0,0,0,71.9, 3.4, -1.6,0,0,1024,1024,1024,1024,0,0,0,0,72.4,0,0,81,4.117,4.128,4.124,4.12,0,0,0,86.9,178.48651194516,0,41,Motors_Started,
1400,2023-05-25 13:48:37,52.8252051571638,-1.24756710956352,0,0,178.48651194516,178.48651194516,0,0,0.28879101974,0.288921269088,23,5,16.495,178.48651194516,0,0,0.28879101974,0,0,0,71.9, 3.5, -1.6,0,0,1024,1024,1024,1024,0,0,0,0,72.4,0,0,81,4.117,4.128,4.124,4.12,0,0,4.028,86.9,178.48651194516,0,41,Motors_Started,
1600,2023-05-25 13:48:37,52.825205010983,-1.24756701683324,0,0,178.48651194516,178.48651194516,0,0,0.3458989612,0.34604003732,23,5,16.495,178.48651194516,0,0,0.3458989612,0,0,0,71.9, 3.5, -1.6,0,0,1024,1024,1024,1024,0,0,0,0,72.4,0,0,81,4.117,4.128,4.124,4.12,0,0,4.028,86.9,178.48651194516,0,11,AutoTakeoff,
1800,2023-05-25 13:48:38,52.8252048413409,-1.24756691278383,0,0,178.48651194516,178.48651194516,0,0,0.41190618116,0.41204725728,23,5,16.495,178.48651194516,0,0,0.41190618116,0,0,0,71.8, 3.4, -1.6,0,0,1024,1024,1024,1024,0,0,0,0,72.4,0,0,81,4.117,4.128,4.124,4.12,0,0,4.028,86.9,178.48651194516,0,11,AutoTakeoff,
2000,2023-05-25 13:48:38,52.825204644471,-1.24756682185944,0,0,178.48651194516,178.48651194516,0,0,0.48628282396,0.48662075048,23,5,16.495,178.48651194516,0,0,0.48628282396,0,0,0,71.6, 2.4, -1.7,0,0,1024,1024,1024,1024,0,0,0,0,72.4,0,0,81,4.117,4.128,4.124,4.12,0,0,4.028,86.9,178.48651194516,0,11,AutoTakeoff,
2200,2023-05-25 13:48:38,52.8252045243753,-1.24756675026017,0,0,178.48651194516,178.48651194516,0,0,0.5328576286,0.53319227428,23,5,16.495,178.48651194516,0,0,0.5328576286,0,0,-0.671082,71.1, -2.7, -0.3,0,0,1024,1024,1024,1024,0,0,0,0,72.3,0,0,81,4.117,4.128,4.124,4.12,0,0,4.028,86.9,178.48651194516,0,11,AutoTakeoff,
2400,2023-05-25 13:48:38,52.8252045051502,-1.24756651114491,0.328084,0.328084,178.48651194516,178.81459594516,0.328084,0,0.55903545096,0.58637140984,23,5,16.528,178.81459594516,0.328084,0,0.55903545096,0,0,-1.11847,71.3, 1.2, 0.9,0,0,1024,1024,1024,1024,0,0,0,0,72.2,0,0,81,4.116,4.123,4.119,4.113,0,0,3.506,86.9,178.81459594516,0.328084,11,AutoTakeoff,
2600,2023-05-25 13:48:38,52.8252044553714,-1.24756627600384,0.656168,0.62335959999998,178.51932034516,179.14267994516,0.656168,0,0.59825133148,0.64130251396,23,5,16.528,179.14267994516,0.656168,0,0.59825133148,0,0,-0.894776,71.3, 1.9, 0.9,0,0,1024,1024,1024,1024,0,0,0,0,72.2,0,0,81,4.116,4.123,4.119,4.113,0,0,3.506,86.9,179.14267994516,0.656168,11,AutoTakeoff,
2800,2023-05-25 13:48:39,52.8252043747893,-1.24756621107519,0.984252,0.95144359999998,178.51932034516,179.47076394516,0.984252,0,0.63092849788,0.6739993654,23,5,16.528,179.47076394516,0.984252,0,0.63092849788,0,0,-0.894776,71.3, 1.1, 1.4,0,0,1024,1024,1024,1024,0,0,0,0,72.1,0,0,81,4.116,4.123,4.119,4.113,0,0,3.506,86.9,179.47076394516,0.984252,11,AutoTakeoff,
3000,2023-05-25 13:48:39,52.8252042543059,-1.24756626705327,1.312336,1.2795276,178.51932034516,179.79884794516,1.312336,0,0.66469162232,0.71965881568,23,5,16.528,179.79884794516,1.312336,0,0.66469162232,0,0,-0.894776,71.2, -0.5, 1.3,0,0,1024,1024,1024,1024,0,0,0,0,72.1,0,0,81,4.116,4.123,4.119,4.113,0,0,3.506,86.9,179.79884794516,1.312336,11,AutoTakeoff,
3200,2023-05-25 13:48:39,52.825204199765,-1.2475663126692,1.64042,1.6076116,178.51932034516,180.12693194516,1.64042,0,0.67861550728,0.74195540432,23,5,16.528,180.12693194516,1.64042,0,0.67861550728,0,0,-0.894776,71.5, -1.3, 1.8,0,0,1024,1024,1024,1024,0,0,0,0,72.1,0,0,81,4.116,4.123,4.119,4.113,0,0,3.506,86.9,180.12693194516,1.64042,11,AutoTakeoff,
3400,2023-05-25 13:48:39,52.8252041892609,-1.24756623753348,1.968504,1.9356956,178.51932034516,180.45501594516,1.64042,0,0.68894031076,0.7589567172,22,5,16.39,180.45501594516,1.968504,0,0.68894031076,0,0,-0.894776,71.5, -0.5, 1.6,0,0,1024,1024,1024,1024,0,0,0,0,72.1,0,0,81,4.091,4.099,4.099,4.092,0,0,7.088,86.9,180.45501594516,1.968504,11,AutoTakeoff,
3600,2023-05-25 13:48:39,52.8252041786637,-1.24756609663173,2.296588,2.2637796,178.51932034516,180.78309994516,1.968504,0,0.70604332968,0.79025921164,22,5,16.39,180.78309994516,2.296588,0,0.70604332968,0,0,-0.894776,71.1, -1, -0.1,0,0,1024,1024,1024,1024,0,0,0,0,72,0,0,81,4.091,4.099,4.099,4.092,0,0,7.088,86.9,180.78309994516,2.296588,11,AutoTakeoff,
3800,2023-05-25 13:48:40,52.8252042631041,-1.24756594063957,2.624672,2.5918636,178.51932034516,181.11118394516,2.624672,0,0.69570868368,0.83643047296,23,5,16.39,181.11118394516,2.624672,0,0.70604332968,0,0,-1.11847,71, -1.2, 0.9,0,0,1024,1024,1024,1024,0,0,0,0,72,0,0,81,4.091,4.099,4.099,4.092,0,0,7.088,86.9,181.11118394516,2.624672,11,AutoTakeoff,
4000,2023-05-25 13:48:40,52.825204448655,-1.24756573189477,2.952756,2.9199476,178.51932034516,181.43926794516,2.952756,0,0.66523296092,0.9182907118,21,5,16.39,181.43926794516,2.952756,0,0.70604332968,0,0,-1.11847,71.3, 0, 2.4,0,0,1024,1024,1024,1024,0,0,0,0,71.9,0,0,81,4.091,4.099,4.099,4.092,0,0,7.088,86.9,181.43926794516,2.952756,11,AutoTakeoff,
4200,2023-05-25 13:48:40,52.8252046564871,-1.2475654830784,3.28084,3.28084,178.48651194516,181.76735194516,3.28084,0,0.64420605736,1.0118766728,23,5,16.39,181.76735194516,3.28084,0,0.70604332968,0,0,-1.11847,71.3, 1.6, 3.7,0,0,1024,1024,1024,1024,0,0,0,0,71.9,0,0,81,4.091,4.099,4.099,4.092,0,0,7.088,86.9,181.76735194516,3.28084,11,AutoTakeoff,
4400,2023-05-25 13:48:40,52.8252047443179,-1.24756536135468,3.608924,3.608924,178.48651194516,182.09543594516,3.608924,0,0.64199149036,1.0536745744,24,5,16.372,182.09543594516,3.608924,0,0.70604332968,0,0,-1.11847,71.3, 1.5, 3.9,0,0,1024,1024,1024,1024,0,0,0,0,71.9,0,0,81,4.089,4.098,4.096,4.091,0,0,7.486,86.9,182.09543594516,3.608924,11,AutoTakeoff,
4600,2023-05-25 13:48:41,52.8252046878483,-1.24756541695971,3.937008,3.937008,178.48651194516,182.42351994516,3.608924,0,0.646735585,1.07764767228,24,5,16.372,182.42351994516,3.937008,0,0.70604332968,0,0,-0.447388,71.2, 0.7, 3.5,0,0,1024,1024,1024,1024,0,0,0,0,71.9,0,0,81,4.089,4.098,4.096,4.091,0,0,7.486,86.9,182.42351994516,3.937008,6,P-GPS,
4800,2023-05-25 13:48:41,52.8252045700871,-1.2475655356237,3.937008,3.937008,178.48651194516,182.42351994516,3.937008,0,0.65892718644,1.127952792,23,5,16.372,182.42351994516,3.937008,0,0.70604332968,0,0,0,71.4, 0, 2.5,0,0,1024,1024,1024,1024,0,0,0,0,71.9,0,0,81,4.089,4.098,4.096,4.091,0,0,7.486,86.9,182.42351994516,3.937008,6,P-GPS,
5000,2023-05-25 13:48:41,52.8252044288569,-1.24756566960051,3.937008,3.9041996,178.51932034516,182.42351994516,3.608924,0,0.67931760704,1.18734583852,23,5,16.372,182.42351994516,3.937008,0,0.70604332968,0,0,0,71.7, -0.7, 1.5,0,0,1024,1024,1024,1024,0,0,0,0,71.9,0,0,81,4.089,4.098,4.096,4.091,0,0,7.486,86.9,182.42351994516,3.937008,6,P-GPS,
5200,2023-05-25 13:48:41,52.8252043040291,-1.24756583143921,3.937008,3.9041996,178.51932034516,182.42351994516,3.608924,0,0.69577430048,1.24520017108,23,5,16.372,182.42351994516,3.937008,0,0.70604332968,0,0,0,72, -0.8, 1.7,0,0,1024,1024,1024,1024,0,0,0,0,71.9,0,0,81,4.089,4.098,4.096,4.091,0,0,7.486,86.9,182.42351994516,3.937008,6,P-GPS,"Home Point updated (Code: 3000001)"
5400,2023-05-25 13:48:41,52.8252041727654,-1.24756590290202,3.937008,3.9041996,178.51932034516,182.42351994516,3.608924,0,0.72834976084,1.29561683936,23,5,16.385,182.42351994516,3.937008,0,0.72834976084,0,0,0,72, -0.2, 1.4,0,0,1024,1024,1024,1024,0,0,0,0,71.9,0,0,81,4.09,4.098,4.098,4.093,0,0,6.745,86.9,182.42351994516,3.937008,6,P-GPS,
5600,2023-05-25 13:48:42,52.8252040865067,-1.24756596196109,3.937008,3.9041996,178.51932034516,182.42351994516,3.608924,0,0.74958007648,1.3296752394,23,5,16.385,182.42351994516,3.937008,0,0.74958007648,0,0,0,72, -0.1, 1.2,0,0,1024,1024,1024,1024,0,0,0,0,71.9,0,0,81,4.09,4.098,4.098,4.093,0,0,6.745,86.9,182.42351994516,3.937008,6,P-GPS,
5800,2023-05-25 13:48:42,52.8252040045957,-1.24756604053757,3.937008,3.9041996,178.51932034516,182.42351994516,3.608924,0,0.7684219406,1.36421592292,23,5,16.385,182.42351994516,3.937008,0,0.7684219406,0,0,0,71.8, 0, 1,0,0,1024,1024,1024,1024,0,0,0,0,71.9,0,0,81,4.09,4.098,4.098,4.093,0,0,6.745,86.9,182.42351994516,3.937008,6,P-GPS,
6000,2023-05-25 13:48:42,52.8252039355896,-1.24756612633938,3.937008,3.9041996,178.51932034516,182.42351994516,3.608924,0,0.78337929016,1.39570870608,24,5,16.385,182.42351994516,3.937008,0,0.78337929016,0,0,0,71.8, 0, 0.2,0,0,1024,1024,1024,1024,0,0,0,0,71.9,0,0,81,4.09,4.098,4.098,4.093,0,0,6.745,86.9,182.42351994516,3.937008,6,P-GPS,
6200,2023-05-25 13:48:42,52.825203930866,-1.24756623435501,3.937008,3.9041996,178.51932034516,182.42351994516,3.28084,0,0.77570868624,1.41958337876,24,5,16.385,182.42351994516,3.937008,0,0.78337929016,0,0,0,72, -0.4, 0.6,0,0,1024,1024,1024,1024,0,0,0,0,71.9,0,0,81,4.09,4.098,4.098,4.093,0,0,6.745,86.9,182.42351994516,3.937008,6,P-GPS,
6400,2023-05-25 13:48:42,52.8252039613062,-1.24756635917834,3.937008,3.9041996,178.51932034516,182.42351994516,3.28084,0,0.75538716328,1.44925857656,24,5,16.372,182.42351994516,3.937008,0,0.78337929016,0,0,0,71.9, -0.4, 1.9,0,0,1024,1024,1024,1024,0,0,0,0,71.9,0,0,81,4.09,4.097,4.096,4.089,0,0,6.868,86.72,182.42351994516,3.937008,6,P-GPS,
6600,2023-05-25 13:48:43,52.8252039788512,-1.24756648457586,3.937008,3.9041996,178.51932034516,182.42351994516,3.28084,0,0.74011813392,1.47763456172,24,5,16.372,182.42351994516,3.937008,0,0.78337929016,0,0,0,71.8, -0.5, 2.1,0,0,1024,1024,1024,1024,0,0,0,0,71.9,0,0,81,4.09,4.097,4.096,4.089,0,0,6.868,86.72,182.42351994516,3.937008,6,P-GPS,
6800,2023-05-25 13:48:43,52.825203966728,-1.24756659536501,3.937008,3.9041996,178.51932034516,182.42351994516,3.28084,0,0.73693243828,1.50245739716,24,5,16.372,182.42351994516,3.937008,0,0.78337929016,0,0,0,72, -0.4, 2.1,0,0,1024,1024,1024,1024,0,0,0,0,71.9,0,0,81,4.09,4.097,4.096,4.089,0,0,6.868,86.72,182.42351994516,3.937008,6,P-GPS,
7000,2023-05-25 13:48:43,52.8252039142645,-1.24756666872054,3.937008,3.9041996,178.51932034516,182.42351994516,3.28084,0,0.7509186592,1.52751645308,24,5,16.372,182.42351994516,3.937008,0,0.78337929016,0,0,0,71.9, -0.6, 2.4,0,0,1024,1024,1024,1024,0,0,0,0,71.9,0,0,81,4.09,4.097,4.096,4.089,0,0,6.868,86.72,182.42351994516,3.937008,6,P-GPS,
7200,2023-05-25 13:48:43,52.8252038141403,-1.24756671562222,3.937008,3.9041996,178.51932034516,182.42351994516,3.28084,0,0.78374018256,1.56548233356,24,5,16.372,182.42351994516,3.937008,0,0.78374018256,0,0,0,72.1, -0.6, 2.2,0,0,1024,1024,1024,1024,0,0,0,0,71.9,0,0,81,4.09,4.097,4.096,4.089,0,0,6.868,86.72,182.42351994516,3.937008,6,P-GPS,
7400,2023-05-25 13:48:43,52.8252036611564,-1.24756676533995,3.937008,3.9041996,178.51932034516,182.42351994516,3.608924,0,0.8357283732,1.62236225664,24,5,16.361,182.42351994516,3.937008,0,0.8357283732,0,0,0,71.8, -0.4, 1.4,0,0,1024,1024,1024,1024,0,0,0,0,71.9,0,0,81,4.087,4.095,4.095,4.086,0,0,6.903,87.08,182.42351994516,3.937008,6,P-GPS,
7600,2023-05-25 13:48:43,52.8252035036246,-1.24756687377382,3.937008,3.9041996,178.51932034516,182.42351994516,3.937008,0,0.88766735124,1.6846129148,24,5,16.361,182.42351994516,3.937008,0,0.88766735124,0,0,0,71.8, -1.6, 1,0,0,1024,1024,1024,1024,0,0,0,0,71.9,0,0,81,4.087,4.095,4.095,4.086,0,0,6.903,87.08,182.42351994516,3.937008,6,P-GPS,
7800,2023-05-25 13:48:44,52.8252034111699,-1.24756699196818,3.937008,3.9041996,178.51932034516,182.42351994516,3.608924,0,0.91704071176,1.72723430724,24,5,16.361,182.42351994516,3.937008,0,0.91704071176,0,0,0,72.1, -1.7, 2.9,0,0,1024,1024,1024,1024,0,0,0,0,71.9,0,0,81,4.087,4.095,4.095,4.086,0,0,6.903,87.08,182.42351994516,3.937008,6,P-GPS,
8000,2023-05-25 13:48:44,52.8252033037735,-1.24756704516919,4.265092,4.2322836,178.51932034516,182.75160394516,3.937008,0,0.95442588356,1.76813653952,24,5,16.361,182.75160394516,4.265092,0,0.95442588356,0,0,0,71.7, -1.6, 2.9,0,0,1024,1024,1024,1024,0,0,0,0,71.9,0,0,81,4.087,4.095,4.095,4.086,0,0,6.903,87.08,182.75160394516,4.265092,6,P-GPS,
8200,2023-05-25 13:48:44,52.8252031672615,-1.247567050718,4.265092,4.2322836,178.51932034516,182.75160394516,3.937008,0,1.00376643632,1.81795937576,24,5,16.361,182.75160394516,4.265092,0,1.00376643632,0,0,0,71.7, -2.1, 1.9,0,0,1024,1024,1024,1024,0,0,0,0,71.9,0,0,81,4.087,4.095,4.095,4.086,0,0,6.903,87.08,182.75160394516,4.265092,6,P-GPS,
8400,2023-05-25 13:48:44,52.8252030831724,-1.24756701412618,4.265092,4.2322836,178.51932034516,182.75160394516,3.937008,0,1.03516407512,1.84968181772,24,5,16.352,182.75160394516,4.265092,0,1.03516407512,0,0,0,71.8, -0.9, 2.8,0,0,1024,1024,1024,1024,0,0,0,0,71.9,0,0,81,4.079,4.089,4.089,4.082,0,0,6.924,87.08,182.75160394516,4.265092,6,P-GPS,
8600,2023-05-25 13:48:44,52.825202988562,-1.24756692396916,4.265092,4.2322836,178.51932034516,182.75160394516,3.937008,0,1.07185698968,1.88951449616,23,5,16.352,182.75160394516,4.265092,0,1.07185698968,0,0,0,72, -1.5, 3,0,0,1024,1024,1024,1024,0,0,0,0,71.9,0,0,81,4.079,4.089,4.089,4.082,0,0,6.924,87.08,182.75160394516,4.265092,6,P-GPS,
8800,2023-05-25 13:48:45,52.8252029127603,-1.24756678296463,4.265092,4.2322836,178.51932034516,182.75160394516,3.937008,0,1.10365161012,1.93112210904,23,5,16.352,182.75160394516,4.265092,0,1.10365161012,0,0,0,71.9, -0.7, 3.1,0,0,1024,1024,1024,1024,0,0,0,0,71.9,0,0,81,4.079,4.089,4.089,4.082,0,0,6.924,87.08,182.75160394516,4.265092,6,P-GPS,
9000,2023-05-25 13:48:45,52.8252028218133,-1.24756663536479,4.265092,4.2322836,178.51932034516,182.75160394516,3.937008,0,1.14177497092,1.97759520764,23,5,16.352,182.75160394516,4.265092,0,1.14177497092,0,0,0,71.8, -0.9, 2.6,0,0,1024,1024,1024,1024,0,0,0,0,71.9,0,0,81,4.079,4.089,4.089,4.082,0,0,6.924,87.08,182.75160394516,4.265092,6,P-GPS,
9200,2023-05-25 13:48:45,52.8252027648983,-1.24756650680741,4.265092,4.2322836,178.51932034516,182.75160394516,3.937008,0,1.16749347568,2.0127297232,23,5,16.352,182.75160394516,4.265092,0,1.16749347568,0,0,0,71.7, -0.9, 3,0,0,1024,1024,1024,1024,0,0,0,0,71.9,0,0,81,4.079,4.089,4.089,4.082,0,0,6.924,87.08,182.75160394516,4.265092,6,P-GPS,
9400,2023-05-25 13:48:45,52.825202704866,-1.24756637034329,4.265092,4.2322836,178.51932034516,182.75160394516,3.937008,0,1.19518376528,2.04994429132,24,5,16.348,182.75160394516,4.265092,0,1.19518376528,0,0,0,71.6, -1.3, 2.8,0,0,1024,1024,1024,1024,0,0,0,0,71.9,0,0,81,4.081,4.09,4.088,4.082,0,0,7.002,87.26,182.75160394516,4.265092,6,P-GPS,
9600,2023-05-25 13:48:45,52.8252026658235,-1.24756617942963,4.265092,4.2322836,178.51932034516,182.75160394516,3.608924,0,1.21887143008,2.09437670744,24,5,16.348,182.75160394516,4.265092,0,1.21887143008,0,0,0,71.9, -0.4, 3.6,0,0,1024,1024,1024,1024,0,0,0,0,71.9,0,0,81,4.081,4.09,4.088,4.082,0,0,7.002,87.26,182.75160394516,4.265092,6,P-GPS,
9800,2023-05-25 13:48:46,52.8252026334718,-1.24756599792909,4.265092,4.2322836,178.51932034516,182.75160394516,3.608924,0,1.24077759876,2.13609586888,24,5,16.348,182.75160394516,4.265092,0,1.24077759876,0,0,0,71.9, 0.1, 3.4,0,0,1024,1024,1024,1024,0,0,0,0,71.9,0,0,81,4.081,4.09,4.088,4.082,0,0,7.002,87.26,182.75160394516,4.265092,6,P-GPS,
10000,2023-05-25 13:48:46,52.8252025760321,-1.24756590224187,4.265092,4.2322836,178.51932034516,182.75160394516,3.937008,0,1.26683731088,2.1658301218,24,5,16.348,182.75160394516,4.265092,0,1.26683731088,0,0,0,71.9, -0.3, 3,0,0,1024,1024,1024,1024,0,0,0,0,71.9,0,0,81,4.081,4.09,4.088,4.082,0,0,7.002,87.26,182.75160394516,4.265092,6,P-GPS,
10200,2023-05-25 13:48:46,52.8252024767763,-1.24756584016737,4.265092,4.2322836,178.51932034516,182.75160394516,3.937008,0,1.30545935936,2.2045440338,24,5,16.348,182.75160394516,4.265092,0,1.30545935936,0,0,0,72, -1, 2.4,0,0,1024,1024,1024,1024,0,0,0,0,71.9,0,0,81,4.081,4.09,4.088,4.082,0,0,7.002,87.26,182.75160394516,4.265092,6,P-GPS,
10400,2023-05-25 13:48:46,52.8252023876434,-1.2475658038724,4.265092,4.2322836,178.51932034516,182.75160394516,3.937008,0,1.33890424232,2.23803484852,24,5,16.332,182.75160394516,4.265092,0,1.33890424232,0,0,0,72, -1.4, 2.5,0,0,1024,1024,1024,1024,0,0,0,0,71.9,0,0,81,4.075,4.085,4.083,4.077,0,0,7.039,87.26,182.75160394516,4.265092,6,P-GPS,
10600,2023-05-25 13:48:46,52.8252023701103,-1.24756574787395,4.265092,4.2322836,178.51932034516,182.75160394516,3.937008,0,1.34862537124,2.25193904844,24,5,16.332,182.75160394516,4.265092,0,1.34862537124,0,0,0,72, -1.3, 2.9,0,0,1024,1024,1024,1024,0,0,0,0,71.9,0,0,81,4.075,4.085,4.083,4.077,0,0,7.039,87.26,182.75160394516,4.265092,6,P-GPS,
10800,2023-05-25 13:48:47,52.8252023265178,-1.24756568377646,4.265092,4.2322836,178.51932034516,182.75160394516,3.937008,0,1.36802169732,2.27321529584,24,5,16.332,182.75160394516,4.265092,0,1.36802169732,0,0,0,72.1, -1.6, 2.8,0,0,1024,1024,1024,1024,0,0,0,0,71.9,0,0,81,4.075,4.085,4.083,4.077,0,0,7.039,87.26,182.75160394516,4.265092,6,P-GPS,
11000,2023-05-25 13:48:47,52.8252022242529,-1.24756557285883,4.265092,4.2322836,178.51932034516,182.75160394516,3.937008,0,1.4110236672,2.31782487732,24,5,16.332,182.75160394516,4.265092,0,1.4110236672,0,0,0,71.9, -1.5, 1.7,0,0,1024,1024,1024,1024,0,0,0,0,71.9,0,0,81,4.075,4.085,4.083,4.077,0,0,7.039,87.26,182.75160394516,4.265092,6,P-GPS,
11200,2023-05-25 13:48:47,52.825202114264,-1.24756542505873,4.265092,4.2322836,178.51932034516,182.75160394516,3.937008,0,1.45938981048,2.36951451152,24,5,16.332,182.75160394516,4.265092,0,1.45938981048,0,0,0,71.8, -1.8, 0.7,0,0,1024,1024,1024,1024,0,0,0,0,71.9,0,0,81,4.075,4.085,4.083,4.077,0,0,7.039,87.26,182.75160394516,4.265092,6,P-GPS,
11400,2023-05-25 13:48:47,52.8252021028979,-1.24756526667585,4.593176,4.5603676,178.51932034516,183.07968794516,3.937008,0,1.47489177948,2.40467855464,24,5,16.32,183.07968794516,4.593176,0,1.47489177948,0,0,0,71.8, -1.1, 1.4,0,0,1024,1024,1024,1024,0,0,0,0,71.9,0,0,81,4.074,4.086,4.085,4.078,0,0,7.316,87.26,183.07968794516,4.593176,6,P-GPS,
11600,2023-05-25 13:48:48,52.8252021548966,-1.24756518085722,4.593176,4.5603676,178.51932034516,183.07968794516,3.937008,0,1.46373692348,2.43147317492,24,5,16.32,183.07968794516,4.593176,0,1.47489177948,0,0,0,71.7, -1.2, 1.9,0,0,1024,1024,1024,1024,0,0,0,0,71.9,0,0,81,4.074,4.086,4.085,4.078,0,0,7.316,87.26,183.07968794516,4.593176,6,P-GPS,
11800,2023-05-25 13:48:48,52.8252022472218,-1.24756515069677,4.593176,4.5603676,178.51932034516,183.07968794516,3.937008,0,1.43477366796,2.46580716552,24,5,16.32,183.07968794516,4.593176,0,1.47489177948,0,0,0,71.9, -1.6, 2.9,0,0,1024,1024,1024,1024,0,0,0,0,71.9,0,0,81,4.074,4.086,4.085,4.078,0,0,7.316,87.26,183.07968794516,4.593176,6,P-GPS,
12000,2023-05-25 13:48:48,52.8252022993629,-1.24756514358753,4.593176,4.5603676,178.51932034516,183.07968794516,3.937008,0,1.4177001766,2.48489509264,24,5,16.32,183.07968794516,4.593176,0,1.47489177948,0,0,0,71.9, -1.7, 3.1,0,0,1024,1024,1024,1024,0,0,0,0,71.9,0,0,81,4.074,4.086,4.085,4.078,0,0,7.316,87.26,183.07968794516,4.593176,6,P-GPS,
12200,2023-05-25 13:48:48,52.825202265859,-1.2475651223874,4.593176,4.5603676,178.51932034516,183.07968794516,3.937008,0,1.43078416652,2.4979823634,24,5,16.32,183.07968794516,4.593176,0,1.47489177948,0,0,0,71.8, -1.8, 2.6,0,0,1024,1024,1024,1024,0,0,0,0,71.9,0,0,81,4.074,4.086,4.085,4.078,0,0,7.316,87.26,183.07968794516,4.593176,6,P-GPS,
12400,2023-05-25 13:48:48,52.8252021943471,-1.24756508044261,4.593176,4.5603676,178.51932034516,183.07968794516,3.937008,0,1.45843836688,2.52566281048,24,5,16.32,183.07968794516,4.593176,0,1.47489177948,0,0,0,71.5, -1.6, 1.5,0,0,1024,1024,1024,1024,0,0,0,0,71.9,0,0,81,4.068,4.081,4.079,4.072,0,0,7.029,87.26,183.07968794516,4.593176,6,P-GPS,
12600,2023-05-25 13:48:49,52.8252021572847,-1.24756502339855,4.593176,4.5603676,178.51932034516,183.07968794516,3.937008,0,1.47569886612,2.54413065884,24,5,16.32,183.07968794516,4.593176,0,1.47569886612,0,0,0,72, -1.4, 2.2,0,0,1024,1024,1024,1024,0,0,0,0,71.9,0,0,81,4.068,4.081,4.079,4.072,0,0,7.029,87.26,183.07968794516,4.593176,6,P-GPS,
12800,2023-05-25 13:48:49,52.825202142117,-1.24756495140053,4.593176,4.5603676,178.51932034516,183.07968794516,3.937008,0,1.48687996884,2.56093840216,24,5,16.32,183.07968794516,4.593176,0,1.48687996884,0,0,0,71.7, -0.9, 2.5,0,0,1024,1024,1024,1024,0,0,0,0,71.9,0,0,81,4.068,4.081,4.079,4.072,0,0,7.029,87.26,183.07968794516,4.593176,6,P-GPS,
13000,2023-05-25 13:48:49,52.8252021243451,-1.24756491512683,4.593176,4.5603676,178.51932034516,183.07968794516,3.937008,0,1.49595477228,2.57123367808,24,5,16.32,183.07968794516,4.593176,0,1.49595477228,0,0,0,71.7, -1, 2.8,0,0,1024,1024,1024,1024,0,0,0,0,71.9,0,0,81,4.068,4.081,4.079,4.072,0,0,7.029,87.26,183.07968794516,4.593176,6,P-GPS,
13200,2023-05-25 13:48:49,52.8252020854397,-1.24756492451425,4.593176,4.5603676,178.51932034516,183.07968794516,3.937008,0,1.50824479892,2.58557751056,24,5,16.32,183.07968794516,4.593176,0,1.50824479892,0,0,0,71.9, -1.1, 3.5,0,0,1024,1024,1024,1024,0,0,0,0,71.9,0,0,81,4.068,4.081,4.079,4.072,0,0,7.029,87.26,183.07968794516,4.593176,6,P-GPS,
13400,2023-05-25 13:48:49,52.8252020101316,-1.24756492961557,4.593176,4.5603676,178.51932034516,183.07968794516,3.937008,0,1.533218553,2.61307751144,24,5,16.317,183.07968794516,4.593176,0,1.533218553,0,0,0,71.9, -1.2, 3.3,0,0,1024,1024,1024,1024,0,0,0,0,71.9,0,0,81,4.069,4.08,4.079,4.072,0,0,7.241,87.44,183.07968794516,4.593176,6,P-GPS,
13600,2023-05-25 13:48:49,52.8252018828526,-1.2475649127751,4.593176,4.5603676,178.51932034516,183.07968794516,3.937008,0,1.57768705836,2.6596621586,24,5,16.317,183.07968794516,4.593176,0,1.57768705836,0,0,0,71.8, -0.7, 2.9,0,0,1024,1024,1024,1024,0,0,0,0,71.9,0,0,81,4.069,4.08,4.079,4.072,0,0,7.241,87.44,183.07968794516,4.593176,6,P-GPS,
13800,2023-05-25 13:48:50,52.8252017403759,-1.24756490078872,4.593176,4.5603676,178.51932034516,183.07968794516,3.937008,0,1.62705713868,2.7117126852,24,5,16.317,183.07968794516,4.593176,0,1.62705713868,0,0,0,72, -0.1, 2.6,0,0,1024,1024,1024,1024,0,0,0,0,71.9,0,0,81,4.069,4.08,4.079,4.072,0,0,7.241,87.44,183.07968794516,4.593176,6,P-GPS,
14000,2023-05-25 13:48:50,52.8252015798521,-1.24756496189559,4.593176,4.5603676,178.51932034516,183.07968794516,3.937008,0,1.6771982164,2.77181111232,24,5,16.317,183.07968794516,4.593176,0,1.6771982164,0,0,0,71.8, -0.7, 3.1,0,0,1024,1024,1024,1024,0,0,0,0,71.9,0,0,81,4.069,4.08,4.079,4.072,0,0,7.241,87.44,183.07968794516,4.593176,6,P-GPS,
14200,2023-05-25 13:48:50,52.8252013896655,-1.24756504128463,4.593176,4.5275592,178.55212874516,183.07968794516,3.937008,0,1.73692918944,2.8433727944,24,5,16.317,183.07968794516,4.593176,0,1.73692918944,0,0,0,71.9, -1.2, 2.4,0,0,1024,1024,1024,1024,0,0,0,0,71.9,0,0,81,4.069,4.08,4.079,4.072,0,0,7.241,87.44,183.07968794516,4.593176,6,P-GPS,
14400,2023-05-25 13:48:50,52.825201237806,-1.2475651334283,4.593176,4.5275592,178.55212874516,183.07968794516,3.937008,0,1.78333995208,2.90238526348,24,5,16.3,183.07968794516,4.593176,0,1.78333995208,0,0,0,72, -1.4, 2.2,0,0,1024,1024,1024,1024,0,0,0,0,71.9,0,0,81,4.069,4.079,4.077,4.07,0,0,7.26,87.44,183.07968794516,4.593176,6,P-GPS,
14600,2023-05-25 13:48:50,52.825201114169,-1.24756518037606,4.593176,4.5275592,178.55212874516,183.07968794516,3.937008,0,1.82343181688,2.94866479252,24,5,16.3,183.07968794516,4.593176,0,1.82343181688,0,0,0,71.9, -1, 2.8,0,0,1024,1024,1024,1024,0,0,0,0,71.9,0,0,81,4.069,4.079,4.077,4.07,0,0,7.26,87.44,183.07968794516,4.593176,6,P-GPS,
14800,2023-05-25 13:48:51,52.8252009912612,-1.24756523092052,4.593176,4.5275592,178.55212874516,183.07968794516,3.937008,0,1.8633366738,2.99487214308,24,5,16.3,183.07968794516,4.593176,0,1.8633366738,0,0,0,72, -1.1, 3.4,0,0,1024,1024,1024,1024,0,0,0,0,71.9,0,0,81,4.069,4.079,4.077,4.07,0,0,7.26,87.44,183.07968794516,4.593176,6,P-GPS,
15000,2023-05-25 13:48:51,52.8252008485297,-1.24756529120331,4.593176,4.5275592,178.55212874516,183.07968794516,3.937008,0,1.909941006,3.04861558312,24,5,16.3,183.07968794516,4.593176,0,1.909941006,0,0,0,71.9, -1.1, 3.1,0,0,1024,1024,1024,1024,0,0,0,0,71.9,0,0,81,4.069,4.079,4.077,4.07,0,0,7.26,87.44,183.07968794516,4.593176,6,P-GPS,
15200,2023-05-25 13:48:51,52.825200692389,-1.2475653484946,4.593176,4.5275592,178.55212874516,183.07968794516,3.937008,0,1.96181436724,3.10696860336,24,5,16.3,183.07968794516,4.593176,0,1.96181436724,0,0,0,71.9, -1.1, 2.7,0,0,1024,1024,1024,1024,0,0,0,0,71.9,0,0,81,4.069,4.079,4.077,4.07,0,0,7.26,87.44,183.07968794516,4.593176,6,P-GPS,
15400,2023-05-25 13:48:51,52.825200533541,-1.24756537124719,4.593176,4.5275592,178.55212874516,183.07968794516,3.937008,0,2.01681108816,3.1651411774,24,5,16.292,183.07968794516,4.593176,0,2.01681108816,0,0,0,72, -1.3, 2,0,0,1024,1024,1024,1024,0,0,0,0,71.9,0,0,81,4.067,4.078,4.076,4.07,0,0,7.255,87.44,183.07968794516,4.593176,6,P-GPS,
15600,2023-05-25 13:48:51,52.825200386812,-1.24756535734416,4.593176,4.5275592,178.55212874516,183.07968794516,3.937008,0,2.06955059116,3.21876322636,24,5,16.292,183.07968794516,4.593176,0,2.06955059116,0,0,0,72, -1.1, 2.3,0,0,1024,1024,1024,1024,0,0,0,0,71.9,0,0,81,4.067,4.078,4.076,4.07,0,0,7.255,87.44,183.07968794516,4.593176,6,P-GPS,
15800,2023-05-25 13:48:52,52.8252002581495,-1.24756530964853,4.593176,4.5275592,178.55212874516,183.07968794516,3.937008,0,2.1176509864,3.26686690244,24,5,16.292,183.07968794516,4.593176,0,2.1176509864,0,0,0,72.1, -0.6, 2.3,0,0,1024,1024,1024,1024,0,0,0,0,71.9,0,0,81,4.067,4.078,4.076,4.07,0,0,7.255,87.44,183.07968794516,4.593176,6,P-GPS,
16000,2023-05-25 13:48:52,52.825200131513,-1.24756527418207,4.593176,4.5275592,178.55212874516,183.07968794516,3.937008,0,2.1644029564,3.3137140168,24,5,16.292,183.07968794516,4.593176,0,2.1644029564,0,0,0,72, -0.3, 2.1,0,0,1024,1024,1024,1024,0,0,0,0,71.9,0,0,81,4.067,4.078,4.076,4.07,0,0,7.255,87.44,183.07968794516,4.593176,6,P-GPS,
16200,2023-05-25 13:48:52,52.8251999959958,-1.24756530622195,4.593176,4.5275592,178.55212874516,183.07968794516,3.937008,0,2.21092854844,3.36368121,24,5,16.292,183.07968794516,4.593176,0,2.21092854844,0,0,0,71.8, -0.6, 1.6,0,0,1024,1024,1024,1024,0,0,0,0,71.9,0,0,81,4.067,4.078,4.076,4.07,0,0,7.255,87.44,183.07968794516,4.593176,6,P-GPS,
16400,2023-05-25 13:48:52,52.8251998845205,-1.24756539871918,4.593176,4.5275592,178.55212874516,183.07968794516,3.937008,0,2.2461778934,3.4091864608,24,5,16.29,183.07968794516,4.593176,0,2.2461778934,0,0,0,71.7, -1.1, 1.9,0,0,1024,1024,1024,1024,0,0,0,0,71.9,0,0,81,4.068,4.077,4.077,4.071,0,0,7.202,87.62,183.07968794516,4.593176,6,P-GPS,
16600,2023-05-25 13:48:52,52.8251997996165,-1.24756549999331,4.593176,4.5275592,178.55212874516,183.07968794516,3.937008,0,2.27190624068,3.44734263,24,5,16.29,183.07968794516,4.593176,0,2.27190624068,0,0,0,71.8, -1.1, 1.9,0,0,1024,1024,1024,1024,0,0,0,0,71.9,0,0,81,4.068,4.077,4.077,4.071,0,0,7.202,87.62,183.07968794516,4.593176,6,P-GPS,
16800,2023-05-25 13:48:53,52.8251997325047,-1.24756559137227,4.593176,4.5275592,178.55212874516,183.07968794516,3.937008,0,2.29201450904,3.4790683528,24,5,16.29,183.07968794516,4.593176,0,2.29201450904,0,0,0,71.9, -1.4, 2.1,0,0,1024,1024,1024,1024,0,0,0,0,71.9,0,0,81,4.068,4.077,4.077,4.071,0,0,7.202,87.62,183.07968794516,4.593176,6,P-GPS,
17000,2023-05-25 13:48:53,52.8251996820855,-1.24756563869574,4.593176,4.5275592,178.55212874516,183.07968794516,3.608924,0,2.30814968016,3.5001969624,24,5,16.29,183.07968794516,4.593176,0,2.30814968016,0,0,0,71.9, -1.4, 1.8,0,0,1024,1024,1024,1024,0,0,0,0,71.9,0,0,81,4.068,4.077,4.077,4.071,0,0,7.202,87.62,183.07968794516,4.593176,6,P-GPS,
17200,2023-05-25 13:48:53,52.8251996729318,-1.24756566734626,4.593176,4.5275592,178.55212874516,183.07968794516,3.937008,0,2.31028878784,3.5073491936,24,5,16.29,183.07968794516,4.593176,0,2.31028878784,0,0,0,71.9, -1.3, 2.3,0,0,1024,1024,1024,1024,0,0,0,0,71.9,0,0,81,4.068,4.077,4.077,4.071,0,0,7.202,87.62,183.07968794516,4.593176,6,P-GPS,
17400,2023-05-25 13:48:53,52.8251997104397,-1.24756566655851,4.593176,4.5275592,178.55212874516,183.07968794516,3.937008,0,2.29686030972,3.5210302964,24,5,16.281,183.07968794516,4.593176,0,2.31028878784,0,0,0,71.8, -0.6, 3.9,0,0,1024,1024,1024,1024,0,0,0,0,71.9,0,0,81,4.066,4.076,4.075,4.069,0,0,7.048,87.62,183.07968794516,4.593176,6,P-GPS,
17600,2023-05-25 13:48:53,52.8251997132517,-1.2475656297682,4.593176,4.5275592,178.55212874516,183.07968794516,3.937008,0,2.29733603152,3.5292323964,24,5,16.281,183.07968794516,4.593176,0,2.31028878784,0,0,0,72, -0.5, 3.4,0,0,1024,1024,1024,1024,0,0,0,0,71.9,0,0,81,4.066,4.076,4.075,4.069,0,0,7.048,87.62,183.07968794516,4.593176,6,P-GPS,
17800,2023-05-25 13:48:54,52.8251996691131,-1.24756558200434,4.593176,4.5275592,178.55212874516,183.07968794516,3.937008,0,2.31511818432,3.5484581188,24,5,16.281,183.07968794516,4.593176,0,2.31511818432,0,0,0,72, -0.1, 2.5,0,0,1024,1024,1024,1024,0,0,0,0,71.9,0,0,81,4.066,4.076,4.075,4.069,0,0,7.048,87.62,183.07968794516,4.593176,6,P-GPS,
18000,2023-05-25 13:48:54,52.8251996211301,-1.24756559141481,4.593176,4.5275592,178.55212874516,183.07968794516,3.937008,0,2.33192920848,3.5660762296,24,5,16.281,183.07968794516,4.593176,0,2.33192920848,0,0,0,71.8, 0, 3.3,0,0,1024,1024,1024,1024,0,0,0,0,71.9,0,0,81,4.066,4.076,4.075,4.069,0,0,7.048,87.62,183.07968794516,4.593176,6,P-GPS,
18200,2023-05-25 13:48:54,52.8251995386419,-1.24756562565401,4.593176,4.5275592,178.55212874516,183.07968794516,3.608924,0,2.3601378708,3.597112976,24,5,16.281,183.07968794516,4.593176,0,2.3601378708,0,0,0,72, 0, 3.1,0,0,1024,1024,1024,1024,0,0,0,0,71.9,0,0,81,4.066,4.076,4.075,4.069,0,0,7.048,87.62,183.07968794516,4.593176,6,P-GPS,
18400,2023-05-25 13:48:54,52.8251994024287,-1.2475656714002,4.593176,4.5275592,178.55212874516,183.07968794516,3.608924,0,2.40727697992,3.6478347624,24,5,16.278,183.07968794516,4.593176,0,2.40727697992,0,0,0,72, 0.1, 1.9,0,0,1024,1024,1024,1024,0,0,0,0,71.9,0,0,81,4.066,4.075,4.075,4.069,0,0,7.155,87.62,183.07968794516,4.593176,6,P-GPS,
18600,2023-05-25 13:48:55,52.8251992750479,-1.24756582416072,4.593176,4.5275592,178.55212874516,183.07968794516,3.937008,0,2.44759194184,3.705216654,24,5,16.278,183.07968794516,4.593176,0,2.44759194184,0,0,0,71.9, -0.5, 1.6,0,0,1024,1024,1024,1024,0,0,0,0,71.9,0,0,81,4.066,4.075,4.075,4.069,0,0,7.155,87.62,183.07968794516,4.593176,6,P-GPS,
18800,2023-05-25 13:48:55,52.8251991893793,-1.24756602269403,4.593176,4.5275592,178.55212874516,183.07968794516,3.937008,0,2.47210965916,3.7589896216,25,5,16.278,183.07968794516,4.593176,0,2.47210965916,0,0,0,71.7, -1.6, 2.1,0,0,1024,1024,1024,1024,0,0,0,0,71.9,0,0,81,4.066,4.075,4.075,4.069,0,0,7.155,87.62,183.07968794516,4.593176,6,P-GPS,
19000,2023-05-25 13:48:55,52.8251991478985,-1.24756616700374,4.593176,4.5275592,178.55212874516,183.07968794516,3.937008,0,2.48298236292,3.7942258432,25,5,16.278,183.07968794516,4.593176,0,2.48298236292,0,0,0,71.7, -0.9, 2.5,0,0,1024,1024,1024,1024,0,0,0,0,71.9,0,0,81,4.066,4.075,4.075,4.069,0,0,7.155,87.62,183.07968794516,4.593176,6,P-GPS,
19200,2023-05-25 13:48:55,52.8251991443646,-1.24756624443449,4.593176,4.5275592,178.55212874516,183.07968794516,3.937008,0,2.4822179272,3.811351828,25,5,16.278,183.07968794516,4.593176,0,2.48298236292,0,0,0,71.8, -0.9, 2.7,0,0,1024,1024,1024,1024,0,0,0,0,71.9,0,0,81,4.066,4.075,4.075,4.069,0,0,7.155,87.62,183.07968794516,4.593176,6,P-GPS,
19400,2023-05-25 13:48:55,52.8251991340994,-1.24756630088752,4.593176,4.5275592,178.55212874516,183.07968794516,3.937008,0,2.48452107688,3.8243439544,24,5,16.282,183.07968794516,4.593176,0,2.48452107688,0,0,0,71.8, -0.5, 3.1,0,0,1024,1024,1024,1024,0,0,0,0,71.9,0,0,81,4.063,4.072,4.072,4.065,0,0,7.001,87.62,183.07968794516,4.593176,6,P-GPS,
19600,2023-05-25 13:48:56,52.8251990990309,-1.24756633276081,4.593176,4.5275592,178.55212874516,183.07968794516,3.937008,0,2.49646661532,3.8389436924,24,5,16.282,183.07968794516,4.593176,0,2.49646661532,0,0,0,71.9, -0.8, 2.8,0,0,1024,1024,1024,1024,0,0,0,0,71.9,0,0,81,4.063,4.072,4.072,4.065,0,0,7.001,87.62,183.07968794516,4.593176,6,P-GPS,
19800,2023-05-25 13:48:56,52.8251990302797,-1.24756634286775,4.593176,4.5275592,178.55212874516,183.07968794516,3.937008,0,2.52116805968,3.8641405436,24,5,16.282,183.07968794516,4.593176,0,2.52116805968,0,0,0,71.8, -0.3, 1.9,0,0,1024,1024,1024,1024,0,0,0,0,71.9,0,0,81,4.063,4.072,4.072,4.065,0,0,7.001,87.62,183.07968794516,4.593176,6,P-GPS,
20000,2023-05-25 13:48:56,52.8251989719736,-1.24756637755887,4.593176,4.5275592,178.55212874516,183.07968794516,3.937008,0,2.54153223356,3.8867455312,24,5,16.282,183.07968794516,4.593176,0,2.54153223356,0,0,0,71.8, -1, 1.7,0,0,1024,1024,1024,1024,0,0,0,0,71.9,0,0,81,4.063,4.072,4.072,4.065,0,0,7.001,87.62,183.07968794516,4.593176,6,P-GPS,
20200,2023-05-25 13:48:56,52.8251989554395,-1.24756636541033,4.593176,4.5275592,178.55212874516,183.07968794516,3.937008,0,2.54780519964,3.8933400196,24,5,16.282,183.07968794516,4.593176,0,2.54780519964,0,0,0,71.7, -0.9, 2.5,0,0,1024,1024,1024,1024,0,0,0,0,71.9,0,0,81,4.063,4.072,4.072,4.065,0,0,7.001,87.62,183.07968794516,4.593176,6,P-GPS,
20400,2023-05-25 13:48:56,52.8251989404625,-1.24756626699213,4.593176,4.5275592,178.55212874516,183.07968794516,3.937008,0,2.5555611054,3.9157153484,24,5,16.273,183.07968794516,4.593176,0,2.5555611054,0,0,0,71.9, -0.1, 2.7,0,0,1024,1024,1030,1024,0,0,1,0,71.9,0,0,81,4.062,4.072,4.072,4.065,0,0,7.151,87.62,183.07968794516,4.593176,6,P-GPS,
20600,2023-05-25 13:48:57,52.8251989091485,-1.24756613351773,4.593176,4.5275592,178.55212874516,183.07968794516,3.937008,0,2.57033800876,3.9472770292,24,5,16.273,183.07968794516,4.593176,0,2.57033800876,0,0,0,72, 0.7, 1.9,0,0,1024,1024,1024,1024,0,0,0,0,71.9,0,0,81,4.062,4.072,4.072,4.065,0,0,7.151,87.62,183.07968794516,4.593176,6,P-GPS,
20800,2023-05-25 13:48:57,52.8251988768428,-1.24756608363696,4.593176,4.5275592,178.55212874516,183.07968794516,3.937008,0,2.58339575196,3.9633859536,24,5,16.273,183.07968794516,4.593176,0,2.58339575196,0,0,0,72.1, 0.4, 1.7,0,0,1024,1024,1050,1024,0,0,4,0,71.9,0,0,81,4.062,4.072,4.072,4.065,0,0,7.151,87.62,183.07968794516,4.593176,6,P-GPS,
21000,2023-05-25 13:48:57,52.8251988768043,-1.24756612105729,4.593176,4.5275592,178.55212874516,183.07968794516,3.937008,0,2.58238525324,3.9716536704,24,5,16.273,183.07968794516,4.593176,0,2.58339575196,0,0,0,71.8, 0.1, 2.3,0,0,1024,1024,1038,1024,0,0,2,0,71.9,0,0,81,4.062,4.072,4.072,4.065,0,0,7.151,87.62,183.07968794516,4.593176,6,P-GPS,
21200,2023-05-25 13:48:57,52.825198892079,-1.24756619715178,4.593176,4.5275592,178.55212874516,183.07968794516,3.937008,0,2.57484916376,3.989337398,24,5,16.273,183.07968794516,4.593176,0,2.58339575196,0,0,0,71.8, 0.5, 3,0,0,1024,1024,1047,1024,0,0,3,0,71.9,0,0,81,4.062,4.072,4.072,4.065,0,0,7.151,87.62,183.07968794516,4.593176,6,P-GPS,
21400,2023-05-25 13:48:57,52.8251988800939,-1.24756632766569,4.593176,4.5275592,178.55212874516,183.07968794516,3.937008,0,2.57601058112,4.0184384488,24,5,16.27,183.07968794516,4.593176,0,2.58339575196,0,0,0,72, -0.3, 2.3,0,0,1024,1024,1097,1024,0,0,11,0,71.9,0,0,81,4.062,4.072,4.071,4.064,0,0,7.023,87.62,183.07968794516,4.593176,6,P-GPS,
21600,2023-05-25 13:48:58,52.8251988606814,-1.24756649885548,4.593176,4.5275592,178.55212874516,183.07968794516,3.937008,0,2.57937672296,4.0568242768,24,5,16.27,183.07968794516,4.593176,0,2.58339575196,0,0,0,72, -0.7, 2.7,0,0,1024,1024,1153,1024,0,0,20,0,71.9,0,0,81,4.062,4.072,4.071,4.064,0,0,7.023,87.62,183.07968794516,4.593176,6,P-GPS,
21800,2023-05-25 13:48:58,52.8251988409626,-1.24756663102464,4.92126,4.8556432,178.55212874516,183.40777194516,3.937008,0,2.58408144752,4.0868439628,24,5,16.27,183.40777194516,4.92126,0,2.58408144752,0,0,0,71.9, -0.9, 2.7,0,0,1024,1024,1153,1024,0,0,20,0,71.9,0,0,81,4.062,4.072,4.071,4.064,0,0,7.023,87.62,183.40777194516,4.92126,6,P-GPS,
22000,2023-05-25 13:48:58,52.8251988124007,-1.24756668096566,4.92126,4.8556432,178.55212874516,183.40777194516,3.937008,0,2.59362869192,4.1020014436,24,5,16.27,183.40777194516,4.92126,0,2.59362869192,0,0,-0.223694,71.8, -0.8, 2.2,0,0,1024,1024,1161,1024,0,0,21,0,71.9,0,0,81,4.062,4.072,4.071,4.064,0,0,7.023,87.62,183.40777194516,4.92126,6,P-GPS,
22200,2023-05-25 13:48:58,52.8251987819283,-1.24756666416506,4.92126,4.8556432,178.55212874516,183.40777194516,3.937008,0,2.60499024084,4.1137140424,24,5,16.27,183.40777194516,4.92126,0,2.60499024084,0,0,-0.447388,72, 0, 1.7,0,0,1024,1024,1233,1024,0,0,32,0,71.9,0,0,81,4.062,4.072,4.071,4.064,0,0,7.023,87.62,183.40777194516,4.92126,6,P-GPS,
22400,2023-05-25 13:48:58,52.8251987466543,-1.24756668030906,5.249344,5.1837272,178.55212874516,183.73585594516,4.265092,0,2.61755913888,4.1270670612,24,5,16.254,183.73585594516,5.249344,0,2.61755913888,0,0,-0.447388,71.9, -0.3, 1.3,0,0,1024,1024,1231,1024,0,0,31,0,71.9,0,0,81,4.056,4.066,4.067,4.059,0,0,7.216,87.8,183.73585594516,5.249344,6,P-GPS,
22600,2023-05-25 13:48:59,52.825198777767,-1.24756672604905,5.249344,5.1837272,178.55212874516,183.73585594516,4.265092,0,2.6055118944,4.1422573504,24,5,16.254,183.73585594516,5.249344,0,2.61755913888,0,0,-0.894776,71.8, -1.3, 1.4,0,0,1024,1024,1106,1024,0,0,12,0,71.9,0,0,81,4.056,4.066,4.067,4.059,0,0,7.216,87.8,183.73585594516,5.249344,6,P-GPS,
22800,2023-05-25 13:48:59,52.8251988659029,-1.247566744473,5.577428,5.5118112,178.55212874516,184.06393994516,4.92126,0,2.57314968864,4.1746720496,24,5,16.254,184.06393994516,5.577428,0,2.61755913888,0,0,-1.11847,71.9, -0.9, 2.3,0,0,1024,1024,1078,1024,0,0,8,0,71.9,0,0,81,4.056,4.066,4.067,4.059,0,0,7.216,87.8,184.06393994516,5.577428,6,P-GPS,
23000,2023-05-25 13:48:59,52.8251989456133,-1.24756673708286,5.905512,5.8398952,178.55212874516,184.39202394516,4.92126,0,2.54425533076,4.2038059088,24,5,16.254,184.39202394516,5.905512,0,2.61755913888,0,0,-0.447388,71.7, -0.2, 2.4,0,0,1024,1024,1083,1024,0,0,9,0,71.9,0,0,81,4.056,4.066,4.067,4.059,0,0,7.216,87.8,184.39202394516,5.905512,6,P-GPS,
23200,2023-05-25 13:48:59,52.8251989829349,-1.24756676598769,6.233596,6.1679792,178.55212874516,184.72010794516,5.249344,0,2.53022645892,4.218832156,24,5,16.254,184.72010794516,6.233596,0,2.61755913888,0,0,0,71.8, -0.6, 2.5,0,0,1024,1024,1266,1024,0,0,37,0,71.9,0,0,81,4.056,4.066,4.067,4.059,0,0,7.216,87.8,184.72010794516,6.233596,6,P-GPS,
23400,2023-05-25 13:48:59,52.8251990289775,-1.24756679077035,6.233596,6.1679792,178.55212874516,184.72010794516,5.249344,0,2.51309719328,4.2364830752,24,5,16.236,184.72010794516,6.233596,0,2.61755913888,0,0,-0.223694,71.7, -0.8, 2.7,0,0,1024,1024,1468,1024,0,0,67,0,71.9,0,0,81,4.061,4.07,4.07,4.063,0,0,7.618,87.8,184.72010794516,6.233596,6,P-GPS,
23600,2023-05-25 13:48:59,52.8251990757655,-1.24756677157194,6.56168,6.4960632,178.55212874516,185.04819194516,5.577428,0,2.49635178592,4.2540683776,24,5,16.236,185.04819194516,6.56168,0,2.61755913888,0,0,-1.789552,71.9, -0.8, 2.4,0,0,1024,1024,1452,1024,0,0,65,0,71.9,0,0,81,4.061,4.07,4.07,4.063,0,0,7.618,87.8,185.04819194516,6.56168,6,P-GPS,
23800,2023-05-25 13:49:00,52.8251991149396,-1.24756669847426,7.545932,7.4803152,178.55212874516,186.03244394516,6.56168,0,2.483267796,4.2756234964,24,5,16.236,186.03244394516,7.545932,0,2.61755913888,0,0,-4.250186,71.8, -0.6, 3.1,0,0,1024,1024,1452,1024,0,0,65,0,71.9,0,0,81,4.061,4.07,4.07,4.063,0,0,7.618,87.8,186.03244394516,7.545932,6,P-GPS,
24000,2023-05-25 13:49:00,52.8251991200026,-1.24756656549432,8.858268,8.7926512,178.55212874516,187.34477994516,8.2021,0,2.48382881964,4.3049870144,23,5,16.236,187.34477994516,8.858268,0,2.61755913888,0,0,-5.368656,72.3, 0.6, 3.7,0,0,1024,1024,1475,1024,0,0,68,0,71.9,0,0,81,4.061,4.07,4.07,4.063,0,0,7.618,87.8,187.34477994516,8.858268,6,P-GPS,
24200,2023-05-25 13:49:00,52.825199012814,-1.24756652236569,10.498688,10.4330712,178.55212874516,188.98519994516,9.514436,0,2.52362868968,4.3452429212,23,5,16.236,188.98519994516,10.498688,0,2.61755913888,0,0,-5.59235,71.8, 0.4, 1.8,0,0,1024,1024,1497,1024,0,0,72,0,71.9,0,0,81,4.061,4.07,4.07,4.063,0,0,7.618,87.8,188.98519994516,10.498688,6,P-GPS,
24400,2023-05-25 13:49:00,52.8251989002368,-1.24756668066793,12.467192,12.4015752,178.55212874516,190.95370394516,11.48294,0,2.56167331032,4.3991471224,23,5,16.102,190.95370394516,12.467192,0,2.61755913888,0,0,-6.263432,73.3, -0.9, 1.5,0,0,1024,1024,1403,1024,0,0,57,0,71.9,0,0,80,4.033,4.043,4.046,4.042,0,0,9.127,87.62,190.95370394516,12.467192,6,P-GPS,
24600,2023-05-25 13:49:00,52.825198885611,-1.24756690556914,14.435696,14.3700792,178.55212874516,192.92220794516,13.451444,0,2.56375008204,4.4490158904,23,5,16.102,192.92220794516,14.435696,0,2.61755913888,0,0,-6.487126,73.5, -2.4, 2.9,0,0,1024,1024,1332,1024,0,0,47,0,71.9,0,0,80,4.033,4.043,4.046,4.042,0,0,9.127,87.62,192.92220794516,14.435696,6,P-GPS,
24800,2023-05-25 13:49:01,52.8251989195958,-1.24756709511465,16.076116,16.0104992,178.55212874516,194.56262794516,14.76378,0,2.54936687948,4.4925854456,24,5,16.102,194.56262794516,16.076116,0,2.61755913888,0,0,-4.47388,73.6, -2.7, 3.1,0,0,1024,1024,1523,1071,0,0,76,7,71.9,0,0,80,4.033,4.043,4.046,4.042,0,0,9.127,87.62,194.56262794516,16.076116,6,P-GPS,
25000,2023-05-25 13:49:01,52.8251989308355,-1.24756723301426,17.060368,16.9947512,178.55212874516,195.54687994516,16.076116,0,2.54423892656,4.5232612996,24,5,16.102,195.54687994516,17.060368,0,2.61755913888,0,0,-4.026492,73.8, -1.8, 1.7,0,0,1024,1024,1367,1024,0,0,52,0,71.9,0,0,80,4.033,4.043,4.046,4.042,0,0,9.127,87.62,195.54687994516,17.060368,6,P-GPS,
25200,2023-05-25 13:49:01,52.8251988929271,-1.24756732985342,18.700788,18.6351712,178.55212874516,197.18729994516,17.716536,0,2.55755913696,4.548720618,23,5,16.102,197.18729994516,18.700788,0,2.61755913888,0,0,-5.368656,73.6, -2.8, 1.6,0,0,1024,1024,1186,1024,0,0,25,0,71.9,0,0,80,4.033,4.043,4.046,4.042,0,0,9.127,87.62,197.18729994516,18.700788,6,P-GPS,
25400,2023-05-25 13:49:01,52.8251988486835,-1.24756744847577,20.013124,19.9475072,178.55212874516,198.49963594516,19.028872,0,2.573326854,4.5794292804,24,5,16.262,198.49963594516,20.013124,0,2.61755913888,0,0,-3.579104,72.1, -5.1, 1.6,0,0,1024,1024,1024,1024,0,0,0,0,71.9,0,0,80,4.016,4.027,4.046,4.057,0,0,8.669,87.98,198.49963594516,20.013124,6,P-GPS,
25600,2023-05-25 13:49:01,52.8251988653825,-1.2475674849453,20.669292,20.6036752,178.55212874516,199.15580394516,19.68504,0,2.567175279,4.5895342676,24,5,16.262,199.15580394516,20.669292,0,2.61755913888,0,0,-1.342164,71.9, -4.2, 1.4,0,0,1024,1024,1024,1024,0,0,0,0,71.9,0,0,80,4.016,4.027,4.046,4.057,0,0,8.669,87.98,199.15580394516,20.669292,6,P-GPS,
25800,2023-05-25 13:49:02,52.8251989375819,-1.24756745021342,20.669292,20.6036752,178.55212874516,199.15580394516,20.013124,0,2.54089246976,4.61696209,25,5,16.262,199.15580394516,20.669292,0,2.61755913888,0,0,-0.223694,72, -2.4, 1.8,0,0,1024,1024,1024,1024,0,0,0,0,71.9,0,0,80,4.016,4.027,4.046,4.057,0,0,8.669,87.98,199.15580394516,20.669292,6,P-GPS,
26000,2023-05-25 13:49:02,52.8251990488526,-1.24756738701711,20.669292,20.6036752,178.55212874516,199.15580394516,20.013124,0,2.50046267844,4.6598754772,25,5,16.262,199.15580394516,20.669292,0,2.61755913888,0,0,0,72, -2.1, 2.6,0,0,1024,1024,1024,1024,0,0,0,0,71.9,0,0,80,4.016,4.027,4.046,4.057,0,0,8.669,87.98,199.15580394516,20.669292,6,P-GPS,
26200,2023-05-25 13:49:02,52.8251991592731,-1.24756732615304,20.669292,20.6036752,178.55212874516,199.15580394516,20.013124,0,2.46042002624,4.7023623552,25,5,16.262,199.15580394516,20.669292,0,2.61755913888,0,0,0,72, -2, 3.2,0,0,1024,1024,1024,1024,0,0,0,0,71.9,0,0,80,4.016,4.027,4.046,4.057,0,0,8.669,87.98,199.15580394516,20.669292,6,P-GPS,
26400,2023-05-25 13:49:02,52.8251992135507,-1.24756730626169,20.669292,20.6036752,178.55212874516,199.15580394516,20.341208,0,2.4407153012,4.7226379464,25,5,16.263,199.15580394516,20.669292,0,2.61755913888,0,0,0,72, -2, 3.6,0,0,1024,1024,1024,1024,0,0,0,0,71.9,0,0,80,4.058,4.065,4.064,4.058,0,0,5.862,87.98,199.15580394516,20.669292,6,P-GPS,
26600,2023-05-25 13:49:03,52.8251992017005,-1.24756729958753,20.669292,20.6036752,178.55212874516,199.15580394516,20.341208,0,2.44507225672,4.727198314,25,5,16.263,199.15580394516,20.669292,0,2.61755913888,0,0,0,71.9, -2.2, 3.2,0,0,1024,1024,1024,1024,0,0,0,0,71.9,0,0,80,4.058,4.065,4.064,4.058,0,0,5.862,87.98,199.15580394516,20.669292,6,P-GPS,
26800,2023-05-25 13:49:03,52.8251991748498,-1.24756727546059,20.669292,20.6036752,178.55212874516,199.15580394516,20.341208,0,2.45499351688,4.73835317,25,5,16.263,199.15580394516,20.669292,0,2.61755913888,0,0,0,72, -2, 3.2,0,0,1024,1024,1024,1024,0,0,0,0,71.9,0,0,80,4.058,4.065,4.064,4.058,0,0,5.862,87.98,199.15580394516,20.669292,6,P-GPS,
27000,2023-05-25 13:49:03,52.8251991726182,-1.24756722233046,20.669292,20.6036752,178.55212874516,199.15580394516,20.341208,0,2.45612868752,4.7500985772,25,5,16.263,199.15580394516,20.669292,0,2.61755913888,0,0,0,72, -1.6, 3,0,0,1024,1024,1024,1024,0,0,0,0,71.9,0,0,80,4.058,4.065,4.064,4.058,0,0,5.862,87.98,199.15580394516,20.669292,6,P-GPS,
27200,2023-05-25 13:49:03,52.825199199606,-1.24756716421598,20.997376,20.9317592,178.55212874516,199.48388794516,20.341208,0,2.4467028342,4.76624031,25,5,16.263,199.48388794516,20.997376,0,2.61755913888,0,0,0,71.9, -1.2, 3,0,0,1024,1024,1024,1024,0,0,0,0,71.9,0,0,80,4.058,4.065,4.064,4.058,0,0,5.862,87.98,199.48388794516,20.997376,6,P-GPS,
27400,2023-05-25 13:49:03,52.8251992564364,-1.24756713936686,20.997376,20.9317592,178.55212874516,199.48388794516,20.341208,0,2.42618446084,4.7876970036,25,5,16.24,199.48388794516,20.997376,0,2.61755913888,0,0,0,71.9, -1.3, 3.2,0,0,1024,1024,1024,1024,0,0,0,0,71.9,0,0,80,4.052,4.063,4.062,4.055,0,0,7.021,87.98,199.48388794516,20.997376,6,P-GPS,
27600,2023-05-25 13:49:04,52.8251993447565,-1.24756710563806,20.997376,20.9317592,178.55212874516,199.48388794516,20.341208,0,2.39427829184,4.8207678708,25,5,16.24,199.48388794516,20.997376,0,2.61755913888,0,0,0,71.9, -1.2, 3.5,0,0,1024,1024,1024,1024,0,0,0,0,71.9,0,0,80,4.052,4.063,4.062,4.055,0,0,7.021,87.98,199.48388794516,20.997376,6,P-GPS,
27800,2023-05-25 13:49:04,52.8251994234603,-1.24756707754845,20.997376,20.9317592,178.55212874516,199.48388794516,20.341208,0,2.36585637492,4.8501313888,26,5,16.24,199.48388794516,20.997376,0,2.61755913888,0,0,0,71.9, -1, 3.4,0,0,1024,1024,1024,1024,0,0,0,0,71.9,0,0,80,4.052,4.063,4.062,4.055,0,0,7.021,87.98,199.48388794516,20.997376,6,P-GPS,
28000,2023-05-25 13:49:04,52.8251994661426,-1.24756707052782,20.997376,20.9317592,178.55212874516,199.48388794516,20.341208,0,2.35037081012,4.8657809956,26,5,16.24,199.48388794516,20.997376,0,2.61755913888,0,0,0,71.9, -1, 3.1,0,0,1024,1024,1024,1024,0,0,0,0,71.9,0,0,80,4.052,4.063,4.062,4.055,0,0,7.021,87.98,199.48388794516,20.997376,6,P-GPS,
28200,2023-05-25 13:49:04,52.8251994993885,-1.24756709806982,20.997376,20.9317592,178.55212874516,199.48388794516,20.341208,0,2.33798235828,4.8793636732,26,5,16.24,199.48388794516,20.997376,0,2.61755913888,0,0,0,71.9, -1.3, 2.8,0,0,1024,1024,1024,1024,0,0,0,0,71.9,0,0,80,4.052,4.063,4.062,4.055,0,0,7.021,87.98,199.48388794516,20.997376,6,P-GPS,
28400,2023-05-25 13:49:04,52.82519954336,-1.24756715254949,20.997376,20.9317592,178.55212874516,199.48388794516,20.013124,0,2.32146332888,4.8993767972,26,5,16.231,199.48388794516,20.997376,0,2.61755913888,0,0,0,71.9, -1.5, 2.7,0,0,1024,1024,1024,1024,0,0,0,0,71.9,0,0,80,4.051,4.062,4.061,4.054,0,0,7.101,87.98,199.48388794516,20.997376,6,P-GPS,
28600,2023-05-25 13:49:05,52.8251995867234,-1.24756723837433,20.997376,20.9317592,178.55212874516,199.48388794516,20.341208,0,2.3050033546,4.924048714,26,5,16.231,199.48388794516,20.997376,0,2.61755913888,0,0,0,71.9, -1.7, 2.8,0,0,1024,1024,1024,1024,0,0,0,0,71.9,0,0,80,4.051,4.062,4.061,4.054,0,0,7.101,87.98,199.48388794516,20.997376,6,P-GPS,
28800,2023-05-25 13:49:05,52.8251996398166,-1.24756732508705,20.997376,20.9317592,178.55212874516,199.48388794516,20.341208,0,2.2851378684,4.951279686,26,5,16.231,199.48388794516,20.997376,0,2.61755913888,0,0,0,71.9, -1.8, 2.5,0,0,1024,1024,1024,1024,0,0,0,0,71.9,0,0,80,4.051,4.062,4.061,4.054,0,0,7.101,87.98,199.48388794516,20.997376,6,P-GPS,
29000,2023-05-25 13:49:05,52.8251997250933,-1.24756739617503,21.32546,21.2598432,178.55212874516,199.81197194516,20.341208,0,2.25373366792,4.9861222068,26,5,16.231,199.81197194516,21.32546,0,2.61755913888,0,0,0,71.9, -1.8, 2.7,0,0,1024,1024,1024,1024,0,0,0,0,71.9,0,0,80,4.051,4.062,4.061,4.054,0,0,7.101,87.98,199.81197194516,21.32546,6,P-GPS,
29200,2023-05-25 13:49:05,52.8251998095926,-1.24756747703501,21.32546,21.2598432,178.55212874516,199.81197194516,20.341208,0,2.22270020236,5.0217193208,26,5,16.231,199.81197194516,21.32546,0,2.61755913888,0,0,0,71.9, -1.7, 2.8,0,0,1024,1024,1024,1024,0,0,0,0,71.9,0,0,80,4.051,4.062,4.061,4.054,0,0,7.101,87.98,199.81197194516,21.32546,6,P-GPS,
29400,2023-05-25 13:49:05,52.8251998989964,-1.24756753164317,21.32546,21.2598432,178.55212874516,199.81197194516,20.341208,0,2.19001975512,5.0564962248,26,5,16.229,199.81197194516,21.32546,0,2.61755913888,0,0,0,71.8, -1.6, 3.3,0,0,1024,1024,1024,1024,0,0,0,0,71.9,0,0,80,4.05,4.061,4.06,4.053,0,0,7.084,88.16,199.81197194516,21.32546,6,P-GPS,
29600,2023-05-25 13:49:05,52.8251999700264,-1.24756756976086,21.32546,21.2598432,178.55212874516,199.81197194516,20.341208,0,2.16410111912,5.0837271968,26,5,16.229,199.81197194516,21.32546,0,2.61755913888,0,0,0,71.9, -1.5, 3.8,0,0,1024,1024,1024,1024,0,0,0,0,71.9,0,0,80,4.05,4.061,4.06,4.053,0,0,7.084,88.16,199.81197194516,21.32546,6,P-GPS,
29800,2023-05-25 13:49:06,52.8252000098003,-1.24756758257221,21.32546,21.2598432,178.55212874516,199.81197194516,20.341208,0,2.14959652548,5.0985237852,26,5,16.229,199.81197194516,21.32546,0,2.61755913888,0,0,0,72, -1.6, 3.5,0,0,1024,1024,1024,1024,0,0,0,0,71.9,0,0,80,4.05,4.061,4.06,4.053,0,0,7.084,88.16,199.81197194516,21.32546,6,P-GPS,
30000,2023-05-25 13:49:06,52.8252000106934,-1.24756758021693,21.32546,21.2598432,178.55212874516,199.81197194516,20.341208,0,2.14926844148,5.0991143364,26,5,16.229,199.81197194516,21.32546,0,2.61755913888,0,0,0,71.9, -1.8, 2.8,0,0,1024,1024,1024,1024,0,0,0,0,71.9,0,0,80,4.05,4.061,4.06,4.053,0,0,7.084,88.16,199.81197194516,21.32546,6,P-GPS,
30200,2023-05-25 13:49:06,52.8251999887857,-1.24756757808584,21.32546,21.2598432,178.55212874516,199.81197194516,20.341208,0,2.15726056772,5.107119586,26,5,16.229,199.81197194516,21.32546,0,2.61755913888,0,0,0,71.8, -1.8, 2.7,0,0,1024,1024,1024,1024,0,0,0,0,71.9,0,0,80,4.05,4.061,4.06,4.053,0,0,7.084,88.16,199.81197194516,21.32546,6,P-GPS,
30400,2023-05-25 13:49:06,52.8251999456205,-1.24756759497062,21.32546,21.2598432,178.55212874516,199.81197194516,20.341208,0,2.17302172308,5.1233269356,26,5,16.227,199.81197194516,21.32546,0,2.61755913888,0,0,0,71.9, -1.4, 3.2,0,0,1024,1024,1024,1024,0,0,0,0,71.9,0,0,80,4.05,4.061,4.059,4.053,0,0,7.083,88.16,199.81197194516,21.32546,6,P-GPS,
30600,2023-05-25 13:49:06,52.8251998711926,-1.24756764190863,21.32546,21.2598432,178.55212874516,199.81197194516,20.341208,0,2.20024285256,5.1523623696,26,5,16.227,199.81197194516,21.32546,0,2.61755913888,0,0,0,71.9, -1.6, 3.2,0,0,1024,1024,1024,1024,0,0,0,0,71.9,0,0,80,4.05,4.061,4.059,4.053,0,0,7.083,88.16,199.81197194516,21.32546,6,P-GPS,
30800,2023-05-25 13:49:07,52.8251997629074,-1.2475676780441,21.32546,21.2598432,178.55212874516,199.81197194516,20.669292,0,2.239829468,5.1926838932,26,5,16.227,199.81197194516,21.32546,0,2.61755913888,0,0,0,72, -1.7, 2.4,0,0,1024,1024,1024,1024,0,0,0,0,71.9,0,0,80,4.05,4.061,4.059,4.053,0,0,7.083,88.16,199.81197194516,21.32546,6,P-GPS,
31000,2023-05-25 13:49:07,52.8251996575435,-1.24756771256597,21.32546,21.2598432,178.55212874516,199.81197194516,20.341208,0,2.27837277632,5.2318571228,26,5,16.227,199.81197194516,21.32546,0,2.61755913888,0,0,0,72, -2, 2.3,0,0,1024,1024,1024,1024,0,0,0,0,71.9,0,0,80,4.05,4.061,4.059,4.053,0,0,7.083,88.16,199.81197194516,21.32546,6,P-GPS,
31200,2023-05-25 13:49:07,52.8251996239828,-1.24756773551527,21.32546,21.2598432,178.55212874516,199.81197194516,20.341208,0,2.2906988922,5.2451117164,26,5,16.227,199.81197194516,21.32546,0,2.61755913888,0,0,0,71.9, -1.8, 2.7,0,0,1024,1024,1024,1024,0,0,0,0,71.9,0,0,80,4.05,4.061,4.059,4.053,0,0,7.083,88.16,199.81197194516,21.32546,6,P-GPS,
31400,2023-05-25 13:49:07,52.8251996302516,-1.24756774580652,21.32546,21.2598432,178.55212874516,199.81197194516,20.341208,0,2.2884515168,5.2483269396,26,5,16.227,199.81197194516,21.32546,0,2.61755913888,0,0,0,71.9, -1.6, 3.5,0,0,1024,1024,1024,1024,0,0,0,0,71.9,0,0,80,4.048,4.06,4.059,4.052,0,0,7.012,88.16,199.81197194516,21.32546,6,P-GPS,
31600,2023-05-25 13:49:07,52.82519963331,-1.24756776520165,21.32546,21.2598432,178.55212874516,199.81197194516,20.341208,0,2.2874180522,5.2527560736,26,5,16.227,199.81197194516,21.32546,0,2.61755913888,0,0,0,71.9, -1.3, 3.7,0,0,1024,1024,1024,1024,0,0,0,0,71.9,0,0,80,4.048,4.06,4.059,4.052,0,0,7.012,88.16,199.81197194516,21.32546,6,P-GPS,
31800,2023-05-25 13:49:08,52.8251996187164,-1.24756780320592,21.32546,21.2598432,178.55212874516,199.81197194516,20.341208,0,2.29292658256,5.2626970188,26,5,16.227,199.81197194516,21.32546,0,2.61755913888,0,0,0,71.9, -1.3, 3.9,0,0,1024,1024,1024,1024,0,0,0,0,71.9,0,0,80,4.048,4.06,4.059,4.052,0,0,7.012,88.16,199.81197194516,21.32546,6,P-GPS,
32000,2023-05-25 13:49:08,52.8251995977425,-1.24756783109438,21.32546,21.2598432,178.55212874516,199.81197194516,20.341208,0,2.30073170092,5.2725067304,26,5,16.227,199.81197194516,21.32546,0,2.61755913888,0,0,0,71.9, -1, 4,0,0,1024,1024,1024,1024,0,0,0,0,71.9,0,0,80,4.048,4.06,4.059,4.052,0,0,7.012,88.16,199.81197194516,21.32546,6,P-GPS,
32200,2023-05-25 13:49:08,52.8251995250355,-1.24756787307285,21.32546,21.2598432,178.55212874516,199.81197194516,20.669292,0,2.327509917,5.3005907208,26,5,16.227,199.81197194516,21.32546,0,2.61755913888,0,0,0,71.9, -1.4, 3.2,0,0,1024,1024,1024,1024,0,0,0,0,71.9,0,0,80,4.048,4.06,4.059,4.052,0,0,7.012,88.16,199.81197194516,21.32546,6,P-GPS,
32400,2023-05-25 13:49:08,52.8251994117708,-1.24756790662886,21.32546,21.2598432,178.55212874516,199.81197194516,20.341208,0,2.3690453514,5.3425854728,26,5,16.218,199.81197194516,21.32546,0,2.61755913888,0,0,0,71.9, -1.5, 2.7,0,0,1024,1024,1024,1024,0,0,0,0,71.9,0,0,80,4.047,4.06,4.057,4.052,0,0,7.149,88.16,199.81197194516,21.32546,6,P-GPS,
32600,2023-05-25 13:49:08,52.825199292021,-1.24756793339905,21.32546,21.2598432,178.55212874516,199.81197194516,20.669292,0,2.4129101822,5.3866799624,26,5,16.218,199.81197194516,21.32546,0,2.61755913888,0,0,0,71.8, -1.5, 2,0,0,1024,1024,1024,1024,0,0,0,0,71.9,0,0,80,4.047,4.06,4.057,4.052,0,0,7.149,88.16,199.81197194516,21.32546,6,P-GPS,
32800,2023-05-25 13:49:09,52.8251992071448,-1.24756798279069,21.32546,21.2598432,178.55212874516,199.81197194516,20.341208,0,2.44425532756,5.4194883624,26,5,16.218,199.81197194516,21.32546,0,2.61755913888,0,0,0,71.8, -1.3, 2.2,0,0,1024,1024,1024,1024,0,0,0,0,71.9,0,0,80,4.047,4.06,4.057,4.052,0,0,7.149,88.16,199.81197194516,21.32546,6,P-GPS,
33000,2023-05-25 13:49:09,52.8251991817333,-1.24756803761683,21.32546,21.2598432,178.55212874516,199.81197194516,20.341208,0,2.45401254572,5.43471146,26,5,16.218,199.81197194516,21.32546,0,2.61755913888,0,0,0,71.9, -1.2, 2.8,0,0,1024,1024,1024,1024,0,0,0,0,71.9,0,0,80,4.047,4.06,4.057,4.052,0,0,7.149,88.16,199.81197194516,21.32546,6,P-GPS,
33200,2023-05-25 13:49:09,52.8251992008717,-1.24756811481807,21.32546,21.2598432,178.55212874516,199.81197194516,20.013124,0,2.44783800484,5.4531169724,26,5,16.218,199.81197194516,21.32546,0,2.61755913888,0,0,0,71.8, -0.9, 3.4,0,0,1024,1024,1024,1024,0,0,0,0,71.9,0,0,80,4.047,4.06,4.057,4.052,0,0,7.149,88.16,199.81197194516,21.32546,6,P-GPS,
33400,2023-05-25 13:49:09,52.8251992355397,-1.247568223625,21.32546,21.2598432,178.55212874516,199.81197194516,20.013124,0,2.43653879188,5.4802495192,26,5,16.22,199.81197194516,21.32546,0,2.61755913888,0,0,0,72, -1, 3.8,0,0,1024,1024,1024,1024,0,0,0,0,71.9,0,0,80,4.047,4.058,4.056,4.051,0,0,7.109,88.16,199.81197194516,21.32546,6,P-GPS,
33600,2023-05-25 13:49:10,52.8251992676247,-1.24756833569901,21.32546,21.2598432,178.55212874516,199.81197194516,20.341208,0,2.42647973644,5.5075789164,26,5,16.22,199.81197194516,21.32546,0,2.61755913888,0,0,0,72.1, -0.7, 4.2,0,0,1024,1024,1024,1024,0,0,0,0,71.9,0,0,80,4.047,4.058,4.056,4.051,0,0,7.109,88.16,199.81197194516,21.32546,6,P-GPS,
33800,2023-05-25 13:49:10,52.8251992409903,-1.24756848057318,21.32546,21.2598432,178.55212874516,199.81197194516,20.341208,0,2.43863852948,5.5409778676,26,5,16.22,199.81197194516,21.32546,0,2.61755913888,0,0,0,72, -1, 4.2,0,0,1024,1024,1024,1024,0,0,0,0,71.9,0,0,80,4.047,4.058,4.056,4.051,0,0,7.109,88.16,199.81197194516,21.32546,6,P-GPS,
34000,2023-05-25 13:49:10,52.8251991496825,-1.24756863656977,21.32546,21.2598432,178.55212874516,199.81197194516,20.341208,0,2.47491149652,5.5888453232,26,5,16.22,199.81197194516,21.32546,0,2.61755913888,0,0,0,71.8, -1.2, 3.2,0,0,1024,1024,1024,1024,0,0,0,0,71.9,0,0,80,4.047,4.058,4.056,4.051,0,0,7.109,88.16,199.81197194516,21.32546,6,P-GPS,
34200,2023-05-25 13:49:10,52.8251990783805,-1.24756882269668,21.32546,21.2598432,178.55212874516,199.81197194516,20.341208,0,2.5050525736,5.6374345636,26,5,16.22,199.81197194516,21.32546,0,2.61755913888,0,0,0,71.9, -2, 3.3,0,0,1024,1024,1024,1024,0,0,0,0,71.9,0,0,80,4.047,4.058,4.056,4.051,0,0,7.109,88.16,199.81197194516,21.32546,6,P-GPS,
