time(millisecond),datetime(utc),latitude,longitude,height_above_takeoff(feet),height_above_ground_at_drone_location(feet),ground_elevation_at_drone_location(feet),altitude_above_seaLevel(feet),height_sonar(feet),speed(mph),distance(feet),mileage(feet),satellites,gpslevel,voltage(v),max_altitude(feet),max_ascent(feet),max_speed(mph),max_distance(feet), xSpeed(mph), ySpeed(mph), zSpeed(mph), compass_heading(degrees), pitch(degrees), roll(degrees),isPhoto,isVideo,rc_elevator,rc_aileron,rc_throttle,rc_rudder,rc_elevator(percent),rc_aileron(percent),rc_throttle(percent),rc_rudder(percent),gimbal_heading(degrees),gimbal_pitch(degrees),gimbal_roll(degrees),battery_percent,voltageCell1,voltageCell2,voltageCell3,voltageCell4,voltageCell5,voltageCell6,current(A),battery_temperature(f),altitude(feet),ascent(feet),flycStateRaw,flycState,message
100,2023-05-30 18:15:40,52.2063983964292,0.0867133795398806,0,0,53.868176592548,53.868176592548,0.328084,0,0,0,19,5,0,53.868176592548,0,0,0,0,0,0,350.2, 3.8, 0.9,0,0,1024,1024,1024,1024,0,0,0,0,350.4,0,0,55,3.863,3.878,3.881,3.881,0,0,0,73.58,53.868176592548,0,41,Motors_Started,"Aircraft not in flight. Vision systems and obstacle avoidance disabled (Code: 180059)"
300,2023-05-30 18:15:40,52.2063983323647,0.0867134585491018,0,0,53.868176592548,53.868176592548,0.328084,0,0.029298557368,0.029298557368,19,5,0,53.868176592548,0,0,0.029298557368,0,0,0,350.3, 3.8, 0.9,0,0,1024,1024,1024,1024,0,0,0,0,350.3,0,0,55,3.863,3.878,3.881,3.881,0,0,0,73.58,53.868176592548,0,41,Motors_Started,
500,2023-05-30 18:15:41,52.2063982659406,0.086713538455197,0,0,53.868176592548,53.868176592548,0,0,0.059405841796,0.059406826048,19,5,0,53.868176592548,0,0,0.059405841796,0,0,0,350.3, 3.8, 0.9,0,0,1024,1024,1024,1024,0,0,0,0,350.3,0,0,55,3.863,3.878,3.881,3.881,0,0,0,73.58,53.868176592548,0,41,Motors_Started,
700,2023-05-30 18:15:41,52.2063982090938,0.0867136279095266,0,0,53.868176592548,53.868176592548,0,0,0.088064963448,0.08822014718,19,5,0,53.868176592548,0,0,0.088064963448,0,0,0,350.3, 3.8, 0.9,0,0,1024,1024,1024,1024,0,0,0,0,350.3,0,0,55,3.863,3.878,3.881,3.881,0,0,0,73.58,53.868176592548,0,41,Motors_Started,"Setting new Return-To-Home altitude to 26m (85 ft). Data Recorder File Index is 25. Setting new Maximum Flight Altitude to 120m (394 ft)"
900,2023-05-30 18:15:41,52.206398147352,0.0867137264319814,0,0,53.868176592548,53.868176592548,0,0,0.119473757104,0.119727037952,19,5,0,53.868176592548,0,0,0.119473757104,0,0,0,350.2, 3.8, 0.9,0,0,1024,1024,1024,1024,0,0,0,0,350.3,0,0,55,3.863,3.878,3.881,3.881,0,0,0,73.58,53.868176592548,0,41,Motors_Started,
1100,2023-05-30 18:15:41,52.2063980949958,0.0867138094941729,0,0,53.868176592548,53.868176592548,0,0,0.146070214648,0.146369099172,19,5,0,53.868176592548,0,0,0.146070214648,0,0,0,350.3, 3.8, 0.9,0,0,1024,1024,1024,1024,0,0,0,0,350.3,0,0,55,3.863,3.878,3.881,3.881,0,0,0,73.58,53.868176592548,0,41,Motors_Started,
1300,2023-05-30 18:15:41,52.2063980587005,0.086713892537361,0,0,53.868176592548,53.868176592548,0,0,0.168342196988,0.16917487418,19,5,0,53.868176592548,0,0,0.168342196988,0,0,0,350.3, 3.8, 0.9,0,0,1024,1024,1024,1024,0,0,0,0,350.3,0,0,55,3.863,3.878,3.881,3.881,0,0,0,73.58,53.868176592548,0,41,Motors_Started,
1500,2023-05-30 18:15:42,52.2063980208567,0.0867139587933231,0,0,53.868176592548,53.868176592548,0,0,0.188547578212,0.18942585908,21,5,0,53.868176592548,0,0,0.188547578212,0,0,0,350.5, 3.8, 0.9,0,0,1024,1024,1024,1024,0,0,0,0,350.3,0,0,55,3.863,3.878,3.881,3.881,0,0,0,73.58,53.868176592548,0,41,Motors_Started,
1700,2023-05-30 18:15:42,52.2063979676717,0.0867140253804251,0,0,53.868176592548,53.868176592548,0,0,0.212891082928,0.213883537028,21,5,15.41,53.868176592548,0,0,0.212891082928,0,0,0,350.5, 3.8, 0.9,0,0,1024,1024,1024,1024,0,0,0,0,350.4,0,0,55,3.863,3.878,3.881,3.881,0,0,5.01,73.58,53.868176592548,0,11,AutoTakeoff,
1900,2023-05-30 18:15:42,52.2063978909207,0.0867140812727532,0,0,53.868176592548,53.868176592548,0,0,0.242142724284,0.244548236172,21,5,15.41,53.868176592548,0,0,0.242142724284,0,0,0,351, 3.8, 0.9,0,0,1024,1024,1024,1024,0,0,0,0,350.4,0,0,55,3.863,3.878,3.881,3.881,0,0,5.01,73.58,53.868176592548,0,11,AutoTakeoff,
2100,2023-05-30 18:15:42,52.2063977651541,0.0867141420961405,0,0,53.868176592548,53.868176592548,0,0,0.286560376624,0.292406833504,21,5,15.41,53.868176592548,0,0,0.286560376624,0,0,0,350.3, 1.6, 0.9,0,0,1024,1024,1024,1024,0,0,0,0,350.4,0,0,55,3.863,3.878,3.881,3.881,0,0,5.01,73.58,53.868176592548,0,11,AutoTakeoff,
2300,2023-05-30 18:15:42,52.2063974957792,0.0867142424151828,0,0,53.868176592548,53.868176592548,0,0,0.38104988096,0.39321523568,21,5,15.41,53.868176592548,0,0,0.38104988096,0,0,-0.671082,350.4, -0.9, 1.2,0,0,1024,1024,1024,1024,0,0,0,0,350.4,0,0,55,3.863,3.878,3.881,3.881,0,0,5.01,73.58,53.868176592548,0,11,AutoTakeoff,
2500,2023-05-30 18:15:43,52.2063972175076,0.0867143877041749,0.328084,0.328084,53.868176592548,54.196260592548,0.328084,0,0.4856135326,0.49981300812,21,5,15.41,54.196260592548,0.328084,0,0.4856135326,0,0,-0.894776,350.4, -0.1, -0.4,0,0,1024,1024,1024,1024,0,0,0,0,350.4,0,0,55,3.863,3.878,3.881,3.881,0,0,5.01,73.58,54.196260592548,0.328084,11,AutoTakeoff,
2700,2023-05-30 18:15:43,52.2063969205478,0.0867144463137733,0.656168,0.656168,53.868176592548,54.524344592548,0.656168,0,0.58893374588,0.60894686988,22,5,15.413,54.524344592548,0.656168,0,0.58893374588,0,0,-0.894776,350.3, -0.2, 0,0,0,1024,1024,1024,1024,0,0,0,0,350.4,0,0,55,3.824,3.829,3.823,3.825,0,0,3.807,73.76,54.524344592548,0.656168,11,AutoTakeoff,
2900,2023-05-30 18:15:43,52.2063965479978,0.0867144928837235,0.656168,0.656168,53.868176592548,54.524344592548,0.984252,0,0.71887469492,0.74527233356,22,5,15.413,54.524344592548,0.656168,0,0.71887469492,0,0,-0.894776,350.3, -1.3, 0,0,0,1024,1024,1094,1024,0,0,11,0,350.4,0,0,55,3.824,3.829,3.823,3.825,0,0,3.807,73.76,54.524344592548,0.656168,11,AutoTakeoff,
3100,2023-05-30 18:15:43,52.2063961398041,0.0867145602412285,0.984252,0.984252,53.868176592548,54.852428592548,1.312336,0,0.8646161694,0.89496065856,22,5,15.413,54.852428592548,0.984252,0,0.8646161694,0,0,-0.894776,350.3, -1.5, 0.1,0,0,1024,1024,1156,1024,0,0,20,0,350.4,0,0,55,3.824,3.829,3.823,3.825,0,0,3.807,73.76,54.852428592548,0.984252,11,AutoTakeoff,
3300,2023-05-30 18:15:43,52.2063956990957,0.0867146334402094,1.312336,1.312336,53.868176592548,55.180512592548,1.64042,0,1.02327431096,1.05658139864,22,5,15.413,55.180512592548,1.312336,0,1.02327431096,0,0,-1.11847,350.2, -1.6, 1,0,0,1024,1024,1221,1024,0,0,30,0,350.4,0,0,55,3.824,3.829,3.823,3.825,0,0,3.807,73.76,55.180512592548,1.312336,11,AutoTakeoff,
3500,2023-05-30 18:15:44,52.2063952629819,0.0867147076789175,1.64042,1.6732284,53.835368192548,55.508596592548,1.968504,0,1.18117457848,1.21656171872,21,5,15.413,55.508596592548,1.64042,0,1.18117457848,0,0,-1.342164,350.3, -2.5, 1.3,0,0,1024,1024,1645,1024,0,0,94,0,350.4,0,0,55,3.824,3.829,3.823,3.825,0,0,3.807,73.76,55.508596592548,1.64042,11,AutoTakeoff,
3700,2023-05-30 18:15:44,52.2063948726711,0.0867148737967476,2.296588,2.3293964,53.835368192548,56.164764592548,2.624672,0,1.32834321836,1.3637303586,21,5,15.413,56.164764592548,2.296588,0,1.32834321836,0,0,-2.23694,350.5, -0.9, 0.9,0,0,1024,1024,1684,1024,0,0,100,0,350.4,0,0,55,3.798,3.802,3.799,3.796,0,0,3.807,73.76,56.164764592548,2.296588,11,AutoTakeoff,"Home Point updated (Code: 3000001)"
3900,2023-05-30 18:15:44,52.2063944238402,0.0867151328989561,3.28084,3.3136484,53.835368192548,57.149016592548,3.608924,0,1.50147970684,1.53743115156,21,5,15.413,57.149016592548,3.28084,0,1.50147970684,0,0,-4.026492,350.4, -1.1, 0.4,0,0,1024,1024,1684,1024,0,0,100,0,350.4,0,0,55,3.798,3.802,3.799,3.796,0,0,3.807,73.76,57.149016592548,3.28084,11,AutoTakeoff,
4100,2023-05-30 18:15:44,52.2063939765299,0.0867154151901396,4.92126,4.9540684,53.835368192548,58.789436592548,5.249344,0,1.67559716648,1.71241147212,21,5,15.413,58.789436592548,4.92126,0,1.67559716648,0,0,-6.039738,350.4, -1.2, 1,0,0,1024,1024,1648,1024,0,0,95,0,350.4,0,0,55,3.798,3.802,3.799,3.796,0,0,3.807,73.76,58.789436592548,4.92126,6,P-GPS,
4300,2023-05-30 18:15:44,52.206393540663,0.0867157422686655,7.217848,7.2506564,53.835368192548,61.086024592548,7.217848,0,1.84870740824,1.88744756696,27,5,15.413,61.086024592548,7.217848,0,1.84870740824,0,0,-8.276678,350.4, -1.1, 1.2,0,0,1024,1024,1581,1024,0,0,84,0,350.4,0,0,55,3.798,3.802,3.799,3.796,0,0,3.807,73.76,61.086024592548,7.217848,6,P-GPS,
4500,2023-05-30 18:15:45,52.2063931257019,0.0867161651161165,10.498688,10.5643048,53.802559792548,64.366864592548,10.170604,0,2.02136489408,2.06594166716,27,5,15.413,64.366864592548,10.498688,0,2.02136489408,0,0,-10.289924,350.3, -1.4, 1.7,0,0,1024,1024,1024,1024,0,0,0,0,350.4,0,0,55,3.798,3.802,3.799,3.796,0,0,3.807,73.76,64.366864592548,10.498688,6,P-GPS,
4700,2023-05-30 18:15:45,52.2063928021691,0.0867166517176313,13.779528,13.8451448,53.802559792548,67.647704592548,13.12336,0,2.168225135,2.22647316836,27,5,15.246,67.647704592548,13.779528,0,2.168225135,0,0,-9.618842,350.3, -1.3, 1.6,0,0,1024,1024,1024,1024,0,0,0,0,350.4,0,0,55,3.702,3.733,3.754,3.776,0,0,7.809,73.58,67.647704592548,13.779528,6,P-GPS,
4900,2023-05-30 18:15:45,52.206392475669,0.0867172231621982,16.732284,16.7979008,53.802559792548,70.600460592548,15.748032,0,2.3248524366,2.40115821332,27,5,15.246,70.600460592548,16.732284,0,2.3248524366,0,0,-7.82929,350.2, -0.8, 0.7,0,0,1024,1024,1024,1024,0,0,0,0,350.4,0,0,55,3.702,3.733,3.754,3.776,0,0,7.809,73.58,70.600460592548,16.732284,6,P-GPS,
5100,2023-05-30 18:15:45,52.2063921374804,0.0867177424670659,17.716536,17.7821528,53.802559792548,71.584712592548,17.716536,0,2.4832021792,2.57058407176,27,5,15.246,71.584712592548,17.716536,0,2.4832021792,0,0,-5.816044,350.3, -1.3, 0.2,0,0,1024,1024,1024,1024,0,0,0,0,350.4,0,0,55,3.702,3.733,3.754,3.776,0,0,7.809,73.58,71.584712592548,17.716536,6,P-GPS,
5300,2023-05-30 18:15:45,52.2063917911103,0.0867181815447462,19.028872,19.0944888,53.802559792548,72.897048592548,19.028872,0,2.63829404768,2.7306103236,27,5,15.246,72.897048592548,19.028872,0,2.63829404768,0,0,-3.35541,350.3, -1.6, 0,0,0,1024,1024,1024,1024,0,0,0,0,350.4,0,0,55,3.702,3.733,3.754,3.776,0,0,7.809,73.58,72.897048592548,19.028872,6,P-GPS,
5500,2023-05-30 18:15:46,52.2063914447703,0.0867185343102137,19.68504,19.7506568,53.802559792548,73.553216592548,19.68504,0,2.7858924776,2.87956702128,27,5,15.246,73.553216592548,19.68504,0,2.7858924776,0,0,-1.11847,350.3, -1.4, 0.1,0,0,1024,1024,1024,1024,0,0,0,0,350.4,0,0,55,3.702,3.733,3.754,3.776,0,0,7.809,73.58,73.553216592548,19.68504,6,P-GPS,
5700,2023-05-30 18:15:46,52.2063911267043,0.0867188267321849,20.013124,20.0787408,53.802559792548,73.881300592548,20.013124,0,2.91861557896,3.01276584444,27,5,14.934,73.881300592548,20.013124,0,2.91861557896,0,0,0,350.5, -0.5, 1.2,0,0,1024,1024,1024,1024,0,0,0,0,350.4,0,0,55,3.843,3.845,3.839,3.833,0,0,11.567,73.58,73.881300592548,20.013124,6,P-GPS,
5900,2023-05-30 18:15:46,52.2063908085055,0.0867191427917865,20.013124,20.0787408,53.802559792548,73.881300592548,20.013124,0,3.05364839168,3.14867464144,27,5,14.934,73.881300592548,20.013124,0,3.05364839168,0,0,0,350.4, -0.8, 1.2,0,0,1024,1024,1024,1024,0,0,0,0,350.4,0,0,55,3.843,3.845,3.839,3.833,0,0,11.567,73.58,73.881300592548,20.013124,6,P-GPS,
6100,2023-05-30 18:15:46,52.2063905016214,0.0867194600903236,20.013124,20.0787408,53.802559792548,73.881300592548,20.013124,0,3.18514117804,3.2812337008,27,5,14.934,73.881300592548,20.013124,0,3.18514117804,0,0,0,350.3, -1.2, 0.9,0,0,1024,1024,1024,1024,0,0,0,0,350.4,0,0,55,3.843,3.845,3.839,3.833,0,0,11.567,73.58,73.881300592548,20.013124,6,P-GPS,
6300,2023-05-30 18:15:46,52.206390226103,0.0867197715803677,20.013124,20.1115492,53.769751392548,73.881300592548,20.013124,0,3.3058400008,3.4035106076,27,5,14.934,73.881300592548,20.013124,0,3.3058400008,0,0,0,350.3, -1.3, 0.7,0,0,1024,1024,1024,1024,0,0,0,0,350.4,0,0,55,3.843,3.845,3.839,3.833,0,0,11.567,73.58,73.881300592548,20.013124,6,P-GPS,
6500,2023-05-30 18:15:47,52.206389991573,0.0867200325842286,20.013124,20.1115492,53.769751392548,73.881300592548,20.013124,0,3.4082678256,3.5070867264,27,5,14.934,73.881300592548,20.013124,0,3.4082678256,0,0,0,350.3, -1, 1.4,0,0,1024,1024,1024,1024,0,0,0,0,350.4,0,0,55,3.843,3.845,3.839,3.833,0,0,11.567,73.58,73.881300592548,20.013124,6,P-GPS,
6700,2023-05-30 18:15:47,52.20638975866,0.0867202145190183,20.013124,20.1115492,53.769751392548,73.881300592548,20.013124,0,3.502460742,3.6013124512,27,5,15.357,73.881300592548,20.013124,0,3.502460742,0,0,0,350.2, -1.2, 2.1,0,0,1024,1403,1024,1024,0,57,0,0,350.4,0,0,55,3.799,3.807,3.807,3.804,0,0,8.824,73.76,73.881300592548,20.013124,6,P-GPS,
6900,2023-05-30 18:15:47,52.2063894851291,0.0867203866794985,20.013124,20.1115492,53.769751392548,73.881300592548,20.013124,0,3.6090552336,3.7082678352,27,5,15.357,73.881300592548,20.013124,0,3.6090552336,0,0,0,350.2, -1.3, 1.5,0,0,1024,1534,1024,1024,0,77,0,0,350.4,0,0,55,3.799,3.807,3.807,3.804,0,0,8.824,73.76,73.881300592548,20.013124,6,P-GPS,
7100,2023-05-30 18:15:47,52.2063892202476,0.0867205580440193,20.013124,20.1115492,53.769751392548,73.881300592548,20.013124,0,3.712762586,3.8122376548,27,5,15.357,73.881300592548,20.013124,0,3.712762586,0,0,0,349.9, -1, 10.4,0,0,1024,1024,1024,1024,0,0,0,0,350.4,0,0,55,3.799,3.807,3.807,3.804,0,0,8.824,73.76,73.881300592548,20.013124,6,P-GPS,
7300,2023-05-30 18:15:47,52.2063889844207,0.0867214205300791,20.013124,20.1115492,53.769751392548,73.881300592548,20.013124,0.894776,3.876148418,4.0233925172,27,5,15.357,73.881300592548,20.013124,0.894776,3.876148418,0,0.894776,0,350.5, -2, 16.1,0,0,1024,1024,1024,1024,0,0,0,0,350.4,0,0,55,3.799,3.807,3.807,3.804,0,0,8.824,73.76,73.881300592548,20.013124,6,P-GPS,
7500,2023-05-30 18:15:48,52.2063888388795,0.0867234723269088,20.013124,20.1115492,53.769751392548,73.881300592548,19.68504,1.342164,4.15354344,4.4852035556,27,5,15.357,73.881300592548,20.013124,1.342164,4.15354344,0,1.342164,0,352.4, -2.6, -9,0,0,1024,1024,1024,1024,0,0,0,0,350.4,0,0,55,3.799,3.807,3.807,3.804,0,0,8.824,73.76,73.881300592548,20.013124,6,P-GPS,
7700,2023-05-30 18:15:48,52.2063886797844,0.0867247431217129,20.013124,20.1115492,53.769751392548,73.881300592548,19.68504,0.447388,4.361548696,4.7751970032,27,5,15.233,73.881300592548,20.013124,1.342164,4.361548696,0,0.447388,0,352.7, -4.1, -6.7,0,0,1024,1024,1024,1024,0,0,0,0,350.4,0,0,55,3.787,3.793,3.797,3.796,0,0,6.128,73.94,73.881300592548,20.013124,6,P-GPS,
7900,2023-05-30 18:15:48,52.2063885798364,0.0867252154199886,20.013124,20.1115492,53.769751392548,73.881300592548,19.68504,0,4.4531825572,4.8869424136,27,5,15.233,73.881300592548,20.013124,1.342164,4.4531825572,0,0,0,358.5, -3.8, -2.5,0,0,1024,1024,1024,1024,0,0,0,0,350.4,0,0,55,3.787,3.793,3.797,3.796,0,0,6.128,73.94,73.881300592548,20.013124,6,P-GPS,
8100,2023-05-30 18:15:48,52.206388524855,0.0867251272441303,20.013124,20.1115492,53.769751392548,73.881300592548,19.68504,0,4.457677308,4.9150592124,27,5,15.233,73.881300592548,20.013124,1.342164,4.457677308,0,0,0,359.7, -2.7, 0.2,0,0,1024,1024,1024,1024,0,0,0,0,350.4,0,0,55,3.787,3.793,3.797,3.796,0,0,6.128,73.94,73.881300592548,20.013124,6,P-GPS,
8300,2023-05-30 18:15:48,52.2063884958999,0.0867248956182427,20.341208,20.4396332,53.769751392548,74.209384592548,20.013124,0,4.4359581472,4.9679135448,26,5,15.233,74.209384592548,20.341208,1.342164,4.457677308,0,0,0,0.1, -2.3, 1.5,0,0,1024,876,1024,1024,0,-22,0,0,350.4,0,0,55,3.787,3.793,3.797,3.796,0,0,6.128,73.94,74.209384592548,20.341208,6,P-GPS,
8500,2023-05-30 18:15:49,52.2063884348895,0.0867247434580952,20.341208,20.4396332,53.769751392548,74.209384592548,20.013124,0,4.434547386,5.0085631524,27,5,15.233,74.209384592548,20.341208,1.342164,4.457677308,0,0,0,0.4, 0, -0.1,0,0,1024,388,1024,1024,0,-96,0,0,350.4,0,0,55,3.787,3.793,3.797,3.796,0,0,6.128,73.94,74.209384592548,20.341208,6,P-GPS,
8700,2023-05-30 18:15:49,52.2063882729352,0.086724474235147,20.341208,20.4396332,53.769751392548,74.209384592548,20.013124,0.223694,4.4492455492,5.0929135488,27,5,15.196,74.209384592548,20.341208,1.342164,4.457677308,0,-0.223694,0,0.9, -0.9, -13.1,0,0,1024,394,1024,1024,0,-95,0,0,350.4,0,0,55,3.795,3.8,3.802,3.8,0,0,7.79,73.94,74.209384592548,20.341208,6,P-GPS,
8900,2023-05-30 18:15:49,52.206388066072,0.0867230713172244,20.341208,20.4396332,53.769751392548,74.209384592548,20.013124,1.789552,4.3475395092,5.4155513544,27,5,15.196,74.209384592548,20.341208,1.789552,4.457677308,0,-1.789552,0,0.8, -0.9, -24,0,0,1024,416,1024,1024,0,-92,0,0,350.4,0,0,55,3.795,3.8,3.802,3.8,0,0,7.79,73.94,74.209384592548,20.341208,6,P-GPS,
9100,2023-05-30 18:15:49,52.2063878307742,0.086719401003237,20.341208,20.4396332,53.769751392548,74.209384592548,19.68504,3.579104,4.0832022304,6.240649806,27,5,15.196,74.209384592548,20.341208,3.579104,4.457677308,0,-3.579104,0,1.9, -1.3, -25.3,0,0,1024,422,1024,1024,0,-91,0,0,350.4,0,0,55,3.795,3.8,3.802,3.8,0,0,7.79,73.94,74.209384592548,20.341208,6,P-GPS,
9300,2023-05-30 18:15:49,52.2063877708861,0.086713257000819,20.341208,20.4396332,53.769751392548,74.209384592548,19.68504,5.368656,3.876804586,7.6145343644,27,5,15.196,74.209384592548,20.341208,5.368656,4.457677308,0,-5.368656,0,3.1, -1.7, -25.1,0,0,1024,430,1024,1024,0,-90,0,0,350.4,0,0,55,3.795,3.8,3.802,3.8,0,0,7.79,73.94,74.209384592548,20.341208,6,P-GPS,
9500,2023-05-30 18:15:50,52.2063877637905,0.0867046977456984,20.341208,20.4396332,53.769751392548,74.209384592548,20.013124,7.158208,4.3378610312,9.5282811448,27,5,15.196,74.209384592548,20.341208,7.158208,4.457677308,0.223694,-7.158208,0,4, -0.9, -24.4,0,0,1024,431,1024,1024,0,-90,0,0,350.4,0,0,55,3.795,3.8,3.802,3.8,0,0,7.79,73.94,74.209384592548,20.341208,6,P-GPS,
9700,2023-05-30 18:15:50,52.2063878378601,0.086693861818224,20.341208,20.4396332,53.769751392548,74.209384592548,20.013124,8.724066,5.8209647532,11.9512142932,27,5,15.207,74.209384592548,20.341208,8.724066,5.8209647532,0.223694,-8.724066,0,3.1, -0.5, -23.6,0,0,1024,434,1024,1024,0,-89,0,0,350.4,0,0,55,3.779,3.788,3.789,3.788,0,0,7.963,73.94,74.209384592548,20.341208,6,P-GPS,
9900,2023-05-30 18:15:50,52.2063878830474,0.086680927730386,20.669292,20.7677172,53.769751392548,74.537468592548,20.013124,10.289924,8.2073165356,14.8431435196,27,5,15.207,74.537468592548,20.669292,10.289924,8.2073165356,0,-10.289924,0,3.4, -1.1, -23.1,0,0,1024,436,1024,1024,0,-89,0,0,350.4,0,0,55,3.779,3.788,3.789,3.788,0,0,7.963,73.94,74.537468592548,20.669292,6,P-GPS,
10100,2023-05-30 18:15:50,52.2063879384721,0.0866660684696409,20.669292,20.7677172,53.769751392548,74.537468592548,20.013124,11.632088,11.245243142,18.165518954,27,5,15.207,74.537468592548,20.669292,11.632088,11.245243142,0,-11.632088,0,2.8, -2.8, -21.7,0,0,1024,462,1024,1024,0,-85,0,0,350.4,0,0,55,3.779,3.788,3.789,3.788,0,0,7.963,73.94,74.537468592548,20.669292,6,P-GPS,
10300,2023-05-30 18:15:50,52.2063880439983,0.0866495901491578,20.669292,20.7677172,53.769751392548,74.537468592548,20.013124,12.974252,14.754101522,21.850066316,27,5,15.207,74.537468592548,20.669292,12.974252,14.754101522,0.223694,-12.974252,0,2.8, -2.3, -21.5,0,0,1024,1024,1024,364,0,0,0,-100,350.4,0,0,55,3.779,3.788,3.789,3.788,0,0,7.963,73.94,74.537468592548,20.669292,6,P-GPS,
10500,2023-05-30 18:15:51,52.206388154987,0.0866310493348867,20.997376,21.0958012,53.769751392548,74.865552592548,20.013124,13.869028,18.7833339344,25.99573574,27,5,15.207,74.865552592548,20.997376,13.869028,18.7833339344,0.223694,-13.869028,0,1.2, -3.9, 2.8,0,0,1024,1024,1024,364,0,0,0,-100,350.3,0,0,55,3.779,3.788,3.789,3.788,0,0,7.963,73.94,74.865552592548,20.997376,6,P-GPS,
10700,2023-05-30 18:15:51,52.2063882879862,0.0866140897377775,20.997376,21.0958012,53.769751392548,74.865552592548,20.013124,12.079476,22.5041345784,29.7879930792,27,5,15.139,74.865552592548,20.997376,13.869028,22.5041345784,0.223694,-12.079476,-0.223694,0.7, -1.7, 27.7,0,0,1024,1024,1024,364,0,0,0,-100,343,0,0,55,3.77,3.787,3.794,3.801,0,0,8.12,74.12,74.865552592548,20.997376,6,P-GPS,
10900,2023-05-30 18:15:51,52.2063883747144,0.0865997807705769,20.997376,21.0958012,53.769751392548,74.865552592548,19.68504,9.618842,25.6609916348,32.987533864,27,5,15.139,74.865552592548,20.997376,13.869028,25.6609916348,0,-9.618842,0,351.2, 11.7, 26.9,0,0,1024,1024,1024,364,0,0,0,-100,331.1,0,0,55,3.77,3.787,3.794,3.801,0,0,8.12,74.12,74.865552592548,20.997376,6,P-GPS,
11100,2023-05-30 18:15:51,52.206387997254,0.0865888528215639,20.669292,20.7677172,53.769751392548,74.537468592548,19.68504,6.9568834,28.0998368572,35.43471242,27,5,15.139,74.865552592548,20.997376,13.869028,28.0998368572,-0.671082,-6.934514,0,338.7, 21.4, 23.2,0,0,1024,1024,1024,444,0,0,0,-88,319.2,0,0,55,3.77,3.787,3.794,3.801,0,0,8.12,74.12,74.537468592548,20.669292,6,P-GPS,
11300,2023-05-30 18:15:51,52.2063868278176,0.0865813404341467,20.669292,20.7677172,53.769751392548,74.537468592548,19.356956,4.7423128,29.8223762824,37.167652108,27,5,15.139,74.865552592548,20.997376,13.869028,29.8223762824,-1.565858,-4.47388,0,326.1, 17.1, 24.1,0,0,1024,1024,1024,1024,0,0,0,0,308.3,0,0,55,3.77,3.787,3.794,3.801,0,0,8.12,74.12,74.537468592548,20.669292,6,P-GPS,
11500,2023-05-30 18:15:52,52.2063853394884,0.0865771935616231,20.669292,20.7677172,53.769751392548,74.537468592548,19.028872,2.7290668,30.8197516424,38.242127208,27,5,15.139,74.865552592548,20.997376,13.869028,30.8197516424,-1.565858,-2.23694,0,315.4, 13, 19,0,0,1024,1024,1024,1024,0,0,0,0,305.4,0,0,55,3.77,3.787,3.794,3.801,0,0,8.12,74.12,74.537468592548,20.669292,6,P-GPS,
11700,2023-05-30 18:15:52,52.2063838968423,0.0865755434743279,20.669292,20.7677172,53.769751392548,74.537468592548,19.028872,1.4987498,31.2690626804,38.884843764,27,5,15.143,74.865552592548,20.997376,13.869028,31.2690626804,-1.342164,-0.671082,0,314.2, 5.2, 13.6,0,0,1024,1024,987,364,0,0,-6,-100,305.2,0,0,55,3.767,3.776,3.783,3.783,0,0,8.529,74.12,74.537468592548,20.669292,6,P-GPS,
11900,2023-05-30 18:15:52,52.2063825833072,0.0865751516701611,20.669292,20.7677172,53.769751392548,74.537468592548,19.356956,1.342164,31.439797594,39.372048504,27,5,15.143,74.865552592548,20.997376,13.869028,31.439797594,-1.342164,0,0,315.3, 0, 10.9,0,0,1024,1024,965,364,0,0,-9,-100,296.8,0,0,55,3.767,3.776,3.783,3.783,0,0,8.529,74.12,74.537468592548,20.669292,6,P-GPS,
12100,2023-05-30 18:15:52,52.2063814740094,0.0865753482782105,20.669292,20.7677172,53.769751392548,74.537468592548,19.68504,0.894776,31.4734590124,39.779200748,27,5,15.143,74.865552592548,20.997376,13.869028,31.4734590124,-0.894776,0,0,303.5, -1.4, 9.2,0,0,1024,1024,990,1024,0,0,-5,0,284.9,0,0,55,3.767,3.776,3.783,3.783,0,0,8.529,74.12,74.537468592548,20.669292,6,P-GPS,
12300,2023-05-30 18:15:52,52.2063806287418,0.0865756240243549,20.669292,20.7677172,53.769751392548,74.537468592548,19.68504,0.671082,31.4750994324,40.093833304,27,5,15.143,74.865552592548,20.997376,13.869028,31.4750994324,-0.671082,0,0,292, -1.4, 8.4,0,0,1024,1024,1024,364,0,0,0,-100,277.4,0,0,55,3.767,3.776,3.783,3.783,0,0,8.529,74.12,74.537468592548,20.669292,6,P-GPS,
12500,2023-05-30 18:15:53,52.2063800361383,0.086575744276235,20.669292,20.7677172,53.769751392548,74.537468592548,20.013124,0.447388,31.4940626876,40.31168108,27,5,15.143,74.865552592548,20.997376,13.869028,31.4940626876,-0.447388,0,0,288.8, -0.4, 8,0,0,1024,1024,991,364,0,0,-5,-100,276.9,0,0,55,3.767,3.776,3.783,3.783,0,0,8.529,74.12,74.537468592548,20.669292,6,P-GPS,
12700,2023-05-30 18:15:53,52.2063796175995,0.0865758192624108,20.997376,21.0958012,53.769751392548,74.865552592548,20.013124,0.223694,31.5105325044,40.465224392,27,5,15.12,74.865552592548,20.997376,13.869028,31.5105325044,-0.223694,0,0,287.5, 0.3, 8.3,0,0,1024,1024,948,364,0,0,-12,-100,268.1,0,0,55,3.779,3.786,3.783,3.783,0,0,8.708,74.12,74.865552592548,20.997376,6,P-GPS,
12900,2023-05-30 18:15:53,52.2063793216404,0.0865760412572789,20.997376,21.0958012,53.769751392548,74.865552592548,20.013124,0,31.4857621624,40.5839908,27,5,15.12,74.865552592548,20.997376,13.869028,31.5105325044,0,0,0,276.5, 1, 6.5,0,0,1024,1024,950,364,0,0,-11,-100,264.3,0,0,55,3.779,3.786,3.783,3.783,0,0,8.708,74.12,74.865552592548,20.997376,6,P-GPS,
13100,2023-05-30 18:15:53,52.2063790678798,0.0865763251255277,20.997376,21.0958012,53.769751392548,74.865552592548,20.341208,0,31.4445220036,40.696195528,27,5,15.12,74.865552592548,20.997376,13.869028,31.5105325044,0,0,0,274.6, 0.3, 6.8,0,0,1024,1024,1024,1024,0,0,0,0,256.5,0,0,55,3.779,3.786,3.783,3.783,0,0,8.708,74.12,74.865552592548,20.997376,6,P-GPS,
13300,2023-05-30 18:15:53,52.2063788482969,0.0865764780615389,20.997376,21.0958012,53.769751392548,74.865552592548,20.341208,0,31.4292660976,40.783465872,27,5,15.12,74.865552592548,20.997376,13.869028,31.5105325044,0,0,0,266.1, 1.1, 5,0,0,1024,1024,1024,1024,0,0,0,0,254.7,0,0,55,3.779,3.786,3.783,3.783,0,0,8.708,74.12,74.865552592548,20.997376,6,P-GPS,
13500,2023-05-30 18:15:54,52.2063787000529,0.0865764052841281,21.32546,21.4238852,53.769751392548,75.193636592548,20.341208,0.223694,31.4574157048,40.83989632,27,5,15.12,75.193636592548,21.32546,13.869028,31.5105325044,0,-0.223694,0,266.8, 3, 5.6,0,0,1024,1024,1024,1024,0,0,0,0,254.7,0,0,55,3.779,3.786,3.783,3.783,0,0,8.708,74.12,75.193636592548,21.32546,6,P-GPS,
13700,2023-05-30 18:15:54,52.2063786362015,0.0865762170917531,21.32546,21.4238852,53.769751392548,75.193636592548,20.341208,0.223694,31.5037083572,40.888124668,27,5,15.15,75.193636592548,21.32546,13.869028,31.5105325044,0,-0.223694,0,267.3, 5.2, 4.5,0,0,1024,1024,1024,1024,0,0,0,0,254.7,0,0,55,3.776,3.786,3.787,3.789,0,0,8.384,74.3,75.193636592548,21.32546,6,P-GPS,
13900,2023-05-30 18:15:54,52.2063786143666,0.0865761222686303,21.32546,21.4238852,53.769751392548,75.193636592548,20.341208,0,31.5261821112,40.910762464,27,5,15.15,75.193636592548,21.32546,13.869028,31.5261821112,0,0,0,266.8, 4.8, 3.3,0,0,1024,1024,1024,1024,0,0,0,0,254.7,0,0,55,3.776,3.786,3.787,3.789,0,0,8.384,74.3,75.193636592548,21.32546,6,P-GPS,
14100,2023-05-30 18:15:54,52.2063785664133,0.0865761670170921,21.32546,21.4238852,53.769751392548,75.193636592548,20.341208,0,31.5204406412,40.930775588,27,5,15.15,75.193636592548,21.32546,13.869028,31.5261821112,0,0,0,266.8, 3.6, 2.4,0,0,1024,1024,1024,897,0,0,0,-19,254.6,0,0,55,3.776,3.786,3.787,3.789,0,0,8.384,74.3,75.193636592548,21.32546,6,P-GPS,
14300,2023-05-30 18:15:54,52.2063784875356,0.086576326383685,21.32546,21.4238852,53.769751392548,75.193636592548,20.013124,0,31.4923894592,40.976707348,27,5,15.15,75.193636592548,21.32546,13.869028,31.5261821112,0,0,0,266.1, 4.3, 3,0,0,1024,1024,1024,1024,0,0,0,0,252.5,0,0,55,3.776,3.786,3.787,3.789,0,0,8.384,74.3,75.193636592548,21.32546,6,P-GPS,
14500,2023-05-30 18:15:55,52.2063783297223,0.0865766383647601,21.32546,21.4238852,53.769751392548,75.193636592548,20.013124,0,31.4378947068,41.066930448,27,5,15.15,75.193636592548,21.32546,13.869028,31.5261821112,0,0,0,264.3, 3.4, 2.9,0,0,1024,1024,1024,1024,0,0,0,0,252.4,0,0,55,3.776,3.786,3.787,3.789,0,0,8.384,74.3,75.193636592548,21.32546,6,P-GPS,
14700,2023-05-30 18:15:55,52.2063780995828,0.0865770357747166,21.32546,21.4238852,53.769751392548,75.193636592548,20.013124,0,31.3711952296,41.18930578,27,5,15.156,75.193636592548,21.32546,13.869028,31.5261821112,0,0,0,264.3, 1.3, 4.7,0,0,1024,1024,1024,1024,0,0,0,0,252.4,0,0,55,3.781,3.784,3.783,3.783,0,0,8.172,74.3,75.193636592548,21.32546,6,P-GPS,
14900,2023-05-30 18:15:55,52.2063779046191,0.086577284610274,21.32546,21.4238852,53.769751392548,75.193636592548,20.013124,0,31.3340233124,41.27952888,27,5,15.156,75.193636592548,21.32546,13.869028,31.5261821112,0,0,0,264.3, 2.2, 5.1,0,0,1024,1024,1009,1684,0,0,-2,100,252.4,0,0,55,3.781,3.784,3.783,3.783,0,0,8.172,74.3,75.193636592548,21.32546,6,P-GPS,
15100,2023-05-30 18:15:55,52.2063777385302,0.0865774610318883,21.32546,21.4238852,53.769751392548,75.193636592548,20.013124,0,31.3102700308,41.352035444,27,5,15.156,75.193636592548,21.32546,13.869028,31.5261821112,0,0,0,264.9, 3.2, 4.3,0,0,1024,1024,1024,1024,0,0,0,0,257.6,0,0,55,3.781,3.784,3.783,3.783,0,0,8.172,74.3,75.193636592548,21.32546,6,P-GPS,
15300,2023-05-30 18:15:55,52.2063776092575,0.0865776863958221,21.32546,21.4238852,53.769751392548,75.193636592548,20.013124,0,31.2727700296,41.420933084,27,5,15.156,75.193636592548,21.32546,13.869028,31.5261821112,0,0,0,273.9, 3.5, 3.8,0,0,1024,1024,1024,1024,0,0,0,0,266.2,0,0,55,3.781,3.784,3.783,3.783,0,0,8.172,74.3,75.193636592548,21.32546,6,P-GPS,
15500,2023-05-30 18:15:56,52.2063774926254,0.0865780063172677,21.32546,21.4238852,53.769751392548,75.193636592548,19.68504,0,31.213747718,41.50426642,27,5,15.156,75.193636592548,21.32546,13.869028,31.5261821112,0,0,0,280.1, 2.9, 3.8,0,0,1024,1024,1024,1024,0,0,0,0,266.8,0,0,55,3.781,3.784,3.783,3.783,0,0,8.172,74.3,75.193636592548,21.32546,6,P-GPS,
15700,2023-05-30 18:15:56,52.2063774127261,0.0865784211736723,21.32546,21.4238852,53.769751392548,75.193636592548,19.68504,0,31.1309721248,41.601379284,27,5,15.142,75.193636592548,21.32546,13.869028,31.5261821112,0,0,0,278.2, 1.5, 2.5,0,0,826,1455,1024,1024,-30,65,0,0,266.8,0,0,55,3.775,3.783,3.782,3.782,0,0,7.679,74.48,75.193636592548,21.32546,6,P-GPS,
15900,2023-05-30 18:15:56,52.2063773611147,0.0865787760718912,21.32546,21.4238852,53.769751392548,75.193636592548,19.68504,0,31.0586952196,41.6830722,27,5,15.142,75.193636592548,21.32546,13.869028,31.5261821112,0,0,0,278.3, -0.3, 3.3,0,0,797,1612,1024,1024,-34,89,0,0,266.8,0,0,55,3.775,3.783,3.782,3.782,0,0,7.679,74.48,75.193636592548,21.32546,6,P-GPS,
16100,2023-05-30 18:15:56,52.2063774210745,0.0865789510396349,21.32546,21.4238852,53.769751392548,75.193636592548,20.013124,0.223694,31.0153881316,41.727691624,27,5,15.142,75.193636592548,21.32546,13.869028,31.5261821112,0.223694,0,0,278.5, 3.2, 10.3,0,0,832,1652,1024,1024,-29,95,0,0,266.8,0,0,55,3.775,3.783,3.782,3.782,0,0,7.679,74.48,75.193636592548,21.32546,6,P-GPS,
16300,2023-05-30 18:15:56,52.2063779313778,0.08657930251287,21.32546,21.4238852,53.769751392548,75.193636592548,19.68504,0.9171454,30.893701776,41.929791368,27,5,15.142,75.193636592548,21.32546,13.869028,31.5261821112,0.894776,0.223694,0,278.2, 4.4, 14.2,0,0,832,1651,1024,1024,-29,95,0,0,266.8,0,0,55,3.775,3.783,3.782,3.782,0,0,7.679,74.48,75.193636592548,21.32546,6,P-GPS,
16500,2023-05-30 18:15:57,52.206379232748,0.086580033670023,21.32546,21.4238852,53.769751392548,75.193636592548,19.68504,2.0579848,30.6232293264,42.432087972,27,5,15.142,75.193636592548,21.32546,13.869028,31.5261821112,2.013246,0.447388,0,277.9, 4.5, 21.3,0,0,835,1644,1024,1024,-29,94,0,0,266.8,0,0,55,3.775,3.783,3.782,3.782,0,0,7.679,74.48,75.193636592548,21.32546,6,P-GPS,
16700,2023-05-30 18:15:57,52.2063815588926,0.0865811119807377,21.32546,21.4238852,53.769751392548,75.193636592548,19.68504,3.690951,30.204561334,43.314305848,27,5,15.126,75.193636592548,21.32546,13.869028,31.5261821112,3.579104,0.894776,0,278.1, 5.7, 26.5,0,0,836,1638,1024,1024,-28,93,0,0,266.8,0,0,55,3.768,3.775,3.774,3.77,0,0,7.96,74.48,75.193636592548,21.32546,6,P-GPS,
16900,2023-05-30 18:15:57,52.2063853130755,0.0865827755582753,21.32546,21.4238852,53.769751392548,75.193636592548,19.68504,5.3239172,29.5888788996,44.733597232,27,5,15.126,75.193636592548,21.32546,13.869028,31.5261821112,5.144962,1.342164,0,277.2, 5.5, 27.5,0,0,840,1631,1024,1024,-28,92,0,0,266.8,0,0,55,3.768,3.775,3.774,3.77,0,0,7.96,74.48,75.193636592548,21.32546,6,P-GPS,
17100,2023-05-30 18:15:57,52.2063904626784,0.0865850357400311,21.653544,21.7519692,53.769751392548,75.521720592548,19.68504,7.158208,28.8415691644,46.679135352,27,5,15.126,75.521720592548,21.653544,13.869028,31.5261821112,6.934514,1.789552,0,277.3, 5.1, 26.8,0,0,882,1600,1024,1024,-22,87,0,0,266.8,0,0,55,3.768,3.775,3.774,3.77,0,0,7.96,74.48,75.521720592548,21.653544,6,P-GPS,
17300,2023-05-30 18:15:57,52.2063969212417,0.0865878474140757,21.653544,21.653544,53.868176592548,75.521720592548,19.68504,8.7911742,28.0724746516,49.118111808,27,5,15.126,75.521720592548,21.653544,13.869028,31.5261821112,8.500372,2.23694,0,276.1, 1.8, 26.5,0,0,1024,1037,1024,1024,0,2,0,0,266.8,0,0,55,3.768,3.775,3.774,3.77,0,0,7.96,74.48,75.521720592548,21.653544,6,P-GPS,
17500,2023-05-30 18:15:58,52.2064045547099,0.0865908728770068,21.981628,21.8832028,53.966601792548,75.849804592548,19.356956,10.0885994,27.4828420868,51.983925548,27,5,15.126,75.849804592548,21.981628,13.869028,31.5261821112,9.842536,2.23694,0,276.7, 0.2, 20,0,0,1024,826,1024,1024,0,-30,0,0,266.8,0,0,55,3.768,3.775,3.774,3.77,0,0,7.96,74.48,75.849804592548,21.981628,6,P-GPS,
17700,2023-05-30 18:15:58,52.206412827848,0.0865937310329744,22.309712,22.1128616,54.065026992548,76.177888592548,19.68504,9.9991218,27.2650271192,55.069555568,27,5,15.083,76.177888592548,22.309712,13.869028,31.5261821112,9.842536,1.789552,-0.447388,280.4, -5.4, -17.7,0,0,1024,690,1024,1024,0,-51,0,0,266.8,0,0,55,3.71,3.769,3.777,3.778,0,0,8.271,74.48,76.177888592548,22.309712,6,P-GPS,
17900,2023-05-30 18:15:58,52.2064198725907,0.0865956403775635,22.309712,22.0472448,54.130643792548,76.177888592548,19.68504,7.4713796,27.4662738448,57.674870612,27,5,15.083,76.177888592548,22.309712,13.869028,31.5261821112,7.381902,1.11847,-0.223694,278.6, 0, -30.4,0,0,1024,504,1024,1024,0,-79,0,0,266.8,0,0,55,3.71,3.769,3.777,3.778,0,0,8.271,74.48,76.177888592548,22.309712,6,P-GPS,
18100,2023-05-30 18:15:58,52.2064247407211,0.0865968398348479,22.637796,22.309712,54.196260592548,76.505972592548,19.356956,4.7423128,27.7729339596,59.471130512,27,5,15.083,76.505972592548,22.637796,13.869028,31.5261821112,4.697574,0.671082,0,281, -0.1, -30.7,0,0,1024,458,1024,1024,0,-86,0,0,266.8,0,0,55,3.71,3.769,3.777,3.778,0,0,8.271,74.48,76.505972592548,22.637796,6,P-GPS,
18300,2023-05-30 18:15:58,52.2064274389118,0.0865972513781049,22.309712,21.9488196,54.229068992548,76.177888592548,19.028872,2.013246,28.0436032596,60.459975688,27,5,15.083,76.505972592548,22.637796,13.869028,31.5261821112,2.013246,0,0.223694,280.3, 1.4, -31.3,0,0,1024,463,1024,1024,0,-85,0,0,266.8,0,0,55,3.71,3.769,3.777,3.778,0,0,8.271,74.48,76.177888592548,22.309712,6,P-GPS,
18500,2023-05-30 18:15:59,52.2064277478434,0.0865969833626382,22.309712,21.9488196,54.229068992548,76.177888592548,18.700788,0.7158208,28.1417659924,60.587600364,27,5,15.083,76.505972592548,22.637796,13.869028,31.5261821112,-0.671082,-0.223694,0.223694,278.2, 5.2, -26.3,0,0,1024,467,1024,1024,0,-84,0,0,266.8,0,0,55,3.71,3.769,3.777,3.778,0,0,8.271,74.48,76.177888592548,22.309712,6,P-GPS,
18700,2023-05-30 18:15:59,52.2064259475168,0.0865965707219885,21.981628,21.653544,54.196260592548,75.849804592548,18.700788,2.908022,27.9845153312,61.250986212,27,5,15.026,76.505972592548,22.637796,13.869028,31.5261821112,-2.908022,-0.223694,0,280.4, 2.6, -16.3,0,0,1024,483,1024,1024,0,-82,0,0,266.8,0,0,55,3.739,3.752,3.755,3.756,0,0,9.061,74.48,75.849804592548,21.981628,6,P-GPS,
18900,2023-05-30 18:15:59,52.2064227711316,0.086596041736736,21.981628,21.6863524,54.163452192548,75.849804592548,18.700788,4.0488614,27.701444456,62.415684412,27,5,15.026,76.505972592548,22.637796,13.869028,31.5261821112,-4.026492,-0.447388,0,278.9, 0.1, -13.2,0,0,1024,1024,1024,1024,0,0,0,0,266.8,0,0,55,3.739,3.752,3.755,3.756,0,0,9.061,74.48,75.849804592548,21.981628,6,P-GPS,
19100,2023-05-30 18:15:59,52.2064187216813,0.0865953085385722,21.981628,21.7191608,54.130643792548,75.849804592548,18.700788,4.9436374,27.4208670192,63.902233016,27,5,15.026,76.505972592548,22.637796,13.869028,31.5261821112,-4.921268,-0.447388,0,278.4, -0.4, -1.9,0,0,1024,1024,1024,1024,0,0,0,0,266.8,0,0,55,3.739,3.752,3.755,3.756,0,0,9.061,74.48,75.849804592548,21.981628,6,P-GPS,
19300,2023-05-30 18:15:59,52.2064145248544,0.0865944990890855,21.981628,21.7847776,54.065026992548,75.849804592548,19.028872,4.2725554,27.2236557268,65.444227816,27,5,15.026,76.505972592548,22.637796,13.869028,31.5261821112,-4.250186,-0.447388,0,277.7, 0.3, 28,0,0,1024,1024,1591,1024,0,0,86,0,266.8,0,0,55,3.739,3.752,3.755,3.756,0,0,9.061,74.48,75.849804592548,21.981628,6,P-GPS,
19500,2023-05-30 18:16:00,52.2064118165638,0.0865939965670752,21.653544,21.489502,54.032218592548,75.521720592548,19.028872,2.0356154,27.137796144,66.43865042,27,5,15.026,76.505972592548,22.637796,13.869028,31.5261821112,-2.013246,-0.223694,0,276.8, 0.2, 26.8,0,0,1024,1024,1682,1024,0,0,100,0,266.8,0,0,55,3.739,3.752,3.755,3.756,0,0,9.061,74.48,75.521720592548,21.653544,6,P-GPS,
19700,2023-05-30 18:16:00,52.2064110640733,0.086593861287205,21.981628,21.817586,54.032218592548,75.849804592548,19.356956,0,27.11942344,66.714897148,27,5,15.098,76.505972592548,22.637796,13.869028,31.5261821112,0,0,-1.565858,278.1, 0.7, 9.6,0,0,1024,1024,1631,1024,0,0,92,0,266.8,0,0,55,3.698,3.705,3.709,3.714,0,0,8.388,74.66,75.849804592548,21.981628,6,P-GPS,
19900,2023-05-30 18:16:00,52.2064111289002,0.0865939492114319,22.637796,22.473754,54.032218592548,76.505972592548,20.341208,0.223694,27.1040691088,66.745737044,27,5,15.098,76.505972592548,22.637796,13.869028,31.5261821112,0.223694,0,-4.026492,279.3, 0.4, 2,0,0,1024,1024,1607,1024,0,0,88,0,266.8,0,0,55,3.698,3.705,3.709,3.714,0,0,8.388,74.66,76.505972592548,22.637796,6,P-GPS,
20100,2023-05-30 18:16:00,52.20641127492,0.0865940862946609,24.278216,24.114174,54.032218592548,78.146392592548,22.309712,0,27.0830717328,66.807088752,27,5,15.098,78.146392592548,24.278216,13.869028,31.5261821112,0,0,-6.487126,278.5, 0.4, 1.8,0,0,1024,1024,1594,1024,0,0,86,0,266.8,0,0,55,3.698,3.705,3.709,3.714,0,0,8.388,74.66,78.146392592548,24.278216,6,P-GPS,
20300,2023-05-30 18:16:00,52.2064114065046,0.0865942998948238,26.574804,26.410762,54.032218592548,80.442980592548,24.6063,0,27.0444234376,66.874674056,27,5,15.098,80.442980592548,26.574804,13.869028,31.5261821112,0,0,-8.500372,278.9, 1, 1.5,0,0,1024,1024,1024,1024,0,0,0,0,266.8,0,0,55,3.698,3.705,3.709,3.714,0,0,8.388,74.66,80.442980592548,26.574804,6,P-GPS,
20500,2023-05-30 18:16:01,52.2064115155133,0.0865945743548518,28.871392,28.70735,54.032218592548,82.739568592548,27.230972,0,26.9910441708,66.947836788,27,5,15.098,82.739568592548,28.871392,13.869028,31.5261821112,0,0,-8.276678,278.5, -1.2, 1.8,0,0,1024,1024,1024,1024,0,0,0,0,266.8,0,0,55,3.698,3.705,3.709,3.714,0,0,8.388,74.66,82.739568592548,28.871392,6,P-GPS,
20700,2023-05-30 18:16:01,52.2064115869565,0.0865947293877918,30.839896,30.675854,54.032218592548,84.708072592548,29.855644,0,26.9615822276,66.991143876,27,5,15.098,84.708072592548,30.839896,13.869028,31.5261821112,0,0,-6.263432,278.6, -1.2, 0.9,0,0,1024,1024,1024,1024,0,0,0,0,266.8,0,0,55,3.698,3.705,3.709,3.714,0,0,8.388,74.66,84.708072592548,30.839896,6,P-GPS,
20900,2023-05-30 18:16:01,52.2064116033975,0.0865947764987934,32.480316,32.316274,54.032218592548,86.348492592548,31.496064,0,26.952264642,67.003282984,27,5,14.75,86.348492592548,32.480316,13.869028,31.5261821112,0,0,-4.026492,278.7, -1.1, 0,0,0,1024,1024,1024,1024,0,0,0,0,266.8,0,0,54,3.683,3.726,3.77,3.776,0,0,13.455,74.66,86.348492592548,32.480316,6,P-GPS,
21100,2023-05-30 18:16:01,52.2064115361531,0.0865947727313113,33.136484,32.972442,54.032218592548,87.004660592548,32.480316,0,26.9487213348,67.027889284,27,5,14.75,87.004660592548,33.136484,13.869028,31.5261821112,0,0,-1.789552,278.4, -0.7, 0.7,0,0,1024,1024,1024,1024,0,0,0,0,266.8,0,0,54,3.683,3.726,3.77,3.776,0,0,13.455,74.66,87.004660592548,33.136484,6,P-GPS,
21300,2023-05-30 18:16:01,52.2064113376684,0.0865947490290254,33.464568,33.300526,54.032218592548,87.332744592548,32.8084,0.223694,26.9411754028,67.100395848,27,5,14.75,87.332744592548,33.464568,13.869028,31.5261821112,-0.223694,0,-0.223694,278.3, 0.2, 1,0,0,1024,1024,1024,1024,0,0,0,0,266.8,0,0,54,3.683,3.726,3.77,3.776,0,0,13.455,74.66,87.332744592548,33.464568,6,P-GPS,
21500,2023-05-30 18:16:02,52.2064110232107,0.0865947359441894,33.464568,33.300526,54.032218592548,87.332744592548,32.8084,0.223694,26.9241806516,67.215225248,27,5,14.75,87.332744592548,33.464568,13.869028,31.5261821112,-0.223694,0,0,278.4, 0.2, 2.7,0,0,1024,1024,1024,1024,0,0,0,0,266.8,-1.2,0,54,3.683,3.726,3.77,3.776,0,0,13.455,74.66,87.332744592548,33.464568,6,P-GPS,
21700,2023-05-30 18:16:02,52.2064106527692,0.0865948015011752,33.464568,33.300526,54.032218592548,87.332744592548,32.8084,0.223694,26.8869103092,67.351380108,27,5,14.75,87.332744592548,33.464568,13.869028,31.5261821112,-0.223694,0,0,278.3, -1, 5.7,0,0,1024,1024,1024,1024,0,0,0,0,266.8,-3.7,0,54,3.683,3.726,3.77,3.776,0,0,13.455,74.66,87.332744592548,33.464568,6,P-GPS,
21900,2023-05-30 18:16:02,52.2064103916223,0.0865948749635827,33.464568,33.300526,54.032218592548,87.332744592548,32.8084,0,26.8550205444,67.447836804,27,5,15.266,87.332744592548,33.464568,13.869028,31.5261821112,0,0,0,278.7, -0.5, 5.9,0,0,1024,1024,1024,1024,0,0,0,0,266.8,-6.6,0,54,3.784,3.788,3.784,3.78,0,0,5.069,74.84,87.332744592548,33.464568,6,P-GPS,
22100,2023-05-30 18:16:02,52.2064102780813,0.0865949338243757,33.464568,33.300526,54.032218592548,87.332744592548,32.8084,0,26.8353355044,67.491471976,27,5,15.266,87.332744592548,33.464568,13.869028,31.5261821112,0,0,0,278.7, -0.4, 4.9,0,0,1024,1024,1024,1024,0,0,0,0,266.8,-9.5,0,54,3.784,3.788,3.784,3.78,0,0,5.069,74.84,87.332744592548,33.464568,6,P-GPS,
22300,2023-05-30 18:16:02,52.2064102634184,0.0865949687382411,33.464568,33.300526,54.032218592548,87.332744592548,32.8084,0,26.826772512,67.500986412,27,5,15.266,87.332744592548,33.464568,13.869028,31.5261821112,0,0,0,278.1, -0.7, 3.6,0,0,1024,1024,1024,1024,0,0,0,0,266.8,-12.4,0,54,3.784,3.788,3.784,3.78,0,0,5.069,74.84,87.332744592548,33.464568,6,P-GPS,
22500,2023-05-30 18:16:03,52.2064102949019,0.0865948781648941,33.464568,33.300526,54.032218592548,87.332744592548,32.8084,0,26.848590098,67.524280376,27,5,15.266,87.332744592548,33.464568,13.869028,31.5261821112,0,0,0,278.1, 0.4, 3.2,0,0,1024,1024,1024,1024,0,0,0,0,266.8,-15.4,0,54,3.784,3.788,3.784,3.78,0,0,5.069,74.84,87.332744592548,33.464568,6,P-GPS,
22700,2023-05-30 18:16:03,52.2064103072709,0.0865946786910419,33.464568,33.300526,54.032218592548,87.332744592548,32.8084,0,26.8933407556,67.5688998,27,5,15.266,87.332744592548,33.464568,13.869028,31.5261821112,0,0,0,278.2, 2.7, 3.1,0,0,1024,1024,1024,1024,0,0,0,0,266.8,-18.3,0,54,3.784,3.788,3.784,3.78,0,0,5.069,74.84,87.332744592548,33.464568,6,P-GPS,
22900,2023-05-30 18:16:03,52.2064102760675,0.0865945717476703,33.136484,32.972442,54.032218592548,87.004660592548,32.8084,0,26.9150927248,67.595474604,27,5,15.266,87.332744592548,33.464568,13.869028,31.5261821112,0,0,0,278.3, 1.2, 3.1,0,0,1024,1024,1024,1024,0,0,0,0,266.8,-21.2,0,54,3.784,3.788,3.784,3.78,0,0,5.069,74.84,87.004660592548,33.136484,6,P-GPS,
23100,2023-05-30 18:16:03,52.2064102135708,0.0865945804988534,33.136484,32.972442,54.032218592548,87.004660592548,32.8084,0,26.9095152968,67.618440484,27,5,15.266,87.332744592548,33.464568,13.869028,31.5261821112,0,0,0,278.1, 0.8, 4.3,0,0,1024,1024,1024,1024,0,0,0,0,266.8,-24.1,0,54,3.784,3.788,3.784,3.78,0,0,5.069,74.84,87.004660592548,33.136484,6,P-GPS,
23300,2023-05-30 18:16:03,52.2064101795355,0.0865946486001128,33.136484,32.972442,54.032218592548,87.004660592548,32.8084,0,26.8924877372,67.638125524,27,5,15.266,87.332744592548,33.464568,13.869028,31.5261821112,0,0,0,278.1, -0.9, 3.8,0,0,1024,1024,1024,1024,0,0,0,0,266.8,-27,0,54,3.784,3.788,3.784,3.78,0,0,5.069,74.84,87.004660592548,33.136484,6,P-GPS,
23500,2023-05-30 18:16:04,52.2064101464227,0.0865945753054596,33.136484,32.972442,54.032218592548,87.004660592548,32.8084,0,26.9067265828,67.658466732,27,5,15.266,87.332744592548,33.464568,13.869028,31.5261821112,0,0,0,278.4, -0.3, 4.2,0,0,1024,1024,1024,1024,0,0,0,0,266.8,-29.9,0,54,3.784,3.788,3.784,3.78,0,0,5.069,74.84,87.004660592548,33.136484,6,P-GPS,
23700,2023-05-30 18:16:04,52.206410104311,0.086594342539367,33.136484,32.972442,54.032218592548,87.004660592548,32.8084,0,26.9556767156,67.712600592,27,5,15.082,87.332744592548,33.464568,13.869028,31.5261821112,0,0,0,278.5, 1.6, 4.7,0,0,1024,1024,1024,1024,0,0,0,0,266.8,-32.9,0,54,3.765,3.773,3.773,3.772,0,0,8.005,75.02,87.004660592548,33.136484,6,P-GPS,
23900,2023-05-30 18:16:04,52.2064100900942,0.0865941492025266,33.136484,32.972442,54.032218592548,87.004660592548,32.8084,0,26.997540234,67.756235764,27,5,15.082,87.332744592548,33.464568,13.869028,31.5261821112,0,0,0,278.5, 1.5, 5.3,0,0,1024,1024,1024,1024,0,0,0,0,266.8,-35.8,0,54,3.765,3.773,3.773,3.772,0,0,8.005,75.02,87.004660592548,33.136484,6,P-GPS,
24100,2023-05-30 18:16:04,52.2064101490367,0.08659400880615,33.136484,32.972442,54.032218592548,87.004660592548,32.8084,0,27.0319562456,67.794293508,27,5,15.082,87.332744592548,33.464568,13.869028,31.5261821112,0,0,0,278.5, 2, 5.2,0,0,1024,1024,1024,1024,0,0,0,0,266.8,-38.7,0,54,3.765,3.773,3.773,3.772,0,0,8.005,75.02,87.004660592548,33.136484,6,P-GPS,
24300,2023-05-30 18:16:04,52.2064102835935,0.0865939111172244,33.136484,32.972442,54.032218592548,87.004660592548,32.8084,0,27.0613197636,67.848099284,27,5,15.082,87.332744592548,33.464568,13.869028,31.5261821112,0,0,0,278.5, 2.1, 3.8,0,0,1024,1024,1024,1024,0,0,0,0,266.8,-41.6,0,54,3.765,3.773,3.773,3.772,0,0,8.005,75.02,87.004660592548,33.136484,6,P-GPS,
24500,2023-05-30 18:16:05,52.2064104116732,0.0865938269045616,33.136484,32.972442,54.032218592548,87.004660592548,32.8084,0,27.08743525,67.898296136,27,5,15.082,87.332744592548,33.464568,13.869028,31.5261821112,0,0,0,278.8, 2.4, 3.5,0,0,1024,1024,1024,1024,0,0,0,0,266.8,-44.5,0,54,3.765,3.773,3.773,3.772,0,0,8.005,75.02,87.004660592548,33.136484,6,P-GPS,
24700,2023-05-30 18:16:05,52.2064104604393,0.0865938051803787,33.464568,33.300526,54.032218592548,87.332744592548,32.8084,0,27.0951124156,67.91666884,27,5,15.08,87.332744592548,33.464568,13.869028,31.5261821112,0,0,0,278.5, 1.5, 3.5,0,0,1024,1024,1024,1024,0,0,0,0,266.8,-47.4,0,54,3.763,3.772,3.772,3.77,0,0,7.931,75.02,87.332744592548,33.464568,6,P-GPS,
24900,2023-05-30 18:16:05,52.2064104429403,0.0865937953667516,33.464568,33.300526,54.032218592548,87.332744592548,32.480316,0,27.0962607096,67.923558604,27,5,15.08,87.332744592548,33.464568,13.869028,31.5261821112,0,0,0,278.4, 1.5, 4.7,0,0,1024,1024,1024,1024,0,0,0,0,266.8,-50.3,0,54,3.763,3.772,3.772,3.77,0,0,7.931,75.02,87.332744592548,33.464568,6,P-GPS,
25100,2023-05-30 18:16:05,52.2064104030115,0.0865938039501804,33.464568,33.300526,54.032218592548,87.332744592548,32.480316,0,27.0919956176,67.938322384,27,5,15.08,87.332744592548,33.464568,13.869028,31.5261821112,0,0,0,278.4, 0.6, 4.9,0,0,1024,1024,1024,1024,0,0,0,0,266.8,-53.3,0,54,3.763,3.772,3.772,3.77,0,0,7.931,75.02,87.332744592548,33.464568,6,P-GPS,
25300,2023-05-30 18:16:05,52.2064103595157,0.0865937249658602,33.464568,33.300526,54.032218592548,87.332744592548,32.480316,0,27.1068578228,67.961944432,27,5,15.08,87.332744592548,33.464568,13.869028,31.5261821112,0,0,0,278.4, 1.1, 5.8,0,0,1024,1024,1024,1024,0,0,0,0,266.8,-56.2,0,54,3.763,3.772,3.772,3.77,0,0,7.931,75.02,87.332744592548,33.464568,6,P-GPS,
25500,2023-05-30 18:16:06,52.2064103175988,0.0865935864846786,33.464568,33.300526,54.032218592548,87.332744592548,32.8084,0,27.1349746216,67.996393252,27,5,15.08,87.332744592548,33.464568,13.869028,31.5261821112,0,0,0,278.6, 1.9, 6,0,0,1024,1024,1024,1024,0,0,0,0,266.8,-59.1,0,54,3.763,3.772,3.772,3.77,0,0,7.931,75.02,87.332744592548,33.464568,6,P-GPS,
25700,2023-05-30 18:16:06,52.2064103207884,0.0865935257156804,33.464568,33.300526,54.032218592548,87.332744592548,32.8084,0,27.1485572992,68.01017278,27,5,15.066,87.332744592548,33.464568,13.869028,31.5261821112,0,0,0,278.6, 1.3, 5.9,0,0,1024,1024,1024,1024,0,0,0,0,266.8,-62,0,54,3.762,3.77,3.768,3.767,0,0,7.968,75.02,87.332744592548,33.464568,6,P-GPS,
25900,2023-05-30 18:16:06,52.206410376937,0.0865935505013795,33.464568,33.300526,54.032218592548,87.332744592548,29.855644,0,27.1463919448,68.03149824,27,5,15.066,87.332744592548,33.464568,13.869028,31.5261821112,0,0,0,278.4, 1, 5.3,0,0,1024,1024,1024,1024,0,0,0,0,266.8,-64.9,0,54,3.762,3.77,3.768,3.767,0,0,7.968,75.02,87.332744592548,33.464568,6,P-GPS,
26100,2023-05-30 18:16:06,52.206410444862,0.0865936206785985,33.464568,33.300526,54.032218592548,87.332744592548,29.855644,0,27.1349090048,68.060697716,27,5,15.066,87.332744592548,33.464568,13.869028,31.5261821112,0,0,0,278.4, 0.3, 5.1,0,0,1024,1024,1024,1024,0,0,0,0,266.8,-67.8,0,54,3.762,3.77,3.768,3.767,0,0,7.968,75.02,87.332744592548,33.464568,6,P-GPS,
26300,2023-05-30 18:16:06,52.2064105028712,0.0865936940151903,33.464568,33.300526,54.032218592548,87.332744592548,29.855644,0,27.1221793456,68.087600604,27,5,15.066,87.332744592548,33.464568,13.869028,31.5261821112,0,0,0,278.4, -0.2, 4.9,0,0,1024,1024,1024,1024,0,0,0,0,266.8,-70.7,0,54,3.762,3.77,3.768,3.767,0,0,7.968,75.02,87.332744592548,33.464568,6,P-GPS,
26500,2023-05-30 18:16:07,52.2064105373579,0.0865936833767712,33.792652,33.62861,54.032218592548,87.660828592548,29.855644,0,27.1265756712,68.10039588,27,5,15.066,87.660828592548,33.792652,13.869028,31.5261821112,0,0,0,278.3, 0.2, 5.5,0,0,1024,1024,1024,1024,0,0,0,0,266.8,-73.6,0,54,3.762,3.77,3.768,3.767,0,0,7.968,75.02,87.660828592548,33.792652,6,P-GPS,
26700,2023-05-30 18:16:07,52.2064105293441,0.0865935660745711,33.792652,33.62861,54.032218592548,87.660828592548,30.183728,0,27.1519693728,68.1266426,27,5,15.074,87.660828592548,33.792652,13.869028,31.5261821112,0,0,0,278.3, 1, 6.4,0,0,1024,1024,1024,1024,0,0,0,0,266.8,-76.6,0,54,3.765,3.772,3.772,3.77,0,0,7.804,75.2,87.660828592548,33.792652,6,P-GPS,
26900,2023-05-30 18:16:07,52.2064105463424,0.086593384578389,33.792652,33.62861,54.032218592548,87.660828592548,30.183728,0,27.1930126812,68.1676531,27,5,15.074,87.660828592548,33.792652,13.869028,31.5261821112,0,0,0,278.6, 2.4, 6.2,0,0,1024,1024,1024,1024,0,0,0,0,266.8,-79.5,0,54,3.765,3.772,3.772,3.77,0,0,7.804,75.2,87.660828592548,33.792652,6,P-GPS,
27100,2023-05-30 18:16:07,52.2064105649508,0.0865932561065478,33.792652,33.62861,54.032218592548,87.660828592548,30.183728,0,27.222441816,68.19718066,27,5,15.074,87.660828592548,33.792652,13.869028,31.5261821112,0,0,0,278.5, 2, 6.4,0,0,1024,1024,1024,1024,0,0,0,0,266.8,-82.4,0,54,3.765,3.772,3.772,3.77,0,0,7.804,75.2,87.660828592548,33.792652,6,P-GPS,
27300,2023-05-30 18:16:07,52.206410575206,0.0865931914512415,33.792652,33.62861,54.032218592548,87.660828592548,29.855644,0,27.2373368296,68.212272524,27,5,15.074,87.660828592548,33.792652,13.869028,31.5261821112,0,0,0,278.7, 2.2, 6.7,0,0,1024,1024,1024,1024,0,0,0,0,266.8,-85.3,0,54,3.765,3.772,3.772,3.77,0,0,7.804,75.2,87.660828592548,33.792652,6,P-GPS,
27500,2023-05-30 18:16:08,52.2064105876703,0.0865932294336128,33.792652,33.62861,54.032218592548,87.660828592548,29.855644,0,27.2296924724,68.22178696,27,5,15.074,87.660828592548,33.792652,13.869028,31.5261821112,0,0,0,278.5, 1.3, 6.9,0,0,1024,1024,1024,1024,0,0,0,0,266.8,-88.2,0,54,3.765,3.772,3.772,3.77,0,0,7.804,75.2,87.660828592548,33.792652,6,P-GPS,
27700,2023-05-30 18:16:08,52.2064106084295,0.0865933175325837,33.792652,33.62861,54.032218592548,87.660828592548,29.855644,0,27.2114838104,68.242784336,27,5,15.075,87.660828592548,33.792652,13.869028,31.5261821112,0,0,0,278.4, 0.8, 7.1,0,0,1024,1024,1024,1024,0,0,0,0,266.8,-89.9,0,54,3.759,3.767,3.763,3.763,0,0,7.823,75.2,87.660828592548,33.792652,6,P-GPS,
27900,2023-05-30 18:16:08,52.2064106117385,0.0865933485531512,33.792652,33.62861,54.032218592548,87.660828592548,29.855644,0,27.2048565136,68.250002184,27,5,15.075,87.660828592548,33.792652,13.869028,31.5261821112,0,0,0,278.5, 0.8, 7.1,0,0,1024,1024,1024,1024,0,0,0,0,266.8,-89.9,0,54,3.759,3.767,3.763,3.763,0,0,7.823,75.2,87.660828592548,33.792652,6,P-GPS,
28100,2023-05-30 18:16:08,52.20641061093,0.0865933110181248,33.792652,33.62861,54.032218592548,87.660828592548,29.855644,0,27.213091422,68.258204284,27,5,15.075,87.660828592548,33.792652,13.869028,31.5261821112,0,0,0,278.5, 1.4, 7.7,0,0,1024,1024,1024,1024,0,0,0,0,266.8,-90,0,54,3.759,3.767,3.763,3.763,0,0,7.823,75.2,87.660828592548,33.792652,6,P-GPS,
28300,2023-05-30 18:16:08,52.2064106012023,0.0865932388977517,33.792652,33.62861,54.032218592548,87.660828592548,29.855644,0,27.2284129448,68.274936568,27,5,15.075,87.660828592548,33.792652,13.869028,31.5261821112,0,0,0,278.6, 2.1, 8,0,0,1024,1024,1024,1024,0,0,0,0,266.8,-89.9,0,54,3.759,3.767,3.763,3.763,0,0,7.823,75.2,87.660828592548,33.792652,6,P-GPS,
28500,2023-05-30 18:16:09,52.2064106144965,0.0865932067168835,33.792652,33.62861,54.032218592548,87.660828592548,29.855644,0,27.2363197692,68.283466752,27,5,15.075,87.660828592548,33.792652,13.869028,31.5261821112,0,0,0,278.5, 1.7, 8.6,0,0,1024,1024,1024,1024,0,0,0,0,266.8,-89.9,0,54,3.759,3.767,3.763,3.763,0,0,7.823,75.2,87.660828592548,33.792652,6,P-GPS,
28700,2023-05-30 18:16:09,52.2064107155561,0.0865931919125658,34.120736,33.956694,54.032218592548,87.988912592548,29.855644,0,27.2456373548,68.320540244,27,5,15.053,87.988912592548,34.120736,13.869028,31.5261821112,0,0,0,278.4, 1.8, 7.1,0,0,1024,1024,1024,1024,0,0,0,0,266.8,-90,0,54,3.761,3.768,3.767,3.763,0,0,7.888,75.2,87.988912592548,34.120736,6,P-GPS,
28900,2023-05-30 18:16:09,52.2064108844855,0.0865931332964146,34.120736,33.956694,54.032218592548,87.988912592548,29.855644,0,27.2687672768,68.383532372,27,5,15.053,87.988912592548,34.120736,13.869028,31.5261821112,0,0,0,278.7, 2.5, 6.7,0,0,1024,1024,1024,1024,0,0,0,0,266.8,-90,0,54,3.761,3.768,3.767,3.763,0,0,7.888,75.2,87.988912592548,34.120736,6,P-GPS,
29100,2023-05-30 18:16:09,52.206411055833,0.0865930875554065,34.120736,33.956694,54.032218592548,87.988912592548,29.855644,0,27.289370952,68.446852584,27,5,15.053,87.988912592548,34.120736,13.869028,31.5261821112,0,0,0,278.8, 2.3, 6.3,0,0,1024,1024,1024,1024,0,0,0,0,266.8,-89.9,0,54,3.761,3.768,3.767,3.763,0,0,7.888,75.2,87.988912592548,34.120736,6,P-GPS,
29300,2023-05-30 18:16:09,52.2064112118531,0.0865931193168889,34.120736,33.956694,54.032218592548,87.988912592548,29.855644,0,27.2920612408,68.504267284,27,5,15.053,87.988912592548,34.120736,13.869028,31.5261821112,0,0,0,278.5, 2.3, 6.2,0,0,1024,1024,1024,1024,0,0,0,0,266.8,-90,0,54,3.761,3.768,3.767,3.763,0,0,7.888,75.2,87.988912592548,34.120736,6,P-GPS,
29500,2023-05-30 18:16:10,52.2064113350427,0.0865931981753933,34.120736,33.956694,54.032218592548,87.988912592548,29.855644,0,27.2824483796,68.552495632,27,5,15.053,87.988912592548,34.120736,13.869028,31.5261821112,0,0,0,278.5, 1.7, 5.8,0,0,1024,1024,1024,1024,0,0,0,0,266.8,-89.9,0,54,3.761,3.768,3.767,3.763,0,0,7.888,75.2,87.988912592548,34.120736,6,P-GPS,
29700,2023-05-30 18:16:10,52.2064114375126,0.0865932308455449,34.120736,33.956694,54.032218592548,87.988912592548,29.855644,0,27.2817594032,68.590553376,27,5,15.053,87.988912592548,34.120736,13.869028,31.5261821112,0,0,0,278.5, 1.6, 5.6,0,0,1024,1511,1024,1024,0,74,0,0,266.8,-89.9,0,54,3.761,3.768,3.767,3.763,0,0,7.888,75.2,87.988912592548,34.120736,6,P-GPS,
29900,2023-05-30 18:16:10,52.2064114946411,0.0865931945407166,34.120736,33.956694,54.032218592548,87.988912592548,30.183728,0,27.2933735768,68.612863088,27,5,15.065,87.988912592548,34.120736,13.869028,31.5261821112,0,0,0,278.5, 0.6, 4.1,0,0,1024,1024,1024,1024,0,0,0,0,266.8,-89.9,0,54,3.762,3.767,3.769,3.765,0,0,7.902,75.2,87.988912592548,34.120736,6,P-GPS,
30100,2023-05-30 18:16:10,52.2064115177402,0.0865929950948235,34.120736,33.956694,54.032218592548,87.988912592548,30.183728,0,27.338747594,68.658466764,27,5,15.065,87.988912592548,34.120736,13.869028,31.5261821112,0,0,0,278.3, 1, 13.4,0,0,1024,1024,1024,1024,0,0,0,0,266.8,-90,0,54,3.762,3.767,3.769,3.765,0,0,7.902,75.2,87.988912592548,34.120736,6,P-GPS,
30300,2023-05-30 18:16:10,52.20641174994,0.0865926878388282,34.120736,33.956694,54.032218592548,87.988912592548,29.855644,0,27.4213263368,68.767390652,27,5,15.065,87.988912592548,34.120736,13.869028,31.5261821112,0,0,0,279.1, 3.2, 0,0,0,1024,1024,1024,364,0,0,0,-100,266.8,-90,0,54,3.762,3.767,3.769,3.765,0,0,7.902,75.2,87.988912592548,34.120736,6,P-GPS,
30500,2023-05-30 18:16:11,52.206411666639,0.0865923454522848,34.120736,33.956694,54.032218592548,87.988912592548,29.855644,0.223694,27.491306654,68.849739736,27,5,15.065,87.988912592548,34.120736,13.869028,31.5261821112,-0.223694,0,0,278.5, 3, 6.4,0,0,1024,1024,1024,364,0,0,0,-100,266,-90,0,54,3.762,3.767,3.769,3.765,0,0,7.902,75.2,87.988912592548,34.120736,6,P-GPS,
30700,2023-05-30 18:16:11,52.2064115448914,0.086592056956813,34.120736,33.956694,54.032218592548,87.988912592548,29.855644,0,27.5470153172,68.928151812,26,5,15.065,87.988912592548,34.120736,13.869028,31.5261821112,0,0,0,275.4, 3.5, 8.5,0,0,1024,1024,1024,1003,0,0,0,-3,258.2,-90,0,54,3.762,3.767,3.769,3.765,0,0,7.902,75.2,87.988912592548,34.120736,6,P-GPS,
30900,2023-05-30 18:16:11,52.2064115318118,0.0865918499479964,34.44882,34.284778,54.032218592548,88.316996592548,29.855644,0,27.5917659748,68.97473974,26,5,14.949,88.316996592548,34.44882,13.869028,31.5261821112,0,0,0,267.8, 2.4, 7.4,0,0,1024,1024,1024,364,0,0,0,-100,256.1,-89.9,0,54,3.753,3.756,3.752,3.747,0,0,8.395,75.2,88.316996592548,34.44882,6,P-GPS,
31100,2023-05-30 18:16:11,52.2064116284386,0.0865916311963783,34.44882,34.284778,54.032218592548,88.316996592548,29.855644,0,27.6460638768,69.035107196,26,5,14.949,88.316996592548,34.44882,13.869028,31.5261821112,0,0,0,265.7, 4.9, 7,0,0,1024,1024,1024,1024,0,0,0,0,246.8,-89.9,0,54,3.753,3.756,3.752,3.747,0,0,8.395,75.2,88.316996592548,34.44882,6,P-GPS,
31300,2023-05-30 18:16:11,52.2064118089767,0.0865914848307442,34.44882,34.284778,54.032218592548,88.316996592548,29.855644,0,27.6898630908,69.108598012,26,5,14.949,88.316996592548,34.44882,13.869028,31.5261821112,0,0,0,255.6, 3, 4,0,0,1024,1024,1024,364,0,0,0,-100,244.9,-89.9,0,54,3.753,3.756,3.752,3.747,0,0,8.395,75.2,88.316996592548,34.44882,6,P-GPS,
31500,2023-05-30 18:16:12,52.2064119689269,0.0865912926122659,34.44882,34.284778,54.032218592548,88.316996592548,29.855644,0,27.7425205728,69.181104576,26,5,14.949,88.316996592548,34.44882,13.869028,31.5261821112,0,0,0,256.5, 4, 4.6,0,0,1024,1024,1024,956,0,0,0,-10,241.8,-90,0,54,3.753,3.756,3.752,3.747,0,0,8.395,75.2,88.316996592548,34.44882,6,P-GPS,
31700,2023-05-30 18:16:12,52.2064121160723,0.086591101707863,34.44882,34.284778,54.032218592548,88.316996592548,29.855644,0,27.794128186,69.249674132,26,5,14.949,88.316996592548,34.44882,13.869028,31.5261821112,0,0,0,249.9, 4.5, 3.1,0,0,1024,1024,1024,1024,0,0,0,0,234.5,-89.9,0,54,3.753,3.756,3.752,3.747,0,0,8.395,75.2,88.316996592548,34.44882,6,P-GPS,
31900,2023-05-30 18:16:12,52.2064122510826,0.0865910216610988,34.44882,34.284778,54.032218592548,88.316996592548,30.183728,0,27.8206373732,69.301839488,26,5,15.038,88.316996592548,34.44882,13.869028,31.5261821112,0,0,0,245, 2.6, 2,0,0,1024,1024,1024,1024,0,0,0,0,234.2,-89.9,0,54,3.765,3.772,3.769,3.768,0,0,8.008,75.38,88.316996592548,34.44882,6,P-GPS,
32100,2023-05-30 18:16:12,52.2064123046087,0.0865909974345808,34.44882,34.284778,54.032218592548,88.316996592548,30.183728,0,27.8295284496,69.322180696,26,5,15.038,88.316996592548,34.44882,13.869028,31.5261821112,0,0,0,245.9, 3.9, 2.3,0,0,1024,1024,1024,1024,0,0,0,0,234.2,-89.9,0,54,3.765,3.772,3.769,3.768,0,0,8.008,75.38,88.316996592548,34.44882,6,P-GPS,
32300,2023-05-30 18:16:12,52.2064123004366,0.0865911194618606,34.44882,34.284778,54.032218592548,88.316996592548,30.183728,0,27.8024287112,69.349739752,26,5,15.038,88.316996592548,34.44882,13.869028,31.5261821112,0,0,0,246, 3.1, 3.2,0,0,1024,1024,1024,1024,0,0,0,0,234.2,-89.9,0,54,3.765,3.772,3.769,3.768,0,0,8.008,75.38,88.316996592548,34.44882,6,P-GPS,
32500,2023-05-30 18:16:13,52.2064122581406,0.0865913371090962,34.120736,33.956694,54.032218592548,87.988912592548,30.183728,0,27.7517725416,69.400592772,26,5,15.038,88.316996592548,34.44882,13.869028,31.5261821112,0,0,0,245.8, 3.1, 4.3,0,0,1024,1024,1024,1024,0,0,0,0,234.2,-90,0,54,3.765,3.772,3.769,3.768,0,0,8.008,75.38,87.988912592548,34.120736,6,P-GPS,
32700,2023-05-30 18:16:13,52.206412189571,0.086591574173893,34.120736,33.956694,54.032218592548,87.988912592548,30.183728,0,27.6950796264,69.459319808,26,5,15.038,88.316996592548,34.44882,13.869028,31.5261821112,0,0,0,246, 3, 4.8,0,0,1024,1024,1024,1024,0,0,0,0,234.2,-89.9,0,54,3.765,3.772,3.769,3.768,0,0,8.008,75.38,87.988912592548,34.120736,6,P-GPS,
