time(millisecond),datetime(utc),latitude,longitude,height_above_takeoff(feet),height_above_ground_at_drone_location(feet),ground_elevation_at_drone_location(feet),altitude_above_seaLevel(feet),height_sonar(feet),speed(mph),distance(feet),mileage(feet),satellites,gpslevel,voltage(v),max_altitude(feet),max_ascent(feet),max_speed(mph),max_distance(feet), xSpeed(mph), ySpeed(mph), zSpeed(mph), compass_heading(degrees), pitch(degrees), roll(degrees),isPhoto,isVideo,rc_elevator,rc_aileron,rc_throttle,rc_rudder,rc_elevator(percent),rc_aileron(percent),rc_throttle(percent),rc_rudder(percent),gimbal_heading(degrees),gimbal_pitch(degrees),gimbal_roll(degrees),battery_percent,voltageCell1,voltageCell2,voltageCell3,voltageCell4,voltageCell5,voltageCell6,current(A),battery_temperature(f),altitude(feet),ascent(feet),flycStateRaw,flycState,message
0,2023-05-28 17:03:30,0,0,0,,,53.498490229012,0,0,0,0,16,2,0,53.498490229012,0,0,0,0,0,0,113.8, 3.2, 0.9,0,0,1024,1024,1024,1024,0,0,0,0,113.6,0,0,100,4.306,4.316,4.318,4.318,0,0,0,76.28,53.498490229012,0,6,P-GPS,"Aircraft not in flight. Vision systems and obstacle avoidance disabled (Code: 180059). No GPS signal. Aircraft unable to hover. Fly with caution (Code: 30008). GPS signal weak. Hovering unstable. Fly with caution (Code: 30002). Aircraft not in flight"
200,2023-05-28 17:03:30,0,0,0,,,53.498490229012,0,0,0,0,16,2,0,53.498490229012,0,0,0,0,0,0,113.8, 3.2, 0.9,0,0,1024,1024,1024,1024,0,0,0,0,113.7,0,0,100,4.306,4.316,4.318,4.318,0,0,0,76.28,53.498490229012,0,41,Motors_Started,
400,2023-05-28 17:03:31,0,0,0,,,53.498490229012,0,0,0,0,16,2,0,53.498490229012,0,0,0,0,0,0,113.8, 3.2, 0.9,0,0,1024,1024,1024,1024,0,0,0,0,113.6,0,0,100,4.306,4.316,4.318,4.318,0,0,0,76.28,53.498490229012,0,41,Motors_Started,
600,2023-05-28 17:03:31,0,0,0,,,53.498490229012,0,0,0,0,16,2,0,53.498490229012,0,0,0,0,0,0,113.8, 3.2, 0.9,0,0,1024,1024,1024,1024,0,0,0,0,113.6,0,0,100,4.306,4.316,4.318,4.318,0,0,0,76.28,53.498490229012,0,41,Motors_Started,"Setting new Return-To-Home altitude to 26m (85 ft). Data Recorder File Index is 23. Setting new Maximum Flight Altitude to 30m (98 ft)"
800,2023-05-28 17:03:31,0,0,0,,,53.498490229012,0,0,0,0,16,2,0,53.498490229012,0,0,0,0,0,0,113.8, 3.2, 0.9,0,0,1024,1024,1024,1024,0,0,0,0,113.6,0,0,100,4.306,4.316,4.318,4.318,0,0,0,76.28,53.498490229012,0,41,Motors_Started,
1000,2023-05-28 17:03:31,0,0,0,,,53.498490229012,0,0,0,0,16,2,0,53.498490229012,0,0,0,0,0,0,113.9, 3.3, 0.9,0,0,1024,1024,1024,1024,0,0,0,0,113.6,0,0,100,4.306,4.316,4.318,4.318,0,0,0,76.28,53.498490229012,0,41,Motors_Started,
1200,2023-05-28 17:03:31,0,0,0,,,53.498490229012,0,0,0,0,16,2,0,53.498490229012,0,0,0,0,0,0,113.9, 3.2, 0.9,0,0,1024,1024,1024,1024,0,0,0,0,113.6,0,0,100,4.306,4.316,4.318,4.318,0,0,0,76.28,53.498490229012,0,41,Motors_Started,
1400,2023-05-28 17:03:32,0,0,0,,,53.498490229012,0,0,0,0,16,2,17.375,53.498490229012,0,0,0,0,0,0,113.9, 3.2, 0.9,0,0,1024,1024,1024,1024,0,0,0,0,113.6,0,0,100,4.306,4.316,4.318,4.318,0,0,1.113,76.28,53.498490229012,0,41,Motors_Started,
1600,2023-05-28 17:03:32,0,0,0,,,53.498490229012,0,0,0,0,16,2,17.375,53.498490229012,0,0,0,0,0,0,113.8, 3.2, 0.9,0,0,1024,1024,1024,1024,0,0,0,0,113.7,0,0,100,4.306,4.316,4.318,4.318,0,0,1.113,76.28,53.498490229012,0,11,AutoTakeoff,
1800,2023-05-28 17:03:32,52.2063636717831,0.08669446397135,0,0,53.498490229012,53.498490229012,0,0,0,0,16,2,17.375,53.498490229012,0,0,0,0,0,0,113.9, 3.2, 0.9,0,0,1024,1024,1024,1024,0,0,0,0,113.7,0,0,100,4.306,4.316,4.318,4.318,0,0,1.113,76.28,53.498490229012,0,11,AutoTakeoff,
2000,2023-05-28 17:03:32,52.2063636914201,0.0866944608235048,0,0,53.498490229012,53.498490229012,0,0,0.0071990487868,0.0071990487868,16,2,17.375,53.498490229012,0,0,0.0071990487868,0,0,0,113.7, 1.9, 0.9,0,0,1024,1024,1024,1024,0,0,0,0,113.7,0,0,100,4.306,4.316,4.318,4.318,0,0,1.113,76.28,53.498490229012,0,11,AutoTakeoff,"No GPS. Fly with caution"
2200,2023-05-28 17:03:32,52.2063636784256,0.0866943870644326,0,0,53.498490229012,53.498490229012,0,0,0.017365322078,0.0243585637716,16,2,17.375,53.498490229012,0,0,0.017365322078,0,0,-0.671082,114.2, -1.5, 0,0,0,1024,1024,1024,1024,0,0,0,0,113.7,0,0,100,4.306,4.316,4.318,4.318,0,0,1.113,76.28,53.498490229012,0,11,AutoTakeoff,"GPS signal weak. Hovering unstable. Fly with caution (Code: 30002)"
2400,2023-05-28 17:03:33,52.2063636194888,0.0866944649132735,0.328084,0.328084,53.498490229012,53.826574229012,0.328084,0,0.0190806764636,0.052023623712,16,2,17.186,53.826574229012,0.328084,0,0.0190806764636,0,0,-0.894776,114.1, 0.8, -0.2,0,0,1024,1024,1024,1024,0,0,0,0,113.7,0,0,100,4.268,4.267,4.267,4.263,0,0,3.819,76.1,53.826574229012,0.328084,11,AutoTakeoff,
2600,2023-05-28 17:03:33,52.2063635871323,0.0866945897587414,0.656168,0.656168,53.498490229012,54.154658229012,0.656168,0,0.041771326796,0.08233103938,16,2,17.186,54.154658229012,0.656168,0,0.041771326796,0,0,-0.894776,114, 1.3, -0.1,0,0,1024,1024,1024,1024,0,0,0,0,113.7,0,0,100,4.268,4.267,4.267,4.263,0,0,3.819,76.1,54.154658229012,0.656168,11,AutoTakeoff,
2800,2023-05-28 17:03:33,52.2063635885946,0.0866946206957061,0.984252,0.984252,53.498490229012,54.482742229012,0.984252,0,0.046358597284,0.089268703644,16,5,17.186,54.482742229012,0.984252,0,0.046358597284,0,0,-0.894776,114.1, 0.9, -0.5,0,0,1024,1024,1024,1024,0,0,0,0,113.7,0,0,100,4.268,4.267,4.267,4.263,0,0,3.819,76.1,54.482742229012,0.984252,11,AutoTakeoff,
3000,2023-05-28 17:03:33,52.2063636359766,0.0866945736639119,1.312336,1.312336,53.498490229012,54.810826229012,1.312336,0,0.0277881570572,0.10950295626,16,5,17.186,54.810826229012,1.312336,0,0.046358597284,0,0,-0.894776,114.2, 0.2, -0.9,0,0,1024,1024,1024,1024,0,0,0,0,113.7,0,0,100,4.268,4.267,4.267,4.263,0,0,3.819,76.1,54.810826229012,1.312336,11,AutoTakeoff,
3200,2023-05-28 17:03:33,52.206363749787,0.0866945584235248,1.64042,1.64042,53.498490229012,55.138910229012,1.64042,0,0.035439305596,0.15116634342,16,5,17.186,55.138910229012,1.64042,0,0.046358597284,0,0,-0.894776,114.2, -0.1, -0.5,0,0,1024,1024,1024,1024,0,0,0,0,113.7,0,0,100,4.268,4.267,4.267,4.263,0,0,3.819,76.1,55.138910229012,1.64042,11,AutoTakeoff,
3400,2023-05-28 17:03:34,52.2063639121362,0.0866945960937492,1.968504,1.968504,53.498490229012,55.466994229012,1.968504,0,0.092534779864,0.210995085492,16,5,17.232,55.466994229012,1.968504,0,0.092534779864,0,0,-1.11847,114.2, -0.3, -0.2,0,0,1024,1024,1024,1024,0,0,0,0,113.7,0,0,100,4.254,4.256,4.255,4.253,0,0,3.462,76.28,55.466994229012,1.968504,11,AutoTakeoff,
3600,2023-05-28 17:03:34,52.206364116929,0.0866946580973165,2.296588,2.296588,53.498490229012,55.795078229012,2.296588,0,0.168110897768,0.286988854328,16,5,17.232,55.795078229012,2.296588,0,0.168110897768,0,0,-1.11847,114.2, -0.2, -0.1,0,0,1024,1024,1024,1024,0,0,0,0,113.7,0,0,100,4.254,4.256,4.255,4.253,0,0,3.462,76.28,55.795078229012,2.296588,11,AutoTakeoff,"Setting new Maximum Flight Altitude to 120m (394 ft)"
3800,2023-05-28 17:03:34,52.2063643044323,0.0866947234993772,2.624672,2.624672,53.498490229012,56.123162229012,2.624672,0,0.23800361654,0.35694554948,16,5,17.232,56.123162229012,2.624672,0,0.23800361654,0,0,-1.11847,114.3, -0.4, -0.1,0,0,1024,1024,1024,1024,0,0,0,0,113.8,0,0,100,4.254,4.256,4.255,4.253,0,0,3.462,76.28,56.123162229012,2.624672,11,AutoTakeoff,
4000,2023-05-28 17:03:34,52.2063644418897,0.0866948131696887,2.952756,2.952756,53.498490229012,56.451246229012,2.952756,0,0.29161910382,0.41095473756,16,5,17.232,56.451246229012,2.952756,0,0.29161910382,0,0,-1.11847,114.3, -0.4, -0.2,0,0,1024,1024,1024,1024,0,0,0,0,113.8,0,0,100,4.254,4.256,4.255,4.253,0,0,3.462,76.28,56.451246229012,2.952756,11,AutoTakeoff,
4200,2023-05-28 17:03:34,52.2063645501507,0.0866948982692494,3.28084,3.28084,53.498490229012,56.779330229012,3.28084,0,0.3348589346,0.45479660248,16,5,17.232,56.779330229012,3.28084,0,0.3348589346,0,0,-0.894776,114.2, -0.1, -0.9,0,0,1024,1024,1024,1024,0,0,0,0,113.8,0,0,100,4.254,4.256,4.255,4.253,0,0,3.462,76.28,56.779330229012,3.28084,11,AutoTakeoff,
4400,2023-05-28 17:03:35,52.2063646069188,0.0866949658935866,3.608924,3.608924,53.498490229012,57.107414229012,3.608924,0,0.35916667816,0.48044292876,16,5,17.019,57.107414229012,3.608924,0,0.35916667816,0,0,-1.11847,114.1, 0.1, -1.5,0,0,1024,1024,1024,1024,0,0,0,0,113.8,0,0,100,4.253,4.255,4.254,4.25,0,0,7.123,76.1,57.107414229012,3.608924,6,P-GPS,"Home Point updated (Code: 3000001)"
4600,2023-05-28 17:03:35,52.2063646429833,0.0866950085832438,3.608924,3.608924,53.498490229012,57.107414229012,3.937008,0,0.37468177052,0.49669621012,16,5,17.019,57.107414229012,3.608924,0,0.37468177052,0,0,-0.223694,114.1, 0.3, -2.1,0,0,1024,1024,1024,1024,0,0,0,0,113.8,0,0,100,4.253,4.255,4.254,4.25,0,0,7.123,76.1,57.107414229012,3.608924,6,P-GPS,
4800,2023-05-28 17:03:35,52.2063647641443,0.0866950959784735,3.937008,3.937008,53.498490229012,57.435498229012,3.937008,0,0.42285762508,0.545029545,16,5,17.019,57.435498229012,3.937008,0,0.42285762508,0,0,0,114, 0, -1.9,0,0,1024,1024,1024,1024,0,0,0,0,113.8,0,0,100,4.253,4.255,4.254,4.25,0,0,7.123,76.1,57.435498229012,3.937008,6,P-GPS,
5000,2023-05-28 17:03:35,52.2063649045284,0.0866951861549413,3.937008,3.937008,53.498490229012,57.435498229012,3.937008,0,0.47787403104,0.60007219768,15,5,17.019,57.435498229012,3.937008,0,0.47787403104,0,0,0,113.9, 0.1, -1.6,0,0,1024,1024,1024,1024,0,0,0,0,113.8,0,0,100,4.253,4.255,4.254,4.25,0,0,7.123,76.1,57.435498229012,3.937008,6,P-GPS,
5200,2023-05-28 17:03:36,52.2063650185529,0.0866952495688581,3.937008,3.937008,53.498490229012,57.435498229012,3.937008,0,0.521817602,0.64402561116,15,5,17.019,57.435498229012,3.937008,0,0.521817602,0,0,0,113.9, 0.4, -1.1,0,0,1024,1024,1024,1024,0,0,0,0,113.8,0,0,100,4.253,4.255,4.254,4.25,0,0,7.123,76.1,57.435498229012,3.937008,6,P-GPS,
5400,2023-05-28 17:03:36,52.2063651186582,0.086695283394525,3.937008,3.937008,53.498490229012,57.435498229012,3.937008,0,0.55877954544,0.68132220028,16,5,17.013,57.435498229012,3.937008,0,0.55877954544,0,0,0,113.9, 0.2, -1.3,0,0,1024,1024,1024,1024,0,0,0,0,113.8,0,0,100,4.246,4.257,4.253,4.251,0,0,7.302,76.28,57.435498229012,3.937008,6,P-GPS,
5600,2023-05-28 17:03:36,52.2063652145062,0.0866952755073352,3.937008,3.937008,53.498490229012,57.435498229012,3.937008,0,0.59138453336,0.7163386056,16,5,17.013,57.435498229012,3.937008,0,0.59138453336,0,0,0,113.9, 0.4, -1.3,0,0,1024,1024,1024,1024,0,0,0,0,113.8,0,0,100,4.246,4.257,4.253,4.251,0,0,7.302,76.28,57.435498229012,3.937008,6,P-GPS,
5800,2023-05-28 17:03:36,52.2063652856415,0.0866952339764954,3.937008,3.937008,53.498490229012,57.435498229012,3.937008,0,0.6134678674,0.74390094244,15,5,17.013,57.435498229012,3.937008,0,0.6134678674,0,0,0,113.8, 0.4, -1.3,0,0,1024,1024,1024,1024,0,0,0,0,113.8,0,0,100,4.246,4.257,4.253,4.251,0,0,7.302,76.28,57.435498229012,3.937008,6,P-GPS,
6000,2023-05-28 17:03:36,52.2063653600271,0.0866951671242799,3.937008,3.937008,53.498490229012,57.435498229012,3.937008,0,0.63570212008,0.7748851954,15,5,17.013,57.435498229012,3.937008,0,0.63570212008,0,0,0,113.6, 0.2, -0.9,0,0,1024,1024,1024,1024,0,0,0,0,113.8,0,0,100,4.246,4.257,4.253,4.251,0,0,7.302,76.28,57.435498229012,3.937008,6,P-GPS,
6200,2023-05-28 17:03:37,52.2063654074027,0.0866950530821544,3.608924,3.608924,53.498490229012,57.107414229012,3.937008,0,0.64679464012,0.80568900216,15,5,17.013,57.435498229012,3.937008,0,0.64679464012,0,0,0,113.6, 0.1, -0.9,0,0,1024,1024,1024,1024,0,0,0,0,113.8,0,0,100,4.246,4.257,4.253,4.251,0,0,7.302,76.28,57.107414229012,3.608924,6,P-GPS,
6400,2023-05-28 17:03:37,52.2063654486705,0.0866948936808602,3.608924,3.608924,53.498490229012,57.107414229012,3.937008,0,0.65537731756,0.84437994828,15,5,17.035,57.435498229012,3.937008,0,0.65537731756,0,0,0,113.7, 0, -0.7,0,0,1024,1024,1024,1024,0,0,0,0,113.8,0,0,100,4.249,4.251,4.25,4.248,0,0,6.748,76.28,57.107414229012,3.608924,6,P-GPS,
6600,2023-05-28 17:03:37,52.2063654531389,0.0866946941705467,3.608924,3.608924,53.498490229012,57.107414229012,3.937008,0,0.65196196312,0.88901905732,15,5,17.035,57.435498229012,3.937008,0,0.65537731756,0,0,0,113.8, -0.3, -1.3,0,0,1024,1024,1024,1024,0,0,0,0,113.8,0,0,100,4.249,4.251,4.25,4.248,0,0,6.748,76.28,57.107414229012,3.608924,6,P-GPS,
6800,2023-05-28 17:03:37,52.2063654093922,0.0866945045200957,3.608924,3.608924,53.498490229012,57.107414229012,3.937008,0,0.63402889168,0.93432417688,15,5,17.035,57.435498229012,3.937008,0,0.65537731756,0,0,0,113.7, -0.3, -1.7,0,0,1024,1024,1024,1024,0,0,0,0,113.8,0,0,100,4.249,4.251,4.25,4.248,0,0,6.748,76.28,57.107414229012,3.608924,6,P-GPS,
7000,2023-05-28 17:03:37,52.2063653589928,0.0866943506712575,3.608924,3.608924,53.498490229012,57.107414229012,3.937008,0,0.61609910108,0.97333008364,15,5,17.035,57.435498229012,3.937008,0,0.65537731756,0,0,0,113.7, 0, -1.8,0,0,1024,1024,1408,1024,0,0,58,0,113.8,0,0,100,4.249,4.251,4.25,4.248,0,0,6.748,76.28,57.107414229012,3.608924,6,P-GPS,
7200,2023-05-28 17:03:38,52.2063652986416,0.0866942142093698,3.608924,3.608924,53.498490229012,57.107414229012,3.937008,0,0.59618112144,1.0109580376,15,5,17.035,57.435498229012,3.937008,0,0.65537731756,0,0,0,113.8, -0.2, -1.8,0,0,1024,1024,1356,1024,0,0,50,0,113.8,0,0,100,4.249,4.251,4.25,4.248,0,0,6.748,76.28,57.107414229012,3.608924,6,P-GPS,
7400,2023-05-28 17:03:38,52.206365228754,0.0866940988725841,3.937008,3.937008,53.498490229012,57.435498229012,4.265092,0,0.57389437532,1.04722444296,15,5,16.998,57.435498229012,3.937008,0,0.65537731756,0,0,-1.789552,114.1, 0.4, -1.4,0,0,1024,1024,1024,1024,0,0,0,0,113.8,0,0,100,4.182,4.188,4.188,4.188,0,0,7.128,76.46,57.435498229012,3.937008,6,P-GPS,
7600,2023-05-28 17:03:38,52.2063651197722,0.0866939985058787,4.593176,4.593176,53.498490229012,58.091666229012,4.92126,0,0.5384514608,1.0928806124,15,5,16.998,58.091666229012,4.593176,0,0.65537731756,0,0,-1.342164,113.7, 0.5, -2.6,0,0,1024,1024,1024,1024,0,0,0,0,113.8,0,0,100,4.182,4.188,4.188,4.188,0,0,7.128,76.46,58.091666229012,4.593176,6,P-GPS,
7800,2023-05-28 17:03:38,52.2063650390951,0.086693876233076,4.92126,4.92126,53.498490229012,58.419750229012,5.249344,0,0.5158792816,1.13305121736,16,5,16.998,58.419750229012,4.92126,0,0.65537731756,0,0,-0.223694,113.5, 0.1, -2.7,0,0,1024,1024,1379,1024,0,0,54,0,113.8,0,0,100,4.182,4.188,4.188,4.188,0,0,7.128,76.46,58.419750229012,4.92126,6,P-GPS,
8000,2023-05-28 17:03:38,52.20636503177,0.086693728871218,4.92126,4.92126,53.498490229012,58.419750229012,5.249344,0,0.5227034288,1.1661089612,16,5,16.998,58.419750229012,4.92126,0,0.65537731756,0,0,-0.223694,114, -0.2, -2,0,0,1024,1024,1410,1024,0,0,58,0,113.8,0,0,100,4.182,4.188,4.188,4.188,0,0,7.128,76.46,58.419750229012,4.92126,6,P-GPS,
8200,2023-05-28 17:03:38,52.2063650123066,0.0866936865350619,5.249344,5.249344,53.498490229012,58.747834229012,5.577428,0,0.51905841556,1.17794295108,16,5,16.998,58.747834229012,5.249344,0,0.65537731756,0,0,-2.23694,114.1, 0.5, -1.7,0,0,1024,1024,1226,1024,0,0,31,0,113.8,0,0,100,4.182,4.188,4.188,4.188,0,0,7.128,76.46,58.747834229012,5.249344,6,P-GPS,
8400,2023-05-28 17:03:39,52.2063649933157,0.0866937308640615,6.233596,6.233596,53.498490229012,59.732086229012,6.56168,0,0.50926182732,1.19003612732,16,5,16.992,59.732086229012,6.233596,0,0.65537731756,0,0,-3.35541,113.5, 0.8, -2.7,0,0,1024,1024,1024,1024,0,0,0,0,113.8,0,0,100,4.182,4.194,4.2,4.217,0,0,7.091,76.46,59.732086229012,6.233596,6,P-GPS,
8600,2023-05-28 17:03:39,52.2063649535541,0.0866937983179962,7.217848,7.217848,53.498490229012,60.716338229012,7.217848,0,0.4907644514,1.21096132484,16,5,16.992,60.716338229012,7.217848,0,0.65537731756,0,0,-1.565858,113.5, 1.7, -2.4,0,0,1024,1024,1041,1024,0,0,3,0,113.8,0,0,100,4.182,4.194,4.2,4.217,0,0,7.091,76.46,60.716338229012,7.217848,6,P-GPS,
8800,2023-05-28 17:03:39,52.2063649169864,0.0866938735744587,7.217848,7.217848,53.498490229012,60.716338229012,7.545932,0,0.47310040884,1.23243442264,16,5,16.992,60.716338229012,7.217848,0,0.65537731756,0,0,-0.447388,113.5, 1.3, -2.3,0,0,1024,1024,1614,1024,0,0,89,0,113.8,0,0,100,4.182,4.194,4.2,4.217,0,0,7.091,76.46,60.716338229012,7.217848,6,P-GPS,
9000,2023-05-28 17:03:39,52.2063648852388,0.0866939799202406,7.545932,7.545932,53.498490229012,61.044422229012,7.874016,0,0.45576445028,1.25888455472,16,5,16.992,61.044422229012,7.545932,0,0.65537731756,0,0,-0.894776,113.7, 1.9, -2,0,0,1024,1024,1536,1024,0,0,78,0,113.8,0,0,100,4.182,4.194,4.2,4.217,0,0,7.091,76.46,61.044422229012,7.545932,6,P-GPS,
9200,2023-05-28 17:03:39,52.2063648450067,0.0866940694369961,8.2021,8.2021,53.498490229012,61.700590229012,8.530184,0,0.43704397724,1.28370410932,16,5,16.992,61.700590229012,8.2021,0,0.65537731756,0,0,-3.131716,113, 4.2, -1.8,0,0,1024,1024,1024,1024,0,0,0,0,113.8,0,0,100,4.182,4.194,4.2,4.217,0,0,7.091,76.46,61.700590229012,8.2021,6,P-GPS,
9400,2023-05-28 17:03:40,52.2063649399259,0.0866939383280561,9.514436,9.514436,53.498490229012,63.012926229012,9.514436,0,0.47737534336,1.32907812652,16,5,17.027,63.012926229012,9.514436,0,0.65537731756,0,0,-4.250186,112.8, 2.9, -2.7,0,0,1024,1024,1024,1024,0,0,0,0,113.8,0,0,100,4.16,4.164,4.19,4.24,0,0,7.645,76.46,63.012926229012,9.514436,6,P-GPS,
9600,2023-05-28 17:03:40,52.2063651737955,0.0866937208294005,10.498688,10.498688,53.498490229012,63.997178229012,10.498688,0.223694,0.57264437528,1.42729007192,16,5,17.027,63.997178229012,10.498688,0.223694,0.65537731756,0.223694,0,-2.23694,113.3, 1.3, -1.4,0,0,1024,1024,1024,1024,0,0,0,0,113.8,0,0,100,4.16,4.164,4.19,4.24,0,0,7.645,76.46,63.997178229012,10.498688,6,P-GPS,
9800,2023-05-28 17:03:40,52.2063655331649,0.0866935060150275,10.826772,10.826772,53.498490229012,64.325262229012,10.826772,0.223694,0.71209976032,1.56692590316,16,5,17.027,64.325262229012,10.826772,0.223694,0.71209976032,0.223694,0,-0.671082,115.1, -0.5, 1.1,0,0,1024,1024,1024,1024,0,0,0,0,113.8,0,0,100,4.16,4.164,4.19,4.24,0,0,7.645,76.46,64.325262229012,10.826772,6,P-GPS,
10000,2023-05-28 17:03:40,52.2063658285238,0.0866932298759668,11.154856,11.154856,53.498490229012,64.653346229012,10.826772,0,0.83386157524,1.69112210136,16,5,17.027,64.653346229012,11.154856,0.223694,0.83386157524,0,0,0,115.2, -2.5, 2.2,0,0,1024,1024,1024,1024,0,0,0,0,113.8,0,0,100,4.16,4.164,4.19,4.24,0,0,7.645,76.46,64.653346229012,11.154856,6,P-GPS,
10200,2023-05-28 17:03:40,52.2063659587975,0.086693010838583,11.154856,11.154856,53.498490229012,64.653346229012,10.826772,0,0.8954396612,1.7593668542,16,5,17.027,64.653346229012,11.154856,0.223694,0.8954396612,0,0,0,115.5, -2.1, 0.4,0,0,1024,1024,1024,1024,0,0,0,0,113.8,0,0,100,4.16,4.164,4.19,4.24,0,0,7.645,76.46,64.653346229012,11.154856,6,P-GPS,
10400,2023-05-28 17:03:41,52.2063659665758,0.0866928268572022,11.154856,11.154856,53.498490229012,64.653346229012,10.826772,0,0.91376971428,1.80060045132,16,5,17.018,64.653346229012,11.154856,0.223694,0.91376971428,0,0,0,115.3, -1.6, 0,0,0,1024,1024,1024,1024,0,0,0,0,113.8,0,0,100,4.237,4.244,4.242,4.239,0,0,8.298,76.64,64.653346229012,11.154856,6,P-GPS,
10600,2023-05-28 17:03:41,52.206365921827,0.0866926823251011,11.154856,11.154856,53.498490229012,64.653346229012,10.826772,0,0.91247378248,1.83680452072,16,5,17.018,64.653346229012,11.154856,0.223694,0.91376971428,0,0,0,115.3, -1.4, -1.3,0,0,1024,1024,1024,1024,0,0,0,0,113.8,0,0,100,4.237,4.244,4.242,4.239,0,0,8.298,76.64,64.653346229012,11.154856,6,P-GPS,
10800,2023-05-28 17:03:41,52.2063659163279,0.0866925708846646,11.154856,11.154856,53.498490229012,64.653346229012,10.826772,0,0.92184058068,1.86180452152,16,5,17.018,64.653346229012,11.154856,0.223694,0.92184058068,0,0,0,115.4, -1.7, -0.9,0,0,1024,1024,1024,1024,0,0,0,0,113.8,0,0,100,4.237,4.244,4.242,4.239,0,0,8.298,76.64,64.653346229012,11.154856,6,P-GPS,
11000,2023-05-28 17:03:41,52.20636592458,0.0866924947564491,11.154856,11.154856,53.498490229012,64.653346229012,10.826772,0,0.9324311322,1.87908798664,16,5,17.018,64.653346229012,11.154856,0.223694,0.9324311322,0,0,0,115.3, -2.2, -0.3,0,0,1024,1024,1024,1024,0,0,0,0,113.8,0,0,100,4.237,4.244,4.242,4.239,0,0,8.298,76.64,64.653346229012,11.154856,6,P-GPS,
11200,2023-05-28 17:03:41,52.206365900621,0.0866924345296983,11.154856,11.154856,53.498490229012,64.653346229012,10.826772,0,0.93122050224,1.8951444176,16,5,17.018,64.653346229012,11.154856,0.223694,0.9324311322,0,0,0,115.1, -2.3, -0.2,0,0,1024,1024,1024,1024,0,0,0,0,113.8,0,0,100,4.237,4.244,4.242,4.239,0,0,8.298,76.64,64.653346229012,11.154856,6,P-GPS,
11400,2023-05-28 17:03:42,52.2063658241795,0.0866924418986431,11.154856,11.154856,53.498490229012,64.653346229012,10.826772,0,0.90614504212,1.9230807702,16,5,17.01,64.653346229012,11.154856,0.223694,0.9324311322,0,0,0,115.4, -2.2, -1.4,0,0,1024,1024,1024,1024,0,0,0,0,113.8,0,0,99,4.238,4.243,4.24,4.235,0,0,7.808,76.64,64.653346229012,11.154856,6,P-GPS,
11600,2023-05-28 17:03:42,52.2063657684767,0.0866925571083027,11.154856,11.154856,53.498490229012,64.653346229012,10.826772,0,0.87576446372,1.95589245104,16,5,17.01,64.653346229012,11.154856,0.223694,0.9324311322,0,0,0,115.3, -1.5, -1.2,0,0,1024,1024,1024,1024,0,0,0,0,113.8,0,0,99,4.238,4.243,4.24,4.235,0,0,7.808,76.64,64.653346229012,11.154856,6,P-GPS,
11800,2023-05-28 17:03:42,52.2063657024331,0.0866927305928253,11.154856,11.154856,53.498490229012,64.653346229012,10.826772,0,0.83612863568,2.00155518216,16,5,17.01,64.653346229012,11.154856,0.223694,0.9324311322,0,0,0,115.3, 0.1, -1.2,0,0,1024,1024,1024,1024,0,0,0,0,113.8,0,0,99,4.238,4.243,4.24,4.235,0,0,7.808,76.64,64.653346229012,11.154856,6,P-GPS,
12000,2023-05-28 17:03:42,52.2063656384268,0.0866927647486794,11.154856,11.154856,53.498490229012,64.653346229012,10.826772,0,0.81190619396,2.02612539292,19,5,17.01,64.653346229012,11.154856,0.223694,0.9324311322,0,0,0,115.6, 0.1, -2.3,0,0,1024,1024,1024,1024,0,0,0,0,113.8,0,0,99,4.238,4.243,4.24,4.235,0,0,7.808,76.64,64.653346229012,11.154856,6,P-GPS,
12200,2023-05-28 17:03:43,52.2063656513834,0.0866926534189867,11.154856,11.154856,53.498490229012,64.653346229012,10.826772,0,0.82796590576,2.05146332024,19,5,17.01,64.653346229012,11.154856,0.223694,0.9324311322,0,0,0,115.3, -3.3, -1.5,0,0,1024,1024,1024,1024,0,0,0,0,113.8,0,0,99,4.238,4.243,4.24,4.235,0,0,7.808,76.64,64.653346229012,11.154856,6,P-GPS,
12400,2023-05-28 17:03:43,52.2063656839497,0.0866927329171358,11.154856,11.154856,53.498490229012,64.653346229012,10.826772,0.223694,0.82991472472,2.07284455452,19,5,16.949,64.653346229012,11.154856,0.223694,0.9324311322,-0.223694,0,0,115.4, -1.8, -3.6,0,0,1024,1024,1024,1024,0,0,0,0,113.8,0,0,99,4.233,4.243,4.238,4.232,0,0,7.09,76.82,64.653346229012,11.154856,6,P-GPS,
12600,2023-05-28 17:03:43,52.2063657967124,0.0866930029722738,11.154856,11.154856,53.498490229012,64.653346229012,10.826772,0,0.84128611616,2.14590886132,19,5,16.949,64.653346229012,11.154856,0.223694,0.9324311322,0,0,0,115.2, -0.8, -4.6,0,0,1024,1024,1658,1024,0,0,96,0,113.8,0,0,99,4.233,4.243,4.238,4.232,0,0,7.09,76.82,64.653346229012,11.154856,6,P-GPS,
12800,2023-05-28 17:03:43,52.2063661773686,0.0866935244072462,11.48294,11.48294,53.498490229012,64.981430229012,11.154856,0,0.93798887516,2.32723760728,19,5,16.949,64.981430229012,11.48294,0.223694,0.93798887516,0,0,-0.447388,115.2, -0.2, -3.5,0,0,1024,1024,1635,1024,0,0,93,0,113.8,0,0,99,4.233,4.243,4.238,4.232,0,0,7.09,76.82,64.981430229012,11.48294,6,P-GPS,
13000,2023-05-28 17:03:43,52.2063668761263,0.0866942650924621,11.811024,11.811024,53.498490229012,65.309514229012,11.48294,0,1.169947544,2.63124680336,19,5,16.949,65.309514229012,11.811024,0.223694,1.169947544,0,0,-2.684328,115.3, -1.2, -2.8,0,0,1024,1024,1635,1024,0,0,93,0,113.8,0,0,99,4.233,4.243,4.238,4.232,0,0,7.09,76.82,65.309514229012,11.811024,6,P-GPS,
13200,2023-05-28 17:03:44,52.2063678239597,0.0866952082357006,13.12336,13.12336,53.498490229012,66.621850229012,12.795276,0,1.524032201,3.0362861864,19,5,16.949,66.621850229012,13.12336,0.223694,1.524032201,0,0,-5.59235,115.6, -1.7, -1,0,0,1024,1024,1631,1024,0,0,92,0,113.8,0,0,99,4.233,4.243,4.238,4.232,0,0,7.09,76.82,66.621850229012,13.12336,6,P-GPS,
13400,2023-05-28 17:03:44,52.2063687635171,0.0866962425112007,15.419948,15.419948,53.498490229012,68.918438229012,15.091864,0,1.89979992956,3.44980326,19,5,16.902,68.918438229012,15.419948,0.223694,1.89979992956,0,0,-8.052984,115.3, -0.7, -3.3,0,0,1024,1024,1278,1024,0,0,38,0,113.8,0,0,99,4.155,4.158,4.157,4.148,0,0,7.485,76.82,68.918438229012,15.419948,6,P-GPS,
13600,2023-05-28 17:03:44,52.2063697620834,0.0866973570599477,18.700788,18.700788,53.498490229012,72.199278229012,17.716536,0,2.31428157012,3.8911746652,19,5,16.902,72.199278229012,18.700788,0.223694,2.31428157012,0,0,-9.618842,115.2, -0.6, -4.6,0,0,1024,1024,1024,1024,0,0,0,0,113.8,0,0,99,4.155,4.158,4.157,4.148,0,0,7.485,76.82,72.199278229012,18.700788,6,P-GPS,
13800,2023-05-28 17:03:44,52.2063707492381,0.0866984727132938,22.309712,22.309712,53.498490229012,75.808202229012,20.341208,0,2.73333998248,4.3292980388,19,5,16.902,75.808202229012,22.309712,0.223694,2.73333998248,0,0,-7.82929,114.8, -0.4, -5,0,0,1024,1024,1024,1024,0,0,0,0,113.8,0,0,99,4.155,4.158,4.157,4.148,0,0,7.485,76.82,75.808202229012,22.309712,6,P-GPS,
14000,2023-05-28 17:03:44,52.2063717121977,0.0866994945432149,22.96588,22.96588,53.498490229012,76.464370229012,22.309712,0,3.14177831576,4.7483925404,19,5,16.902,76.464370229012,22.96588,0.223694,3.14177831576,0,0,-5.59235,114.6, -0.7, -4.3,0,0,1024,1024,1024,1024,0,0,0,0,113.8,0,0,99,4.155,4.158,4.157,4.148,0,0,7.485,76.82,76.464370229012,22.96588,6,P-GPS,
14200,2023-05-28 17:03:44,52.2063726533995,0.0867004075850916,23.950132,23.950132,53.498490229012,77.448622229012,23.622048,0,3.5361549688,5.1478676188,19,5,16.902,77.448622229012,23.950132,0.223694,3.5361549688,0,0,-3.35541,114.8, -1.5, -4.1,0,0,1024,1024,1024,1024,0,0,0,0,113.8,0,0,99,4.155,4.158,4.157,4.148,0,0,7.485,76.82,77.448622229012,23.950132,6,P-GPS,
14400,2023-05-28 17:03:45,52.206373574869,0.0867012620214027,24.278216,24.278216,53.498490229012,77.776706229012,24.278216,0,3.9198163984,5.5345802296,18,5,16.71,77.776706229012,24.278216,0.223694,3.9198163984,0,0,-0.894776,115.1, -1.8, -3.6,0,0,1024,1024,1024,1024,0,0,0,0,113.8,0,0,99,4.277,4.283,4.277,4.263,0,0,8.687,76.82,77.776706229012,24.278216,6,P-GPS,
14600,2023-05-28 17:03:45,52.2063743967374,0.0867020859461411,24.6063,24.6063,53.498490229012,78.104790229012,24.6063,0,4.2679791392,5.886483128,19,5,16.71,78.104790229012,24.6063,0.223694,4.2679791392,0,0,0,114.9, -0.6, -3.1,0,0,1024,1024,1024,1024,0,0,0,0,113.8,0,0,99,4.277,4.283,4.277,4.263,0,0,8.687,76.82,78.104790229012,24.6063,6,P-GPS,
14800,2023-05-28 17:03:45,52.2063750908209,0.0867027959715796,24.6063,24.6063,53.498490229012,78.104790229012,24.6063,0,4.5637796736,6.185367652,22,5,16.71,78.104790229012,24.6063,0.223694,4.5637796736,0,0,0,115.6, -1.5, -4.2,0,0,1024,1024,1024,1024,0,0,0,0,113.8,0,0,99,4.277,4.283,4.277,4.263,0,0,8.687,76.82,78.104790229012,24.6063,6,P-GPS,
15000,2023-05-28 17:03:45,52.2063755829544,0.0867034258695731,24.6063,24.6063,53.498490229012,78.104790229012,24.6063,0.223694,4.7854988408,6.4135828824,22,5,16.71,78.104790229012,24.6063,0.223694,4.7854988408,-0.223694,0,0,115.3, -0.6, -7.1,0,0,1024,1024,1585,1024,0,0,85,0,113.8,0,0,99,4.277,4.283,4.277,4.263,0,0,8.687,76.82,78.104790229012,24.6063,6,P-GPS,
15200,2023-05-28 17:03:45,52.2063760679699,0.0867039815652459,24.6063,24.6063,53.498490229012,78.104790229012,24.6063,0,4.99835974,6.6297902384,22,5,16.71,78.104790229012,24.6063,0.223694,4.99835974,0,0,-0.223694,114.7, 0.1, -7,0,0,1024,1024,1614,1024,0,0,89,0,113.8,0,0,99,4.277,4.283,4.277,4.263,0,0,8.687,76.82,78.104790229012,24.6063,6,P-GPS,
15400,2023-05-28 17:03:46,52.2063766799802,0.0867044603264791,24.934384,24.934384,53.498490229012,78.432874229012,24.934384,0,5.2459647348,6.8774280416,22,5,16.989,78.432874229012,24.934384,0.223694,5.2459647348,0,0,-2.23694,114.8, -1.2, -5.1,0,0,1024,1024,1024,1024,0,0,0,0,113.8,0,0,99,4.168,4.176,4.177,4.171,0,0,9.491,77.18,78.432874229012,24.934384,6,P-GPS,
15600,2023-05-28 17:03:46,52.2063772537093,0.086704835317872,26.24672,26.24672,53.498490229012,79.745210229012,25.918636,0,5.4710959756,7.1029201748,22,5,16.989,79.745210229012,26.24672,0.223694,5.4710959756,0,0,-4.026492,115, -1.9, -6.9,0,0,1024,1024,1024,1024,0,0,0,0,113.8,0,0,99,4.168,4.176,4.177,4.171,0,0,9.491,77.18,79.745210229012,26.24672,6,P-GPS,
15800,2023-05-28 17:03:46,52.2063777805077,0.0867051164535124,26.902888,26.902888,53.498490229012,80.401378229012,26.902888,0,5.6718833836,7.305118344,23,5,16.989,80.401378229012,26.902888,0.223694,5.6718833836,0,0,-2.23694,114.4, -2.9, -8.8,0,0,1024,1024,1024,1024,0,0,0,0,113.8,0,0,99,4.168,4.176,4.177,4.171,0,0,9.491,77.18,80.401378229012,26.902888,6,P-GPS,
16000,2023-05-28 17:03:46,52.2063782962228,0.0867053852277785,27.230972,27.230972,53.498490229012,80.729462229012,27.559056,0,5.8679135736,7.5026577204,23,5,16.989,80.729462229012,27.230972,0.223694,5.8679135736,0,0,-0.671082,114.4, -3.1, -6.8,0,0,1024,1024,1024,1024,0,0,0,0,113.8,0,0,99,4.168,4.176,4.177,4.171,0,0,9.491,77.18,80.729462229012,27.230972,6,P-GPS,
16200,2023-05-28 17:03:46,52.2063787989836,0.0867057393337961,27.559056,27.559056,53.498490229012,81.057546229012,27.88714,0,6.0676511128,7.702428068,23,5,16.989,81.057546229012,27.559056,0.223694,6.0676511128,0,0,0,114.7, -2.9, -6.2,0,0,1024,1024,1024,1024,0,0,0,0,113.8,0,0,99,4.168,4.176,4.177,4.171,0,0,9.491,77.18,81.057546229012,27.559056,6,P-GPS,
16400,2023-05-28 17:03:47,52.2063792710181,0.0867061589844543,27.559056,27.559056,53.498490229012,81.057546229012,28.215224,0,6.2633204104,7.8985566832,23,5,16.919,81.057546229012,27.559056,0.223694,6.2633204104,0,0,0,115.2, -3.1, -5.7,0,0,1024,1024,1024,1024,0,0,0,0,113.8,0,0,99,4.235,4.236,4.236,4.23,0,0,5.666,77.18,81.057546229012,27.559056,6,P-GPS,
16600,2023-05-28 17:03:47,52.2063796529116,0.0867066019887436,27.559056,27.559056,53.498490229012,81.057546229012,28.215224,0,6.4313650352,8.0695212556,23,5,16.919,81.057546229012,27.559056,0.223694,6.4313650352,0,0,0,114.9, -1.7, -6.7,0,0,1024,1024,1053,1024,0,0,4,0,113.8,0,0,99,4.235,4.236,4.236,4.23,0,0,5.666,77.18,81.057546229012,27.559056,6,P-GPS,
16800,2023-05-28 17:03:47,52.2063799816988,0.0867069637328113,27.559056,27.559056,53.498490229012,81.057546229012,28.215224,0,6.5742784256,8.2142062996,23,5,16.919,81.057546229012,27.559056,0.223694,6.5742784256,0,0,0,114.7, -1.7, -7,0,0,1024,1024,1608,1024,0,0,88,0,113.8,0,0,99,4.235,4.236,4.236,4.23,0,0,5.666,77.18,81.057546229012,27.559056,6,P-GPS,
17000,2023-05-28 17:03:47,52.2063802824829,0.0867072282363397,27.559056,27.559056,53.498490229012,81.057546229012,28.215224,0,6.6987534952,8.3388454112,23,5,16.919,81.057546229012,27.559056,0.223694,6.6987534952,0,0,-0.447388,114.7, -1.4, -7.3,0,0,1024,1024,1157,1024,0,0,20,0,113.8,0,0,99,4.235,4.236,4.236,4.23,0,0,5.666,77.18,81.057546229012,27.559056,6,P-GPS,
17200,2023-05-28 17:03:47,52.2063805942145,0.0867074804073266,28.215224,28.215224,53.498490229012,81.713714229012,28.543308,0,6.8256891948,8.4658139192,23,5,16.919,81.713714229012,28.215224,0.223694,6.8256891948,0,0,-2.684328,114.9, -1.6, -5.8,0,0,1024,1024,1024,1024,0,0,0,0,113.8,0,0,99,4.235,4.236,4.236,4.23,0,0,5.666,77.18,81.713714229012,28.215224,6,P-GPS,
17400,2023-05-28 17:03:48,52.2063808992661,0.086707702149307,29.199476,29.199476,53.498490229012,82.697966229012,29.199476,0,6.9474739756,8.5876315084,23,5,17.024,82.697966229012,29.199476,0.223694,6.9474739756,0,0,-1.565858,114.6, -1.4, -9.7,0,0,1024,1024,1024,1024,0,0,0,0,113.8,0,0,99,4.257,4.254,4.254,4.237,0,0,8.269,77.18,82.697966229012,29.199476,6,P-GPS,
17600,2023-05-28 17:03:48,52.2063811730891,0.086707894174362,29.52756,29.52756,53.498490229012,83.026050229012,29.855644,0,7.0561682048,8.6963913544,23,5,17.024,83.026050229012,29.52756,0.223694,7.0561682048,0,0,-0.447388,114.5, -2.1, -9,0,0,1024,1024,1024,1024,0,0,0,0,113.8,0,0,99,4.257,4.254,4.254,4.237,0,0,8.269,77.18,83.026050229012,29.52756,6,P-GPS,
17800,2023-05-28 17:03:48,52.2063814177996,0.0867080866301604,29.52756,29.52756,53.498490229012,83.026050229012,30.183728,0,7.1552823812,8.7955055308,23,5,17.024,83.026050229012,29.52756,0.223694,7.1552823812,0,0,-0.223694,114.7, -2.2, -8,0,0,1024,1024,1053,1024,0,0,4,0,113.8,0,0,99,4.257,4.254,4.254,4.237,0,0,8.269,77.18,83.026050229012,29.52756,6,P-GPS,
18000,2023-05-28 17:03:48,52.2063816832688,0.0867084017176415,29.855644,29.855644,53.498490229012,83.354134229012,30.183728,0,7.2729333036,8.9152561908,23,5,17.024,83.354134229012,29.855644,0.223694,7.2729333036,0,0,-0.223694,114.5, -1.1, -7.9,0,0,1024,1024,1024,1024,0,0,0,0,113.8,0,0,99,4.257,4.254,4.254,4.237,0,0,8.269,77.18,83.354134229012,29.855644,6,P-GPS,
18200,2023-05-28 17:03:48,52.2063819808961,0.0867087084453808,29.855644,29.855644,53.498490229012,83.354134229012,30.511812,0,7.4004595544,9.0437010768,22,5,17.024,83.354134229012,29.855644,0.223694,7.4004595544,0,0,-0.223694,114.5, -1.3, -8.7,0,0,1024,1024,1351,1024,0,0,50,0,113.8,0,0,99,4.257,4.254,4.254,4.237,0,0,8.269,77.18,83.354134229012,29.855644,6,P-GPS,
18400,2023-05-28 17:03:49,52.2063823212336,0.086708992586614,29.855644,29.855644,53.498490229012,83.354134229012,30.511812,0,7.5398952544,9.1831695852,22,5,16.914,83.354134229012,29.855644,0.223694,7.5398952544,0,0,0,114.6, -2.1, -7.6,0,0,1024,1024,1500,1024,0,0,72,0,113.8,0,0,99,4.238,4.268,4.259,4.242,0,0,7.607,77.18,83.354134229012,29.855644,6,P-GPS,
18600,2023-05-28 17:03:49,52.2063827365959,0.0867093060280089,30.183728,30.183728,53.498490229012,83.682218229012,30.839896,0,7.7068243936,9.3501315328,23,5,16.914,83.682218229012,30.183728,0.223694,7.7068243936,0,0,-1.565858,114.8, -2.1, -4.9,0,0,1024,1024,1024,1024,0,0,0,0,113.8,0,0,99,4.238,4.268,4.259,4.242,0,0,7.607,77.18,83.682218229012,30.183728,6,P-GPS,
18800,2023-05-28 17:03:49,52.2063831130258,0.086709576430887,30.839896,30.839896,53.498490229012,84.338386229012,31.496064,0,7.8568243984,9.5001971544,23,5,16.914,84.338386229012,30.839896,0.223694,7.8568243984,0,0,-2.013246,115, -2.9, -7.1,0,0,1024,1024,1653,1024,0,0,95,0,113.8,0,0,99,4.238,4.268,4.259,4.242,0,0,7.607,77.18,84.338386229012,30.839896,6,P-GPS,
19000,2023-05-28 17:03:49,52.2063834263412,0.0867097614862867,31.16798,31.16798,53.498490229012,84.666470229012,32.152232,0,7.9778217776,9.6217522764,22,5,16.914,84.666470229012,31.16798,0.223694,7.9778217776,0,0,-1.342164,114.6, -2.5, -6.7,0,0,1024,1024,1024,1024,0,0,0,0,113.8,0,0,99,4.238,4.268,4.259,4.242,0,0,7.607,77.18,84.666470229012,31.16798,6,P-GPS,
19200,2023-05-28 17:03:50,52.2063837453708,0.0867099809574719,31.824148,31.824148,53.498490229012,85.322638229012,32.8084,0,8.1040356924,9.7480974248,22,5,16.914,85.322638229012,31.824148,0.223694,8.1040356924,0,0,-2.684328,114.8, -3.2, -4.8,0,0,1024,1024,1255,1024,0,0,35,0,113.8,0,0,99,4.238,4.268,4.259,4.242,0,0,7.607,77.18,85.322638229012,31.824148,6,P-GPS,
19400,2023-05-28 17:03:50,52.2063839515313,0.086710111938412,32.480316,32.480316,53.498490229012,85.978806229012,33.136484,0,8.184547506,9.8288060888,22,5,16.948,85.978806229012,32.480316,0.223694,8.184547506,0,0,-1.11847,115.1, -3.3, -7.8,0,0,1024,1024,1162,1024,0,0,21,0,113.8,0,0,99,4.162,4.173,4.169,4.184,0,0,7.676,77.36,85.978806229012,32.480316,6,P-GPS,
19600,2023-05-28 17:03:50,52.2063841261484,0.0867102537307492,32.8084,32.8084,53.498490229012,86.306890229012,33.464568,0,8.2556761172,9.8999675084,22,5,16.948,86.306890229012,32.8084,0.223694,8.2556761172,0,0,-2.013246,114.7, -2, -5.4,0,0,1024,1024,1024,1024,0,0,0,0,113.8,0,0,99,4.162,4.173,4.169,4.184,0,0,7.676,77.36,86.306890229012,32.8084,6,P-GPS,
19800,2023-05-28 17:03:50,52.2063842751462,0.0867104018523057,33.464568,33.464568,53.498490229012,86.963058229012,33.792652,0,8.3189963292,9.9636158044,23,5,16.948,86.963058229012,33.464568,0.223694,8.3189963292,0,0,-1.11847,115.1, -3.6, -7.7,0,0,1024,1024,1024,1024,0,0,0,0,113.8,0,0,99,4.162,4.173,4.169,4.184,0,0,7.676,77.36,86.963058229012,33.464568,6,P-GPS,
20000,2023-05-28 17:03:50,52.2063843631091,0.0867105124319107,33.464568,33.464568,53.498490229012,86.963058229012,33.792652,0,8.358596068,10.0041341784,23,5,16.948,86.963058229012,33.464568,0.223694,8.358596068,0,0,-0.223694,114.8, -3, -7.5,0,0,1024,1024,1024,1024,0,0,0,0,113.8,0,0,99,4.162,4.173,4.169,4.184,0,0,7.676,77.36,86.963058229012,33.464568,6,P-GPS,
20200,2023-05-28 17:03:51,52.2063844716861,0.0867106926888465,33.792652,33.792652,53.498490229012,87.291142229012,33.792652,0,8.4116800592,10.0606302432,23,5,16.948,87.291142229012,33.792652,0.223694,8.4116800592,0,0,0,114.6, -2.4, -6.9,0,0,1024,1024,1024,1024,0,0,0,0,113.8,0,0,99,4.162,4.173,4.169,4.184,0,0,7.676,77.36,87.291142229012,33.792652,6,P-GPS,
20400,2023-05-28 17:03:51,52.2063845529432,0.0867108897945766,33.792652,33.792652,53.498490229012,87.291142229012,31.824148,0,8.4574805856,10.1137470428,23,5,16.985,87.291142229012,33.792652,0.223694,8.4574805856,0,0,0,114.6, -2.2, -6.8,0,0,1024,1024,1024,1024,0,0,0,0,113.8,0,0,99,4.231,4.229,4.228,4.227,0,0,8.169,77.18,87.291142229012,33.792652,6,P-GPS,
20600,2023-05-28 17:03:51,52.2063846316346,0.0867110595616438,33.792652,33.792652,53.498490229012,87.291142229012,31.824148,0,8.4998690384,10.1613520312,23,5,16.985,87.291142229012,33.792652,0.223694,8.4998690384,0,0,0,114.6, -1.9, -7,0,0,1024,1024,1024,1024,0,0,0,0,113.8,0,0,99,4.231,4.229,4.228,4.227,0,0,8.169,77.18,87.291142229012,33.792652,6,P-GPS,
20800,2023-05-28 17:03:51,52.2063847456944,0.0867111891568659,33.792652,33.792652,53.498490229012,87.291142229012,31.824148,0,8.5499674652,10.2120410092,23,5,16.985,87.291142229012,33.792652,0.223694,8.5499674652,0,0,0,114.6, -2, -7,0,0,1024,1024,1024,1024,0,0,0,0,113.8,0,0,99,4.231,4.229,4.228,4.227,0,0,8.169,77.18,87.291142229012,33.792652,6,P-GPS,
21000,2023-05-28 17:03:51,52.20638489883,0.0867113238248996,33.464568,33.464568,53.498490229012,86.963058229012,31.824148,0,8.6133861024,10.2755252632,23,5,16.985,87.291142229012,33.792652,0.223694,8.6133861024,0,0,0,114.6, -2.3, -6.3,0,0,1024,1024,1024,1024,0,0,0,0,113.8,0,0,99,4.231,4.229,4.228,4.227,0,0,8.169,77.18,86.963058229012,33.464568,6,P-GPS,
21200,2023-05-28 17:03:51,52.2063850606225,0.0867114782284946,33.464568,33.464568,53.498490229012,86.963058229012,31.824148,0,8.6815619576,10.3438979688,23,5,16.985,87.291142229012,33.792652,0.223694,8.6815619576,0,0,0,114.8, -2.1, -6.2,0,0,1024,1024,1024,1024,0,0,0,0,113.8,0,0,99,4.231,4.229,4.228,4.227,0,0,8.169,77.18,86.963058229012,33.464568,6,P-GPS,
21400,2023-05-28 17:03:52,52.2063851950266,0.0867116440183937,33.464568,33.464568,53.498490229012,86.963058229012,31.824148,0,8.7418966052,10.4053809104,23,5,16.892,87.291142229012,33.792652,0.223694,8.7418966052,0,0,0,114.7, -1.8, -5.9,0,0,1024,1024,1024,1024,0,0,0,0,113.8,0,0,99,4.222,4.224,4.227,4.218,0,0,7.497,77.54,86.963058229012,33.464568,6,P-GPS,
21600,2023-05-28 17:03:52,52.2063853338276,0.0867117874970083,33.792652,33.792652,53.498490229012,87.291142229012,31.824148,0,8.8014766596,10.4653218572,23,5,16.892,87.291142229012,33.792652,0.223694,8.8014766596,0,0,0,114.9, -1.8, -5.4,0,0,1024,1024,1024,1024,0,0,0,0,113.8,0,0,99,4.222,4.224,4.227,4.218,0,0,7.497,77.54,87.291142229012,33.792652,6,P-GPS,
21800,2023-05-28 17:03:52,52.206385460166,0.0867119174591922,33.792652,33.792652,53.498490229012,87.291142229012,31.824148,0,8.855643328,10.5198166096,23,5,16.892,87.291142229012,33.792652,0.223694,8.855643328,0,0,0,115.1, -1.8, -4.8,0,0,1024,1024,1024,1024,0,0,0,0,113.8,0,0,99,4.222,4.224,4.227,4.218,0,0,7.497,77.54,87.291142229012,33.792652,6,P-GPS,
22000,2023-05-28 17:03:52,52.2063855658859,0.0867119925186311,33.792652,33.792652,53.498490229012,87.291142229012,32.152232,0,8.8976708884,10.5618769784,23,5,16.892,87.291142229012,33.792652,0.223694,8.8976708884,0,0,0,115.1, -1.5, -4.9,0,0,1024,1024,1024,1024,0,0,0,0,113.8,0,0,99,4.222,4.224,4.227,4.218,0,0,7.497,77.54,87.291142229012,33.792652,6,P-GPS,
22200,2023-05-28 17:03:53,52.2063856666392,0.0867120510123606,33.792652,33.792652,53.498490229012,87.291142229012,32.152232,0,8.9364504172,10.600886166,23,5,16.892,87.291142229012,33.792652,0.223694,8.9364504172,0,0,0,115, -1.5, -4.6,0,0,1024,1024,1024,1024,0,0,0,0,113.8,0,0,99,4.222,4.224,4.227,4.218,0,0,7.497,77.54,87.291142229012,33.792652,6,P-GPS,
22400,2023-05-28 17:03:53,52.2063857557607,0.0867120951019612,33.792652,33.792652,53.498490229012,87.291142229012,32.152232,0,8.969980602,10.6348756684,23,5,16.886,87.291142229012,33.792652,0.223694,8.969980602,0,0,0,115, -1.5, -4.4,0,0,1024,1024,1024,1024,0,0,0,0,113.8,0,0,99,4.219,4.226,4.226,4.224,0,0,7.086,77.54,87.291142229012,33.792652,6,P-GPS,
22600,2023-05-28 17:03:53,52.2063858413077,0.086712108866528,33.792652,33.792652,53.498490229012,87.291142229012,32.152232,0,8.9993769284,10.6662404988,23,5,16.886,87.291142229012,33.792652,0.223694,8.9993769284,0,0,0,115.2, -2.3, -4.3,0,0,1024,1024,1024,1024,0,0,0,0,113.8,0,0,99,4.219,4.226,4.226,4.224,0,0,7.086,77.54,87.291142229012,33.792652,6,P-GPS,
22800,2023-05-28 17:03:53,52.2063859144541,0.0867121327505064,33.464568,33.464568,53.498490229012,86.963058229012,32.152232,0,9.0256892652,10.6934386624,23,5,16.886,87.291142229012,33.792652,0.223694,9.0256892652,0,0,0,115.3, -1.8, -4,0,0,1024,1024,1024,478,0,0,0,-83,113.8,0,0,99,4.219,4.226,4.226,4.224,0,0,7.086,77.54,86.963058229012,33.464568,6,P-GPS,
23000,2023-05-28 17:03:53,52.2063859625016,0.0867121003897077,33.792652,33.792652,53.498490229012,87.291142229012,32.152232,0,9.0383204992,10.712434726,23,5,16.886,87.291142229012,33.792652,0.223694,9.0383204992,0,0,0,115.7, -3.5, -3.7,0,0,1024,1024,1024,417,0,0,0,-92,112.3,0,0,99,4.219,4.226,4.226,4.224,0,0,7.086,77.54,87.291142229012,33.792652,6,P-GPS,
23200,2023-05-28 17:03:53,52.2063858841829,0.0867120958655915,33.792652,33.792652,53.498490229012,87.291142229012,32.152232,0.223694,9.0121722044,10.7410108424,23,5,16.886,87.291142229012,33.792652,0.223694,9.0383204992,-0.223694,0,0,111.2, -2.4, -5.2,0,0,1024,1024,1024,381,0,0,0,-97,104.2,0,0,99,4.219,4.226,4.226,4.224,0,0,7.086,77.54,87.291142229012,33.792652,6,P-GPS,
23400,2023-05-28 17:03:54,52.2063857263377,0.0867121084523852,33.792652,33.792652,53.498490229012,87.291142229012,32.152232,0.223694,8.9616472684,10.7986552012,23,5,16.886,87.291142229012,33.792652,0.223694,9.0383204992,-0.223694,0,0,101.2, -1.6, -6.7,0,0,1024,1024,1024,391,0,0,0,-96,93.5,0,0,99,4.219,4.226,4.226,4.224,0,0,7.086,77.54,87.291142229012,33.792652,6,P-GPS,
23600,2023-05-28 17:03:54,52.2063856290369,0.0867120417684152,33.792652,33.792652,53.498490229012,87.291142229012,32.152232,0,8.923228632,10.8371722628,23,5,16.912,87.291142229012,33.792652,0.223694,9.0383204992,0,0,0,89.3, -2.4, -6.7,0,0,1024,1024,1024,1024,0,0,0,0,85,0,0,99,4.221,4.224,4.225,4.224,0,0,6.755,77.72,87.291142229012,33.792652,6,P-GPS,
23800,2023-05-28 17:03:54,52.2063857138814,0.0867118211718801,33.464568,33.464568,53.498490229012,86.963058229012,32.152232,0.223694,8.929462228,10.8954071728,23,5,16.912,87.291142229012,33.792652,0.223694,9.0383204992,0,-0.223694,0,85, -3.9, -4.8,0,0,1024,1024,1024,901,0,0,0,-19,84.4,0,0,99,4.221,4.224,4.225,4.224,0,0,6.755,77.72,86.963058229012,33.464568,6,P-GPS,
24000,2023-05-28 17:03:54,52.2063859498547,0.0867115500988597,33.464568,33.464568,53.498490229012,86.963058229012,32.152232,0.223694,8.981135458,11.0006893284,23,5,16.912,87.291142229012,33.792652,0.223694,9.0383204992,0,-0.223694,0,85.6, -5.6, -2.6,0,0,1024,1024,1022,364,0,0,-0,-100,84.2,0,0,99,4.221,4.224,4.225,4.224,0,0,6.755,77.72,86.963058229012,33.464568,6,P-GPS,
24200,2023-05-28 17:03:54,52.2063861936261,0.0867113585726982,33.464568,33.464568,53.498490229012,86.963058229012,32.152232,0,9.0437338852,11.099409804,23,5,16.912,87.291142229012,33.792652,0.223694,9.0437338852,0,0,0,85.2, -5.9, -0.9,0,0,1024,1024,934,364,0,0,-14,-100,80.5,0,0,99,4.221,4.224,4.225,4.224,0,0,6.755,77.72,86.963058229012,33.464568,6,P-GPS,
24400,2023-05-28 17:03:55,52.2063864298779,0.0867112953870985,33.136484,33.136484,53.498490229012,86.634974229012,32.152232,0,9.1162732576,11.1867457648,23,5,16.912,87.291142229012,33.792652,0.223694,9.1162732576,0,0,0,77.5, -5.3, 0.1,0,0,1024,1024,893,364,0,0,-20,-100,69.2,0,0,99,4.221,4.224,4.225,4.224,0,0,6.755,77.72,86.634974229012,33.136484,6,P-GPS,
24600,2023-05-28 17:03:55,52.2063865859048,0.086711315103438,33.136484,33.136484,53.498490229012,86.634974229012,32.152232,0,9.1699806084,11.2438323808,23,5,16.906,87.291142229012,33.792652,0.223694,9.1699806084,0,0,0.223694,65.2, -5.4, 0,0,0,1024,1024,902,364,0,0,-18,-100,57.2,0,0,99,4.221,4.225,4.231,4.226,0,0,6.817,77.72,86.634974229012,33.136484,6,P-GPS,
24800,2023-05-28 17:03:55,52.2063867084266,0.086711375335868,33.136484,33.136484,53.498490229012,86.634974229012,31.824148,0,9.2162732608,11.2905515424,23,5,16.906,87.291142229012,33.792652,0.223694,9.2162732608,0,0,0.223694,53.3, -4.8, 0.5,0,0,1024,1024,913,364,0,0,-17,-100,45.2,0,0,99,4.221,4.225,4.231,4.226,0,0,6.817,77.72,86.634974229012,33.136484,6,P-GPS,
25000,2023-05-28 17:03:55,52.2063868448289,0.0867114304430633,32.8084,32.8084,53.498490229012,86.306890229012,31.824148,0,9.2666997716,11.3417982632,23,5,16.906,87.291142229012,33.792652,0.223694,9.2666997716,0,0,0.223694,41.1, -4.3, 1.7,0,0,1024,1024,959,364,0,0,-10,-100,33.2,0,0,99,4.221,4.225,4.231,4.226,0,0,6.817,77.72,86.306890229012,32.8084,6,P-GPS,
25200,2023-05-28 17:03:55,52.2063870069063,0.0867114139891899,32.8084,32.8084,53.498490229012,86.306890229012,31.824148,0,9.3191932116,11.4010502336,23,5,16.906,87.291142229012,33.792652,0.223694,9.3191932116,0,0,0.223694,29.3, -4.5, 3.7,0,0,1024,1024,985,364,0,0,-6,-100,21.2,0,0,99,4.221,4.225,4.231,4.226,0,0,6.817,77.72,86.306890229012,32.8084,6,P-GPS,
25400,2023-05-28 17:03:56,52.2063871788527,0.0867113517856502,32.8084,32.8084,53.498490229012,86.306890229012,31.824148,0,9.3709320584,11.4653218892,23,5,16.906,87.291142229012,33.792652,0.223694,9.3709320584,0,0,0,17, -4.1, 4.6,0,0,1024,1024,969,364,0,0,-8,-100,9.2,0,0,99,4.221,4.225,4.231,4.226,0,0,6.817,77.72,86.306890229012,32.8084,6,P-GPS,
25600,2023-05-28 17:03:56,52.206387425177,0.0867112570098717,32.8084,32.8084,53.498490229012,86.306890229012,31.824148,0,9.4448165752,11.5576447268,23,5,16.911,87.291142229012,33.792652,0.223694,9.4448165752,0,0,0,5.1, -1.8, 5.5,0,0,1024,1024,972,364,0,0,-8,-100,357.3,0,0,99,4.233,4.235,4.235,4.226,0,0,6.639,77.9,86.306890229012,32.8084,6,P-GPS,
25800,2023-05-28 17:03:56,52.2063876904791,0.0867111273517419,32.8084,32.8084,53.498490229012,86.306890229012,31.824148,0.223694,9.5223428244,11.6586945988,23,5,16.911,87.291142229012,33.792652,0.223694,9.5223428244,0,-0.223694,0,352.9, -0.4, 5.2,0,0,1024,1024,969,364,0,0,-8,-100,345.3,0,0,99,4.233,4.235,4.235,4.226,0,0,6.639,77.9,86.306890229012,32.8084,6,P-GPS,
26000,2023-05-28 17:03:56,52.2063879202522,0.0867108423533905,32.8084,32.8084,53.498490229012,86.306890229012,31.496064,0.223694,9.574967498,11.7639767544,23,5,16.911,87.291142229012,33.792652,0.223694,9.574967498,0,-0.223694,0,341.8, 1.6, 7.5,0,0,1024,1024,969,364,0,0,-8,-100,333.3,0,0,99,4.233,4.235,4.235,4.226,0,0,6.639,77.9,86.306890229012,32.8084,6,P-GPS,
26200,2023-05-28 17:03:56,52.2063880014087,0.086710549026751,33.136484,33.136484,53.498490229012,86.634974229012,31.16798,0.223694,9.5775265532,11.835958384,23,5,16.911,87.291142229012,33.792652,0.223694,9.5775265532,0,-0.223694,0,329.8, 1.9, 9.2,0,0,1024,1024,1024,1024,0,0,0,0,321.3,0,0,99,4.233,4.235,4.235,4.226,0,0,6.639,77.9,86.634974229012,33.136484,6,P-GPS,
26400,2023-05-28 17:03:57,52.2063880458645,0.0867104016129067,33.136484,33.136484,53.498490229012,86.634974229012,31.16798,0,9.5802496504,11.8726709836,23,5,16.911,87.291142229012,33.792652,0.223694,9.5802496504,0,0,0,318, 2.7, 9.6,0,0,1024,1024,1024,960,0,0,0,-10,311.5,0,0,99,4.233,4.235,4.235,4.226,0,0,6.639,77.9,86.634974229012,33.136484,6,P-GPS,
26600,2023-05-28 17:03:57,52.2063881345898,0.0867104950938339,33.136484,33.136484,53.498490229012,86.634974229012,30.839896,0,9.6180777356,11.9112208536,23,5,16.892,87.291142229012,33.792652,0.223694,9.6180777356,0,0,0,312, 2.9, 9.3,0,0,1024,1024,971,364,0,0,-8,-100,310.6,0,0,99,4.221,4.218,4.219,4.217,0,0,6.538,77.9,86.634974229012,33.136484,6,P-GPS,
26800,2023-05-28 17:03:57,52.2063882971855,0.0867107288468273,33.136484,33.136484,53.498490229012,86.634974229012,30.839896,0,9.6926512288,11.9902890976,23,5,16.892,87.291142229012,33.792652,0.223694,9.6926512288,0,0,0.223694,311.6, 4.8, 8.5,0,0,1024,1024,1024,1024,0,0,0,0,303,0,0,99,4.221,4.218,4.219,4.217,0,0,6.538,77.9,86.634974229012,33.136484,6,P-GPS,
27000,2023-05-28 17:03:57,52.206388473486,0.0867110680209898,33.464568,33.464568,53.498490229012,86.963058229012,30.839896,0,9.780840208,12.089731358,23,5,16.892,87.291142229012,33.792652,0.223694,9.780840208,0,0,0,300.8, 3.5, 5.8,0,0,1024,1024,1024,1024,0,0,0,0,298.8,0,0,99,4.221,4.218,4.219,4.217,0,0,6.538,77.9,86.963058229012,33.464568,6,P-GPS,
27200,2023-05-28 17:03:58,52.2063886685952,0.0867114553650198,33.464568,33.464568,53.498490229012,86.963058229012,30.839896,0,9.8796919172,12.2018376608,23,5,16.892,87.291142229012,33.792652,0.223694,9.8796919172,0,0,0,301, 5, 6.3,0,0,1024,1024,1024,1024,0,0,0,0,298.8,0,0,99,4.221,4.218,4.219,4.217,0,0,6.538,77.9,86.963058229012,33.464568,6,P-GPS,
27400,2023-05-28 17:03:58,52.2063888474615,0.0867118659709404,33.464568,33.464568,53.498490229012,86.963058229012,30.839896,0,9.9754268284,12.314468898,23,5,16.892,87.291142229012,33.792652,0.223694,9.9754268284,0,0,0,300.7, 5.7, 5.3,0,0,1024,1024,1024,1024,0,0,0,0,298.8,0,0,99,4.221,4.218,4.219,4.217,0,0,6.538,77.9,86.963058229012,33.464568,6,P-GPS,
27600,2023-05-28 17:03:58,52.2063889472617,0.0867123757317184,33.464568,33.464568,53.498490229012,86.963058229012,30.839896,0,10.053806096,12.4341211328,23,5,16.819,87.291142229012,33.792652,0.223694,10.053806096,0,0,0,300.4, 5, 4.9,0,0,1024,1024,1024,1024,0,0,0,0,298.8,0,0,99,4.219,4.215,4.218,4.216,0,0,7.2,77.9,86.963058229012,33.464568,6,P-GPS,
27800,2023-05-28 17:03:58,52.2063889717395,0.0867128597300224,33.464568,33.464568,53.498490229012,86.963058229012,30.839896,0,10.1055777512,12.5426841284,23,5,16.819,87.291142229012,33.792652,0.223694,10.1055777512,0,0,0,300.7, 4.9, 5.6,0,0,1024,1024,1024,1024,0,0,0,0,298.8,0,0,99,4.219,4.215,4.218,4.216,0,0,7.2,77.9,86.963058229012,33.464568,6,P-GPS,
28000,2023-05-28 17:03:58,52.2063889375254,0.0867132789088724,33.464568,33.464568,53.498490229012,86.963058229012,30.839896,0,10.132710298,12.6372379372,23,5,16.819,87.291142229012,33.792652,0.223694,10.132710298,0,0,0,300.6, 5.2, 5.9,0,0,1024,1024,1024,1024,0,0,0,0,298.8,0,0,99,4.219,4.215,4.218,4.216,0,0,7.2,77.9,86.963058229012,33.464568,6,P-GPS,
28200,2023-05-28 17:03:59,52.2063888818384,0.0867137059546869,33.792652,33.792652,53.498490229012,87.291142229012,30.839896,0,10.1543310336,12.7348757356,23,5,16.819,87.291142229012,33.792652,0.223694,10.1543310336,0,0,0,300.5, 5, 5.6,0,0,1024,1024,1024,1024,0,0,0,0,298.8,0,0,99,4.219,4.215,4.218,4.216,0,0,7.2,77.9,87.291142229012,33.792652,6,P-GPS,
28400,2023-05-28 17:03:59,52.2063887680806,0.086714118806065,33.792652,33.792652,53.498490229012,87.291142229012,30.839896,0.223694,10.156332346,12.8360896496,23,5,16.819,87.291142229012,33.792652,0.223694,10.156332346,-0.223694,0,0,300.5, 4.9, 6.3,0,0,1024,1024,1024,1024,0,0,0,0,298.8,0,0,99,4.219,4.215,4.218,4.216,0,0,7.2,77.9,87.291142229012,33.792652,6,P-GPS,
28600,2023-05-28 17:03:59,52.2063886233962,0.0867145608746014,33.792652,33.792652,53.498490229012,87.291142229012,30.839896,0.223694,10.1521328708,12.9481303356,23,5,16.871,87.291142229012,33.792652,0.223694,10.156332346,-0.223694,0,0,300.4, 4.3, 6.4,0,0,1024,1024,1024,1024,0,0,0,0,298.8,0,0,99,4.221,4.222,4.223,4.22,0,0,7.189,77.9,87.291142229012,33.792652,6,P-GPS,
28800,2023-05-28 17:03:59,52.2063885207496,0.0867150523501913,33.792652,33.792652,53.498490229012,87.291142229012,30.839896,0,10.1678480944,13.0642064548,23,5,16.871,87.291142229012,33.792652,0.223694,10.1678480944,0,0,0,300.6, 4.3, 5.5,0,0,1024,1024,1024,1024,0,0,0,0,298.8,0,0,99,4.221,4.222,4.223,4.22,0,0,7.189,77.9,87.291142229012,33.792652,6,P-GPS,
29000,2023-05-28 17:03:59,52.20638842395,0.0867154914795376,33.792652,33.792652,53.498490229012,87.291142229012,30.839896,0,10.1813323468,13.1685699752,23,5,16.871,87.291142229012,33.792652,0.223694,10.1813323468,0,0,0,300.5, 3.9, 6,0,0,1024,1024,1024,1024,0,0,0,0,298.8,0,0,99,4.221,4.222,4.223,4.22,0,0,7.189,77.9,87.291142229012,33.792652,6,P-GPS,
29200,2023-05-28 17:03:59,52.2063883456742,0.0867158667907116,33.792652,33.792652,53.498490229012,87.291142229012,31.16798,0,10.1951118748,13.257218272,23,5,16.871,87.291142229012,33.792652,0.223694,10.1951118748,0,0,0,300.6, 4.5, 6,0,0,1024,1024,1024,1024,0,0,0,0,298.8,0,0,99,4.221,4.222,4.223,4.22,0,0,7.189,77.9,87.291142229012,33.792652,6,P-GPS,
29400,2023-05-28 17:04:00,52.2063882880467,0.0867162013795975,33.792652,33.792652,53.498490229012,87.291142229012,31.16798,0,10.211942584,13.3349085632,23,5,16.871,87.291142229012,33.792652,0.223694,10.211942584,0,0,0,300.6, 4.7, 5.8,0,0,1024,1024,1024,1024,0,0,0,0,298.8,0,0,99,4.221,4.222,4.223,4.22,0,0,7.189,77.9,87.291142229012,33.792652,6,P-GPS,
29600,2023-05-28 17:04:00,52.2063881699412,0.0867165522371283,33.792652,33.792652,53.498490229012,87.291142229012,31.16798,0,10.211778542,13.4244098784,23,5,16.872,87.291142229012,33.792652,0.223694,10.211942584,0,0,0,300.4, 4.1, 6.9,0,0,1024,1024,1024,1024,0,0,0,0,298.8,0,0,99,4.216,4.221,4.221,4.221,0,0,7.107,77.9,87.291142229012,33.792652,6,P-GPS,
29800,2023-05-28 17:04:00,52.2063880464599,0.0867168970642517,33.792652,33.792652,53.498490229012,87.291142229012,31.16798,0,10.2100396968,13.5137143432,23,5,16.872,87.291142229012,33.792652,0.223694,10.211942584,0,0,0,300.4, 4.1, 6.9,0,0,1024,1024,1024,1024,0,0,0,0,298.8,-0.5,0,99,4.216,4.221,4.221,4.221,0,0,7.107,77.9,87.291142229012,33.792652,6,P-GPS,
30000,2023-05-28 17:04:00,52.2063879466447,0.0867172602604402,34.120736,34.120736,53.498490229012,87.619226229012,31.16798,0,10.2185698808,13.6027235324,23,5,16.872,87.619226229012,34.120736,0.223694,10.2185698808,0,0,0,300.3, 3.4, 7.1,0,0,1024,1024,1024,1024,0,0,0,0,298.8,-2.6,0,99,4.216,4.221,4.221,4.221,0,0,7.107,77.9,87.619226229012,34.120736,6,P-GPS,
30200,2023-05-28 17:04:00,52.2063878882184,0.0867176000706699,34.120736,34.120736,53.498490229012,87.619226229012,31.16798,0,10.2382877292,13.6816277344,23,5,16.872,87.619226229012,34.120736,0.223694,10.2382877292,0,0,0,300.1, 3.6, 6.8,0,0,1024,1024,1024,1024,0,0,0,0,298.8,-5.4,0,99,4.216,4.221,4.221,4.221,0,0,7.107,77.9,87.619226229012,34.120736,6,P-GPS,
30400,2023-05-28 17:04:01,52.2063878373053,0.0867178650626071,34.120736,34.120736,53.498490229012,87.619226229012,31.16798,0,10.2523625328,13.7437012272,23,5,16.872,87.619226229012,34.120736,0.223694,10.2523625328,0,0,0,299.4, 4, 7.4,0,0,1024,1024,1024,1024,0,0,0,0,298.8,-8.3,0,99,4.216,4.221,4.221,4.221,0,0,7.107,77.9,87.619226229012,34.120736,6,P-GPS,
30600,2023-05-28 17:04:01,52.2063877931942,0.0867180582156332,34.120736,34.120736,53.498490229012,87.619226229012,31.16798,0,10.260663058,13.7897970292,23,5,16.87,87.619226229012,34.120736,0.223694,10.260663058,0,0,0,298.5, 3.9, 7.8,0,0,1024,1024,1024,1024,0,0,0,0,298.8,-11.2,0,99,4.217,4.223,4.218,4.22,0,0,7.035,78.08,87.619226229012,34.120736,6,P-GPS,
30800,2023-05-28 17:04:01,52.206387770659,0.0867182415463118,34.120736,34.120736,53.498490229012,87.619226229012,31.16798,0,10.27477067,13.8315949308,23,5,16.87,87.619226229012,34.120736,0.223694,10.27477067,0,0,0,297.3, 3.9, 8.1,0,0,1024,1024,1024,1024,0,0,0,0,298.8,-14.1,0,99,4.217,4.223,4.218,4.22,0,0,7.035,78.08,87.619226229012,34.120736,6,P-GPS,
31000,2023-05-28 17:04:01,52.2063877896775,0.0867183488337442,34.120736,34.120736,53.498490229012,87.619226229012,31.16798,0,10.293143374,13.8565949316,23,5,16.87,87.619226229012,34.120736,0.223694,10.293143374,0,0,0,298.2, 5.7, 7.1,0,0,1024,1024,1024,1024,0,0,0,0,298.8,-17,0,99,4.217,4.223,4.218,4.22,0,0,7.035,78.08,87.619226229012,34.120736,6,P-GPS,
31200,2023-05-28 17:04:01,52.206387782734,0.0867184616605541,34.120736,34.120736,53.498490229012,87.619226229012,31.16798,0,10.3040685712,13.8819230164,23,5,16.87,87.619226229012,34.120736,0.223694,10.3040685712,0,0,0,299.7, 5.5, 7.7,0,0,1024,1024,1024,1024,0,0,0,0,298.8,-20,0,99,4.217,4.223,4.218,4.22,0,0,7.035,78.08,87.619226229012,34.120736,6,P-GPS,
31400,2023-05-28 17:04:02,52.2063877752851,0.0867185197768371,34.44882,34.44882,53.498490229012,87.947310229012,30.839896,0,10.3085305136,13.8952104184,23,5,16.87,87.947310229012,34.44882,0.223694,10.3085305136,0,0,0,300.4, 6.3, 8.3,0,0,1024,1024,1024,1024,0,0,0,0,298.8,-22.9,0,99,4.217,4.223,4.218,4.22,0,0,7.035,78.08,87.947310229012,34.44882,6,P-GPS,
31600,2023-05-28 17:04:02,52.2063877713015,0.0867185972617195,34.44882,34.44882,53.498490229012,87.947310229012,30.839896,0,10.3163389128,13.9125988704,23,5,16.875,87.947310229012,34.44882,0.223694,10.3163389128,0,0,0,300.4, 7, 8.3,0,0,1024,1024,1024,1024,0,0,0,0,298.8,-25.8,0,99,4.215,4.221,4.222,4.218,0,0,6.929,78.08,87.947310229012,34.44882,6,P-GPS,
31800,2023-05-28 17:04:02,52.2063877787504,0.0867187403995837,34.44882,34.44882,53.498490229012,87.947310229012,30.839896,0,10.3354334016,13.944718294,23,5,16.875,87.947310229012,34.44882,0.223694,10.3354334016,0,0,0,300.3, 6.3, 7.9,0,0,1024,1024,1024,1024,0,0,0,0,298.8,-28.7,0,99,4.215,4.221,4.222,4.218,0,0,6.929,78.08,87.947310229012,34.44882,6,P-GPS,
32000,2023-05-28 17:04:02,52.2063877951539,0.0867190243145238,34.44882,34.44882,53.498490229012,87.947310229012,30.511812,0,10.3739832716,14.0084650152,23,5,16.875,87.947310229012,34.44882,0.223694,10.3739832716,0,0,0,300.1, 5.2, 7.2,0,0,1024,1024,1024,1024,0,0,0,0,298.8,-31.7,0,99,4.215,4.221,4.222,4.218,0,0,6.929,78.08,87.947310229012,34.44882,6,P-GPS,
32200,2023-05-28 17:04:02,52.2063878071711,0.0867193779277639,34.44882,34.44882,53.498490229012,87.947310229012,30.839896,0,10.4197509896,14.0876644928,23,5,16.875,87.947310229012,34.44882,0.223694,10.4197509896,0,0,0,300.3, 5.1, 6.9,0,0,1024,1024,1024,1024,0,0,0,0,298.8,-34.6,0,99,4.215,4.221,4.222,4.218,0,0,6.929,78.08,87.947310229012,34.44882,6,P-GPS,
32400,2023-05-28 17:04:03,52.2063878313577,0.0867197524822974,34.44882,34.44882,53.498490229012,87.947310229012,30.839896,0,10.4722116212,14.1718836556,23,5,16.875,87.947310229012,34.44882,0.223694,10.4722116212,0,0,0,300, 4.3, 6.4,0,0,1024,1024,1024,1024,0,0,0,0,298.8,-37.5,0,99,4.215,4.221,4.222,4.218,0,0,6.929,78.08,87.947310229012,34.44882,6,P-GPS,
32600,2023-05-28 17:04:03,52.2063878461977,0.0867201327107611,34.44882,34.44882,53.498490229012,87.947310229012,30.839896,0,10.5228677908,14.257054262,23,5,16.856,87.947310229012,34.44882,0.223694,10.5228677908,0,0,0,300.2, 4.1, 5.7,0,0,1024,1024,1024,1024,0,0,0,0,298.8,-40.4,0,98,4.221,4.223,4.216,4.219,0,0,7.285,78.08,87.947310229012,34.44882,6,P-GPS,
32800,2023-05-28 17:04:03,52.2063878430129,0.0867204808877225,34.44882,34.44882,53.498490229012,87.947310229012,31.16798,0,10.5645672672,14.3349085952,23,5,16.856,87.947310229012,34.44882,0.223694,10.5645672672,0,0,0,300, 3.4, 5.5,0,0,1024,1024,1024,1024,0,0,0,0,298.8,-43.3,0,98,4.221,4.223,4.216,4.219,0,0,7.285,78.08,87.947310229012,34.44882,6,P-GPS,
33000,2023-05-28 17:04:03,52.2063878173079,0.0867207660800396,34.44882,34.44882,53.498490229012,87.947310229012,31.16798,0,10.592027898,14.3993771012,23,5,16.856,87.947310229012,34.44882,0.223694,10.592027898,0,0,0,300, 3.3, 5.8,0,0,1024,1024,1024,1024,0,0,0,0,298.8,-46.3,0,98,4.221,4.223,4.216,4.219,0,0,7.285,78.08,87.947310229012,34.44882,6,P-GPS,
33200,2023-05-28 17:04:03,52.2063877669752,0.086720959486444,34.44882,34.44882,53.498490229012,87.947310229012,31.16798,0,10.6008533576,14.4463259216,23,5,16.856,87.947310229012,34.44882,0.223694,10.6008533576,0,0,0,300, 2.9, 6,0,0,1024,1024,1024,1024,0,0,0,0,298.8,-49.2,0,98,4.221,4.223,4.216,4.219,0,0,7.285,78.08,87.947310229012,34.44882,6,P-GPS,
33400,2023-05-28 17:04:04,52.2063877220589,0.0867210579335891,34.44882,34.44882,53.498490229012,87.947310229012,31.16798,0,10.5996066384,14.4737865524,23,5,16.856,87.947310229012,34.44882,0.223694,10.6008533576,0,0,0,300, 3.7, 6.1,0,0,1024,1024,1024,1024,0,0,0,0,298.8,-52.1,0,98,4.221,4.223,4.216,4.219,0,0,7.285,78.08,87.947310229012,34.44882,6,P-GPS,
