time(millisecond),datetime(utc),latitude,longitude,height_above_takeoff(feet),height_above_ground_at_drone_location(feet),ground_elevation_at_drone_location(feet),altitude_above_seaLevel(feet),height_sonar(feet),speed(mph),distance(feet),mileage(feet),satellites,gpslevel,voltage(v),max_altitude(feet),max_ascent(feet),max_speed(mph),max_distance(feet), xSpeed(mph), ySpeed(mph), zSpeed(mph), compass_heading(degrees), pitch(degrees), roll(degrees),isPhoto,isVideo,rc_elevator,rc_aileron,rc_throttle,rc_rudder,rc_elevator(percent),rc_aileron(percent),rc_throttle(percent),rc_rudder(percent),gimbal_heading(degrees),gimbal_pitch(degrees),gimbal_roll(degrees),battery_percent,voltageCell1,voltageCell2,voltageCell3,voltageCell4,voltageCell5,voltageCell6,current(A),battery_temperature(f),altitude(feet),ascent(feet),flycStateRaw,flycState,message
687300,2023-05-30 18:27:11,52.2063836559707,0.0867154189436423,0,0,53.769751392548,53.868176592548,0,0,0,0,28,5,0,53.868176592548,0,0,0,0,0,0,2.1, 3.4, 0.6,0,0,1024,1024,1024,1024,0,0,0,0,350.4,0,0,21,3.69,3.696,3.697,3.697,0,0,0,94.28,53.868176592548,0,41,Motors_Started,
687500,2023-05-30 18:27:11,52.2063836508455,0.086715408512295,0,0,53.769751392548,53.868176592548,0,0,0.0029893537702,0.0029893537702,28,5,0,53.868176592548,0,0,0.0029893537702,0,0,0,2.1, 3.4, 0.6,0,0,1024,1024,1024,1024,0,0,0,0,350.4,0,0,21,3.69,3.696,3.697,3.697,0,0,0,94.28,53.868176592548,0,41,Motors_Started,"Setting new Return-To-Home altitude to 26m (85 ft). Data Recorder File Index is 25. Setting new Maximum Flight Altitude to 120m (394 ft)"
687700,2023-05-30 18:27:11,52.2063836648053,0.0867154005365387,0,0,53.769751392548,53.868176592548,0,0,5.1052166988,0.0083857286148,27,5,0,53.868176592548,0,0,5.1052166988,0,0,0,2.1, 3.4, 0.6,0,0,1024,1024,1024,1024,0,0,0,0,350.3,0,0,21,3.69,3.696,3.697,3.697,0,0,0,94.28,53.868176592548,0,41,Motors_Started,
687900,2023-05-30 18:27:11,52.2063836802557,0.086715420725595,0,0,53.769751392548,53.868176592548,0,0,5.0998033128,0.015607448006,27,5,0,53.868176592548,0,0,5.1052166988,0,0,0,2.2, 3.4, 0.6,0,0,1024,1024,1024,1024,0,0,0,0,350.3,0,0,21,3.69,3.696,3.697,3.697,0,0,0,94.28,53.868176592548,0,41,Motors_Started,
688100,2023-05-30 18:27:11,52.2063836901912,0.08671545093535,0,0,53.769751392548,53.868176592548,0,0,5.0965552812,0.0232731634744,27,5,0,53.868176592548,0,0,5.1052166988,0,0,0,2.1, 3.4, 0.6,0,0,1024,1024,1024,1024,0,0,0,0,350.3,0,0,21,3.69,3.696,3.697,3.697,0,0,0,94.28,53.868176592548,0,41,Motors_Started,
688300,2023-05-30 18:27:12,52.2063836948323,0.0867154759517112,0,0,53.769751392548,53.868176592548,0,0,5.0951773284,0.0291171925328,27,5,0,53.868176592548,0,0,5.1052166988,0,0,0,2.2, 3.4, 0.6,0,0,1024,1024,1024,1024,0,0,0,0,350.3,0,0,21,3.69,3.696,3.697,3.697,0,0,0,94.28,53.868176592548,0,41,Motors_Started,
688500,2023-05-30 18:27:12,52.206383693588,0.0867154831013649,0,0,53.769751392548,53.868176592548,0,0,5.0957350712,0.0307789708012,27,5,14.786,53.868176592548,0,0,5.1052166988,0,0,0,2.1, 3.4, 0.6,0,0,1024,1024,1024,1024,0,0,0,0,350.3,0,0,21,3.691,3.693,3.682,3.681,0,0,1.581,94.28,53.868176592548,0,41,Motors_Started,
688700,2023-05-30 18:27:12,52.206383687891,0.0867155006823659,0,0,53.769751392548,53.868176592548,0,0,5.0980316592,0.035225722912,27,5,14.786,53.868176592548,0,0,5.1052166988,0,0,0,2.2, 3.4, 0.6,0,0,1024,1024,1024,1024,0,0,0,0,350.3,0,0,21,3.691,3.693,3.682,3.681,0,0,1.581,94.28,53.868176592548,0,41,Motors_Started,
688900,2023-05-30 18:27:12,52.2063836784631,0.086715505815473,0,0,53.769751392548,53.868176592548,0,0,5.101542158,0.03885170728,28,5,14.786,53.868176592548,0,0,5.1052166988,0,0,0,2.2, 3.4, 0.6,0,0,1024,1024,1024,1024,0,0,0,0,350.3,0,0,21,3.691,3.693,3.682,3.681,0,0,1.581,94.28,53.868176592548,0,11,AutoTakeoff,
689100,2023-05-30 18:27:12,52.2063836620039,0.0867155013123183,0,0,53.769751392548,53.868176592548,0,0,5.1074804784,0.044940618236,28,5,14.786,53.868176592548,0,0,5.1074804784,0,0,0,2.2, 3.3, 0.5,0,0,1024,1024,1024,1024,0,0,0,0,350.3,0,0,21,3.691,3.693,3.682,3.681,0,0,1.581,94.28,53.868176592548,0,11,AutoTakeoff,
689300,2023-05-30 18:27:13,52.2063836257509,0.0867155171803906,0,0,53.769751392548,53.868176592548,0,0,5.1208663056,0.05863517248,28,5,14.786,53.868176592548,0,0,5.1208663056,0,0,0,2.2, 2.3, 0.5,0,0,1024,1024,1024,1024,0,0,0,0,350.3,0,0,21,3.691,3.693,3.682,3.681,0,0,1.581,94.28,53.868176592548,0,11,AutoTakeoff,
689500,2023-05-30 18:27:13,52.2063835537159,0.0867155429350455,0,0,53.769751392548,53.868176592548,0,0,5.1474411096,0.085540357068,28,5,14.687,53.868176592548,0,0,5.1474411096,0,0,-0.447388,2.5, -2.4, 0.6,0,0,1024,1024,1024,1024,0,0,0,0,350.3,0,0,21,3.66,3.67,3.673,3.677,0,0,4.224,94.28,53.868176592548,0,11,AutoTakeoff,
689700,2023-05-30 18:27:13,52.2063835980904,0.0867155878464561,0,0,53.769751392548,53.868176592548,0.328084,0,5.131889928,0.104591866864,28,5,14.687,53.868176592548,0,0,5.1474411096,0,0,-0.894776,2.6, 0.7, -0.2,0,0,1024,1024,1024,1024,0,0,0,0,350.3,0,0,21,3.66,3.67,3.673,3.677,0,0,4.224,94.28,53.868176592548,0,11,AutoTakeoff,
689900,2023-05-30 18:27:13,52.2063836487059,0.0867155420416664,0.328084,0.328084,53.769751392548,54.196260592548,0.328084,0,5.1128282476,0.125708337356,29,5,14.687,54.196260592548,0.328084,0,5.1474411096,0,0,-0.894776,2.6, 1.4, 0.1,0,0,1024,1024,1024,1024,0,0,0,0,350.3,0,0,21,3.66,3.67,3.673,3.677,0,0,4.224,94.28,54.196260592548,0.328084,11,AutoTakeoff,
690100,2023-05-30 18:27:13,52.2063836222042,0.0867154292657746,0.656168,0.656168,53.769751392548,54.524344592548,0.984252,0,5.121063156,0.152713915648,29,5,14.687,54.524344592548,0.656168,0,5.1474411096,0,0,-0.894776,2.5, 0.6, -0.4,0,0,1024,1024,1024,1024,0,0,0,0,350.3,0,0,21,3.66,3.67,3.673,3.677,0,0,4.224,94.28,54.524344592548,0.656168,11,AutoTakeoff,
690300,2023-05-30 18:27:14,52.2063835212752,0.086715200880079,0.984252,0.984252,53.769751392548,54.852428592548,1.312336,0,5.155347934,0.215670610576,29,5,14.687,54.852428592548,0.984252,0,5.155347934,0,0,-0.894776,2.9, -0.1, -0.2,0,0,1024,1024,1024,1024,0,0,0,0,350.3,0,0,21,3.66,3.67,3.673,3.677,0,0,4.224,94.28,54.852428592548,0.984252,11,AutoTakeoff,
690500,2023-05-30 18:27:14,52.2063833619562,0.0867149165574956,1.312336,1.312336,53.769751392548,55.180512592548,1.312336,0,5.2110565972,0.301810049028,29,5,14.76,55.180512592548,1.312336,0,5.2110565972,0,0,-0.894776,2.6, -2.8, 2.3,0,0,1024,1024,1024,1024,0,0,0,0,350.3,0,0,21,3.662,3.672,3.67,3.667,0,0,3.831,94.28,55.180512592548,1.312336,11,AutoTakeoff,"Home Point updated (Code: 3000001)"
690700,2023-05-30 18:27:14,52.2063833014867,0.0867147787897067,1.64042,1.64042,53.769751392548,55.508596592548,1.64042,0,5.2322508236,0.3396981736,29,5,14.76,55.508596592548,1.64042,0,5.2322508236,0,0,-1.11847,2.4, -2, 2.2,0,0,1024,1024,1024,1024,0,0,0,0,350.3,-0.1,0,21,3.662,3.672,3.67,3.667,0,0,3.831,94.28,55.508596592548,1.64042,11,AutoTakeoff,
690900,2023-05-30 18:27:14,52.2063833217924,0.0867149004792936,1.968504,1.968504,53.769751392548,55.836680592548,1.968504,0,5.2255907184,0.3678969934,29,5,14.76,55.836680592548,1.968504,0,5.2322508236,0,0,-1.11847,2.5, -1.4, 0.1,0,0,1024,1024,1024,1024,0,0,0,0,350.3,-0.2,0,21,3.662,3.672,3.67,3.667,0,0,3.831,94.28,55.836680592548,1.968504,11,AutoTakeoff,
691100,2023-05-30 18:27:14,52.2063833819943,0.0867151026870167,2.296588,2.296588,53.769751392548,56.164764592548,2.624672,0,5.205216702,0.41816274304,29,5,14.76,56.164764592548,2.296588,0,5.2322508236,0,0,-1.11847,2.3, -0.5, -0.9,0,0,1024,1024,1024,1024,0,0,0,0,350.3,-0.2,0,21,3.662,3.672,3.67,3.667,0,0,3.831,94.28,56.164764592548,2.296588,11,AutoTakeoff,
691300,2023-05-30 18:27:15,52.2063834196737,0.0867152018612669,2.624672,2.624672,53.769751392548,56.492848592548,2.952756,0,5.1923886176,0.44425198272,29,5,14.76,56.492848592548,2.624672,0,5.2322508236,0,0,-0.894776,2.4, -0.4, -1.3,0,0,1024,1024,1024,1024,0,0,0,0,350.3,-0.2,0,21,3.662,3.672,3.67,3.667,0,0,3.831,94.28,56.492848592548,2.624672,11,AutoTakeoff,
691500,2023-05-30 18:27:15,52.2063834153645,0.0867152290335331,2.952756,2.952756,53.769751392548,56.820932592548,3.28084,0,5.194225888,0.45052822964,29,5,14.618,56.820932592548,2.952756,0,5.2322508236,0,0,-1.11847,2.5, -1.3, -1.2,0,0,1024,1024,1024,1024,0,0,0,0,350.3,-0.2,0,21,3.639,3.653,3.654,3.652,0,0,6.988,94.28,56.820932592548,2.952756,11,AutoTakeoff,
691700,2023-05-30 18:27:15,52.2063833964145,0.086715130565249,3.28084,3.28084,53.769751392548,57.149016592548,3.608924,0,5.2001970168,0.47360237736,29,5,14.618,57.149016592548,3.28084,0,5.2322508236,0,0,-1.11847,2.5, -1.3, -0.4,0,0,1024,1024,1024,1024,0,0,0,0,350.3,-0.2,0,21,3.639,3.653,3.654,3.652,0,0,6.988,94.28,57.149016592548,3.28084,11,AutoTakeoff,
691900,2023-05-30 18:27:15,52.2063833910795,0.0867149007606315,3.608924,3.608924,53.769751392548,57.477100592548,3.937008,0,5.2003282504,0.52502298268,29,5,14.618,57.477100592548,3.608924,0,5.2322508236,0,0,-0.671082,1.8, -1.6, 1,0,0,1024,1024,1024,1024,0,0,0,0,350.3,-0.2,0,21,3.639,3.653,3.654,3.652,0,0,6.988,94.28,57.477100592548,3.608924,6,P-GPS,
692100,2023-05-30 18:27:15,52.2063833913708,0.0867146292544336,3.937008,3.937008,53.769751392548,57.805184592548,3.937008,0,5.1987206388,0.5857283652,29,5,14.618,57.805184592548,3.937008,0,5.2322508236,0,0,0,1.8, -1.9, 1.9,0,0,1024,1024,1024,1024,0,0,0,0,350.3,-0.2,0,21,3.639,3.653,3.654,3.652,0,0,6.988,94.28,57.805184592548,3.937008,6,P-GPS,
692300,2023-05-30 18:27:16,52.2063833814803,0.0867143980075222,3.937008,3.937008,53.769751392548,57.805184592548,3.937008,0,5.201607778,0.63755579468,29,5,14.618,57.805184592548,3.937008,0,5.2322508236,0,0,0,1.5, -1.9, 2.3,0,0,1024,1024,1024,1024,0,0,0,0,350.3,-0.2,0,21,3.639,3.653,3.654,3.652,0,0,6.988,94.28,57.805184592548,3.937008,6,P-GPS,
692500,2023-05-30 18:27:16,52.2063833581226,0.0867142922244513,3.937008,3.937008,53.769751392548,57.805184592548,3.937008,0,5.20997392,0.6626968716,29,5,14.605,57.805184592548,3.937008,0,5.2322508236,0,0,0,1.6, -2.7, 2.2,0,0,1024,1024,1024,1024,0,0,0,0,350.3,-0.2,0,21,3.642,3.654,3.656,3.655,0,0,8.132,94.1,57.805184592548,3.937008,6,P-GPS,
692700,2023-05-30 18:27:16,52.2063833601187,0.086714369794655,3.937008,3.937008,53.769751392548,57.805184592548,3.937008,0,5.2093505604,0.68005579604,29,5,14.605,57.805184592548,3.937008,0,5.2322508236,0,0,0,1.7, -2.4, 2.1,0,0,1024,1024,1024,1024,0,0,0,0,350.3,-0.2,0,21,3.642,3.654,3.656,3.655,0,0,8.132,94.1,57.805184592548,3.937008,6,P-GPS,
692900,2023-05-30 18:27:16,52.2063834027112,0.0867145875631194,3.937008,3.937008,53.769751392548,57.805184592548,3.937008,0,5.1944227384,0.73116472156,29,5,14.605,57.805184592548,3.937008,0,5.2322508236,0,0,0,1.9, -1.9, 0.7,0,0,1024,1024,1024,1024,0,0,0,0,350.3,-0.2,0,21,3.642,3.654,3.656,3.655,0,0,8.132,94.1,57.805184592548,3.937008,6,P-GPS,
693100,2023-05-30 18:27:16,52.2063834651576,0.0867147873473607,3.937008,3.937008,53.769751392548,57.805184592548,3.937008,0,5.1726051524,0.78130908012,29,5,14.605,57.805184592548,3.937008,0,5.2322508236,0,0,0,1.8, -1.4, 0.4,0,1,1024,1024,1024,1024,0,0,0,0,350.3,-0.2,0,21,3.642,3.654,3.656,3.655,0,0,8.132,94.1,57.805184592548,3.937008,6,P-GPS,
693300,2023-05-30 18:27:17,52.2063835301569,0.0867148964610536,3.937008,3.937008,53.769751392548,57.805184592548,3.937008,0,5.1495736556,0.81533139092,29,5,14.605,57.805184592548,3.937008,0,5.2322508236,0,0,0,1.6, -1.4, -0.1,0,1,1024,1024,1024,1024,0,0,0,0,350.3,-0.2,0,21,3.642,3.654,3.656,3.655,0,0,8.132,94.1,57.805184592548,3.937008,6,P-GPS,
693500,2023-05-30 18:27:17,52.2063835872768,0.0867148687833402,3.937008,3.937008,53.769751392548,57.805184592548,3.937008,0,5.1285434712,0.8370735176,29,5,14.605,57.805184592548,3.937008,0,5.2322508236,0,0,0,1.8, -0.9, 1.8,0,1,1024,1024,1024,1024,0,0,0,0,350.3,-0.2,0,21,3.642,3.654,3.656,3.655,0,0,8.132,94.1,57.805184592548,3.937008,6,P-GPS,
693700,2023-05-30 18:27:17,52.2063836347461,0.0867148433213816,3.937008,3.937008,53.769751392548,57.805184592548,3.937008,0,5.1110894024,0.85530186464,29,5,14.596,57.805184592548,3.937008,0,5.2322508236,0,0,0,1.9, -0.6, 2,0,1,1024,1024,1024,1024,0,0,0,0,350.3,-0.2,0,21,3.639,3.652,3.653,3.653,0,0,7.893,94.1,57.805184592548,3.937008,6,P-GPS,
693900,2023-05-30 18:27:17,52.2063835981954,0.086714930465813,3.937008,3.937008,53.769751392548,57.805184592548,3.937008,0,5.125000164,0.87891407012,29,5,14.596,57.805184592548,3.937008,0,5.2322508236,0,0,0,1.8, -1.8, 1.8,0,1,1024,1024,1024,1024,0,0,0,0,350.3,-0.2,0,21,3.639,3.652,3.653,3.653,0,0,7.893,94.1,57.805184592548,3.937008,6,P-GPS,
694100,2023-05-30 18:27:17,52.2063834653054,0.0867151854126075,3.937008,3.937008,53.769751392548,57.805184592548,3.937008,0.223694,5.1755907168,0.95374674968,29,5,14.596,57.805184592548,3.937008,0.223694,5.2322508236,0,0.223694,0,2.1, -2.6, 0.8,0,1,1024,1024,1024,1024,0,0,0,0,350.3,-0.2,0,21,3.639,3.652,3.653,3.653,0,0,7.893,94.1,57.805184592548,3.937008,6,P-GPS,
694300,2023-05-30 18:27:18,52.2063833255554,0.0867155323586606,3.937008,3.937008,53.769751392548,57.805184592548,3.937008,0,5.2304135532,1.04657811748,29,5,14.596,57.805184592548,3.937008,0.223694,5.2322508236,0,0,0,2, -3.6, -0.4,0,1,1024,1024,1024,1024,0,0,0,0,350.3,-0.2,0,21,3.639,3.652,3.653,3.653,0,0,7.893,94.1,57.805184592548,3.937008,6,P-GPS,
694500,2023-05-30 18:27:18,52.2063832544072,0.0867157859594888,3.937008,3.937008,53.769751392548,57.805184592548,3.937008,0,5.2598754964,1.10893704336,29,5,14.596,57.805184592548,3.937008,0.223694,5.2598754964,0,0,0,1.9, -3.4, -0.8,0,1,1024,1024,1024,1024,0,0,0,0,350.3,-0.2,0,21,3.639,3.652,3.653,3.653,0,0,7.893,94.1,57.805184592548,3.937008,6,P-GPS,
694700,2023-05-30 18:27:18,52.2063832646061,0.0867158654789627,3.937008,3.937008,53.769751392548,57.805184592548,3.937008,0,5.257382058,1.12710305444,29,5,14.599,57.805184592548,3.937008,0.223694,5.2598754964,0,0,0,1.9, -2.6, 0.4,0,1,1024,1024,1024,1024,0,0,0,0,350.3,-0.2,0,21,3.638,3.651,3.652,3.651,0,0,7.873,94.28,57.805184592548,3.937008,6,P-GPS,
694900,2023-05-30 18:27:18,52.2063833050334,0.086715905317553,3.937008,3.937008,53.769751392548,57.805184592548,3.937008,0,5.2433400628,1.14433402612,29,5,14.599,57.805184592548,3.937008,0.223694,5.2598754964,0,0,0,2.1, -2.5, 0.9,0,1,1024,1024,1024,1024,0,0,0,0,350.3,-0.2,0,21,3.638,3.651,3.652,3.651,0,0,7.873,94.28,57.805184592548,3.937008,6,P-GPS,
695100,2023-05-30 18:27:18,52.2063833899358,0.086716024853856,3.937008,3.937008,53.769751392548,57.805184592548,3.937008,0,5.2144686708,1.18524610092,29,5,14.599,57.805184592548,3.937008,0.223694,5.2598754964,0,0,0,2, -1.1, -0.4,0,1,1024,1024,1024,1024,0,0,0,0,350.3,-0.2,0,21,3.638,3.651,3.652,3.651,0,0,7.873,94.28,57.805184592548,3.937008,6,P-GPS,
695300,2023-05-30 18:27:19,52.2063834529412,0.0867160209168721,3.937008,3.937008,53.769751392548,57.805184592548,4.265092,0,5.1914699824,1.208251351,29,5,14.599,57.805184592548,3.937008,0.223694,5.2598754964,0,0,0,1.7, -1.3, 0.1,0,1,1024,1024,1024,1024,0,0,0,0,350.3,-0.2,0,21,3.638,3.651,3.652,3.651,0,0,7.873,94.28,57.805184592548,3.937008,6,P-GPS,
695500,2023-05-30 18:27:19,52.206383447786,0.0867157871346427,3.937008,3.937008,53.769751392548,57.805184592548,4.265092,0.223694,5.1895014784,1.26055450228,29,5,14.599,57.805184592548,3.937008,0.223694,5.2598754964,0,-0.223694,0,1.8, -2, 2.2,0,1,1024,1024,1024,1024,0,0,0,0,350.3,-0.2,0,21,3.638,3.651,3.652,3.651,0,0,7.873,94.28,57.805184592548,3.937008,6,P-GPS,
695700,2023-05-30 18:27:19,52.2063833727806,0.0867154667304666,3.937008,3.937008,53.769751392548,57.805184592548,3.937008,0,5.2124017416,1.33724085644,29,5,14.594,57.805184592548,3.937008,0.223694,5.2598754964,0,0,0,1.9, -3, 3.7,0,1,1024,1024,1024,1024,0,0,0,0,350.3,-0.2,0,21,3.639,3.65,3.652,3.65,0,0,7.983,94.28,57.805184592548,3.937008,6,P-GPS,
695900,2023-05-30 18:27:19,52.2063832777885,0.086715283398598,3.937008,3.937008,53.769751392548,57.805184592548,3.937008,0,5.244914866,1.39092196052,29,5,14.594,57.805184592548,3.937008,0.223694,5.2598754964,0,0,0,1.8, -3.9, 3.7,0,1,1024,1024,1024,1024,0,0,0,0,350.3,-0.2,0,21,3.639,3.65,3.652,3.65,0,0,7.983,94.28,57.805184592548,3.937008,6,P-GPS,
696100,2023-05-30 18:27:19,52.2063832479413,0.0867152712128202,3.937008,3.937008,53.769751392548,57.805184592548,4.265092,0,5.2556760212,1.40214571416,29,5,14.594,57.805184592548,3.937008,0.223694,5.2598754964,0,0,0,2, -2.7, 3.3,0,1,1024,1024,1024,1024,0,0,0,0,350.3,-0.2,0,21,3.639,3.65,3.652,3.65,0,0,7.983,94.28,57.805184592548,3.937008,6,P-GPS,
696300,2023-05-30 18:27:20,52.2063832416254,0.0867153526470523,3.937008,3.937008,53.769751392548,57.805184592548,4.265092,0,5.258858436,1.42049873312,29,5,14.594,57.805184592548,3.937008,0.223694,5.2598754964,0,0,0,2.4, -3.7, 3.8,0,1,1024,1024,1024,1024,0,0,0,0,350.3,-0.2,0,21,3.639,3.65,3.652,3.65,0,0,7.983,94.28,57.805184592548,3.937008,6,P-GPS,
696500,2023-05-30 18:27:20,52.2063832621753,0.0867156522619262,3.937008,3.937008,53.769751392548,57.805184592548,4.265092,0.223694,5.2551182784,1.48790687176,29,5,14.594,57.805184592548,3.937008,0.223694,5.2598754964,0,0.223694,0,2.2, -3.3, 1.5,0,1,1024,1024,1024,1024,0,0,0,0,350.3,-0.2,0,21,3.639,3.65,3.652,3.65,0,0,7.983,94.28,57.805184592548,3.937008,6,P-GPS,
696700,2023-05-30 18:27:20,52.2063832643084,0.0867160358622956,3.937008,3.937008,53.769751392548,57.805184592548,4.265092,0.223694,5.2603676224,1.57367787188,29,5,14.588,57.805184592548,3.937008,0.223694,5.2603676224,0,0.223694,0,1.8, -2.8, -1.2,0,1,1024,1024,1024,1024,0,0,0,0,350.3,-0.2,0,21,3.639,3.648,3.652,3.649,0,0,7.986,94.28,57.805184592548,3.937008,6,P-GPS,
696900,2023-05-30 18:27:20,52.2063832313108,0.0867162198905194,3.937008,3.937008,53.769751392548,57.805184592548,4.265092,0,5.275754762,1.61654860816,29,5,14.588,57.805184592548,3.937008,0.223694,5.275754762,0,0,0,2, -3.6, -0.2,0,1,1024,1024,1024,1024,0,0,0,0,350.3,-0.2,0,21,3.639,3.648,3.652,3.649,0,0,7.986,94.28,57.805184592548,3.937008,6,P-GPS,
697100,2023-05-30 18:27:20,52.2063832196619,0.0867162729576727,3.937008,3.937008,53.769751392548,57.805184592548,4.265092,0,5.281004106,1.62915359544,29,5,14.588,57.805184592548,3.937008,0.223694,5.281004106,0,0,0,2, -4.1, 0.8,0,1,1024,1024,1024,1024,0,0,0,0,350.3,-0.2,0,21,3.639,3.648,3.652,3.649,0,0,7.986,94.28,57.805184592548,3.937008,6,P-GPS,
697300,2023-05-30 18:27:21,52.206383253452,0.0867162838197641,3.937008,3.937008,53.769751392548,57.805184592548,4.265092,0,5.2689306148,1.64171921264,29,5,14.588,57.805184592548,3.937008,0.223694,5.281004106,0,0,0,1.7, -4, 0,0,1,1024,1024,1024,1024,0,0,0,0,350.3,-0.2,0,21,3.639,3.648,3.652,3.649,0,0,7.986,94.28,57.805184592548,3.937008,6,P-GPS,
697500,2023-05-30 18:27:21,52.2063833316465,0.0867162763376599,3.937008,3.937008,53.769751392548,57.805184592548,4.265092,0,5.2403873068,1.67029532904,29,5,14.588,57.805184592548,3.937008,0.223694,5.281004106,0,0,0,2, -3.3, 0.5,0,1,1024,1024,1024,1024,0,0,0,0,350.3,-0.2,0,21,3.639,3.648,3.652,3.649,0,0,7.986,94.28,57.805184592548,3.937008,6,P-GPS,
697700,2023-05-30 18:27:21,52.2063834233018,0.0867162706672147,3.937008,3.937008,53.769751392548,57.805184592548,4.265092,0,5.2069555472,1.70375989704,29,5,14.592,57.805184592548,3.937008,0.223694,5.281004106,0,0,0,2, -3.2, -0.2,0,1,1024,1024,1024,1024,0,0,0,0,350.3,-0.2,0,21,3.635,3.648,3.651,3.649,0,0,7.917,94.28,57.805184592548,3.937008,6,P-GPS,
697900,2023-05-30 18:27:21,52.2063834715657,0.0867162083901752,3.608924,3.608924,53.769751392548,57.477100592548,4.265092,0,5.1881891424,1.72621068516,29,5,14.592,57.805184592548,3.937008,0.223694,5.281004106,0,0,0,2, -3.3, -0.2,0,1,1024,1024,1052,1024,0,0,4,0,350.3,-0.2,0,21,3.635,3.648,3.651,3.649,0,0,7.917,94.28,57.477100592548,3.608924,6,P-GPS,
698100,2023-05-30 18:27:21,52.2063834897168,0.086716106560252,3.608924,3.608924,53.769751392548,57.477100592548,4.265092,0,5.1796589584,1.74992131584,29,5,14.592,57.805184592548,3.937008,0.223694,5.281004106,0,0,0,2, -4, 0,0,1,1024,1024,1250,1024,0,0,34,0,350.3,-0.2,0,21,3.635,3.648,3.651,3.649,0,0,7.917,94.28,57.477100592548,3.608924,6,P-GPS,
698300,2023-05-30 18:27:22,52.2063835480382,0.0867159736306896,3.937008,3.937008,53.769751392548,57.805184592548,4.265092,0,5.1560697188,1.78647315428,29,5,14.592,57.805184592548,3.937008,0.223694,5.281004106,0,0,0,2, -3.1, 0.3,0,1,1024,1024,1542,1024,0,0,78,0,350.3,-0.2,0,21,3.635,3.648,3.651,3.649,0,0,7.917,94.28,57.805184592548,3.937008,6,P-GPS,
698500,2023-05-30 18:27:22,52.2063836165157,0.0867158657332154,4.265092,4.265092,53.769751392548,58.133268592548,4.593176,0,5.1293308728,1.82120412652,29,5,14.592,58.133268592548,4.265092,0.223694,5.281004106,0,0,-1.789552,2, -2.1, 0.2,0,1,1024,1024,1461,1024,0,0,66,0,350.3,-0.2,0,21,3.635,3.648,3.651,3.649,0,0,7.917,94.28,58.133268592548,4.265092,6,P-GPS,
698700,2023-05-30 18:27:22,52.2063836554609,0.0867157682766994,5.249344,5.249344,53.769751392548,59.117520592548,5.577428,0,5.1136156492,1.84721790688,29,5,14.58,59.117520592548,5.249344,0.223694,5.281004106,0,0,-4.250186,2.1, -3.1, 0.8,0,1,1024,1024,1496,1024,0,0,72,0,350.3,-0.2,0,21,3.606,3.618,3.621,3.616,0,0,8.062,94.28,59.117520592548,5.249344,6,P-GPS,
698900,2023-05-30 18:27:22,52.2063837270803,0.0867157289483619,6.56168,6.56168,53.769751392548,60.429856592548,7.217848,0,5.08694242,1.87479008624,29,5,14.58,60.429856592548,6.56168,0.223694,5.281004106,0,0,-5.368656,1.8, -3.9, 0.4,0,1,1024,1024,1446,1024,0,0,64,0,350.3,-0.2,0,21,3.606,3.618,3.621,3.616,0,0,8.062,94.28,60.429856592548,6.56168,6,P-GPS,
699100,2023-05-30 18:27:22,52.2063838151354,0.0867156883422083,8.2021,8.2021,53.769751392548,62.070276592548,8.858268,0,5.054298062,1.90817263324,29,5,14.58,62.070276592548,8.2021,0.223694,5.281004106,0,0,-6.039738,1.7, -2.4, 0.9,0,1,1024,1024,1024,1024,0,0,0,0,350.3,-0.2,0,21,3.606,3.618,3.621,3.616,0,0,8.062,94.28,62.070276592548,8.2021,6,P-GPS,
699300,2023-05-30 18:27:23,52.2063838153924,0.0867155507260099,9.84252,9.84252,53.769751392548,63.710696592548,10.826772,0,5.0522639412,1.9389436316,29,5,14.58,63.710696592548,9.84252,0.223694,5.281004106,0,0,-4.697574,1.9, -4.4, 2.1,0,1,1024,1024,1024,1024,0,0,0,0,350.3,-0.2,0,21,3.606,3.618,3.621,3.616,0,0,8.062,94.28,63.710696592548,9.84252,6,P-GPS,
699500,2023-05-30 18:27:23,52.20638371015,0.0867152955651539,11.154856,11.154856,53.769751392548,65.023032592548,11.811024,0.223694,5.0875001628,2.00771331884,29,5,14.58,65.023032592548,11.154856,0.223694,5.281004106,0,-0.223694,-2.460634,1.5, -5.6, 3.9,0,0,1024,1024,1024,1024,0,0,0,0,350.3,-0.2,0,21,3.606,3.618,3.621,3.616,0,0,8.062,94.28,65.023032592548,11.154856,6,P-GPS,
699700,2023-05-30 18:27:23,52.2063835471944,0.0867150252024375,11.48294,11.48294,53.769751392548,65.351116592548,12.139108,0.223694,5.1443243116,2.09250006696,29,5,14.526,65.351116592548,11.48294,0.223694,5.281004106,0,-0.223694,-0.671082,1.7, -5.4, 4.9,0,0,1024,1024,1013,1024,0,0,-2,0,350.3,-0.2,0,21,3.65,3.666,3.674,3.671,0,0,11.413,94.28,65.351116592548,11.48294,6,P-GPS,
699900,2023-05-30 18:27:23,52.2063834004795,0.0867149075988039,11.48294,11.48294,53.769751392548,65.351116592548,12.139108,0,5.1969489852,2.15213917648,29,5,14.526,65.351116592548,11.48294,0.223694,5.281004106,0,0,0,2, -4.9, 4.3,0,0,1024,1024,993,1024,0,0,-5,0,350.3,-0.2,0,21,3.65,3.666,3.674,3.671,0,0,11.413,94.28,65.351116592548,11.48294,6,P-GPS,
700100,2023-05-30 18:27:23,52.2063833127715,0.0867150136566599,11.48294,11.48294,53.769751392548,65.351116592548,12.139108,0,5.2296917684,2.19196529324,29,5,14.526,65.351116592548,11.48294,0.223694,5.281004106,0,0,0,2, -4.2, 3.2,0,0,1024,1024,611,1024,0,0,-63,0,350.3,-0.2,0,21,3.65,3.666,3.674,3.671,0,0,11.413,94.28,65.351116592548,11.48294,6,P-GPS,
700300,2023-05-30 18:27:24,52.2063832371192,0.086715238016689,11.48294,11.48294,53.769751392548,65.351116592548,11.811024,0,5.2592849452,2.24922251292,29,5,14.526,65.351116592548,11.48294,0.223694,5.281004106,0,0,0.223694,1.9, -5.9, 2.7,0,0,1024,1024,1024,1024,0,0,0,0,350.3,-0.2,0,21,3.65,3.666,3.674,3.671,0,0,11.413,94.28,65.351116592548,11.48294,6,P-GPS,
700500,2023-05-30 18:27:24,52.2063831981997,0.086715504515814,11.154856,11.154856,53.769751392548,65.023032592548,11.811024,0,5.2764437384,2.31047579572,29,5,14.526,65.351116592548,11.48294,0.223694,5.281004106,0,0,0.671082,1.8, -5.3, 1.7,0,0,1024,1024,1024,1024,0,0,0,0,350.3,-0.2,0,21,3.65,3.666,3.674,3.671,0,0,11.413,94.28,65.023032592548,11.154856,6,P-GPS,
700700,2023-05-30 18:27:24,52.2063832279397,0.0867157221355274,11.154856,11.154856,53.769751392548,65.023032592548,11.48294,0,5.2685697224,2.36032815952,29,5,14.605,65.351116592548,11.48294,0.223694,5.281004106,0,0,0.223694,1.8, -3.9, 1,0,0,1024,1024,1024,1024,0,0,0,0,350.3,-0.2,0,21,3.642,3.655,3.661,3.659,0,0,5.805,94.28,65.023032592548,11.154856,6,P-GPS,
700900,2023-05-30 18:27:24,52.206383299452,0.0867158090401226,11.154856,11.154856,53.769751392548,65.023032592548,11.48294,0,5.2438321888,2.39286096896,29,5,14.605,65.351116592548,11.48294,0.223694,5.281004106,0,0,0,2, -3.4, 2.2,0,0,1024,1024,475,1024,0,0,-83,0,350.3,-0.2,0,21,3.642,3.655,3.661,3.659,0,0,5.805,94.28,65.023032592548,11.154856,6,P-GPS,
701100,2023-05-30 18:27:24,52.2063833575529,0.0867158550170352,11.154856,11.154856,53.769751392548,65.023032592548,11.48294,0,5.2233925556,2.416420681,29,5,14.605,65.351116592548,11.48294,0.223694,5.281004106,0,0,0,1.9, -3.4, 2.7,0,0,1024,1024,1024,1024,0,0,0,0,350.3,-0.2,0,21,3.642,3.655,3.661,3.659,0,0,5.805,94.28,65.023032592548,11.154856,6,P-GPS,
701300,2023-05-30 18:27:25,52.2063833572402,0.0867159082100042,10.826772,10.826772,53.769751392548,64.694948592548,11.48294,0,5.2243768076,2.428313726,29,5,14.605,65.351116592548,11.48294,0.223694,5.281004106,0,0,1.11847,2, -4.7, 3.5,0,0,1024,1024,1024,1024,0,0,0,0,350.3,-0.2,0,21,3.642,3.655,3.661,3.659,0,0,5.805,94.28,64.694948592548,10.826772,6,P-GPS,
701500,2023-05-30 18:27:25,52.2063833704803,0.0867160164491031,10.498688,10.498688,53.769751392548,64.366864592548,11.154856,0,5.2213912432,2.45299220448,29,5,14.605,65.351116592548,11.48294,0.223694,5.281004106,0,0,0.671082,2, -2.9, 0.7,0,0,1024,1024,1024,1024,0,0,0,0,350.3,-0.2,0,21,3.642,3.655,3.661,3.659,0,0,5.805,94.28,64.366864592548,10.498688,6,P-GPS,
701700,2023-05-30 18:27:25,52.2063833562635,0.0867159771500352,10.498688,10.498688,53.769751392548,64.366864592548,10.826772,0,5.225885994,2.46319561688,29,5,14.579,65.351116592548,11.48294,0.223694,5.281004106,0,0,0,1.8, -3.5, 3.6,0,0,1024,1024,1024,1024,0,0,0,0,350.3,-0.2,0,21,3.625,3.627,3.634,3.637,0,0,7.693,94.28,64.366864592548,10.498688,6,P-GPS,
701900,2023-05-30 18:27:25,52.2063832711855,0.0867160284832904,10.170604,10.170604,53.769751392548,64.038780592548,10.826772,0,5.2577429504,2.49628944996,29,5,14.579,65.351116592548,11.48294,0.223694,5.281004106,0,0,0,2.1, -4.2, 3.7,0,0,1024,1024,1024,1024,0,0,0,0,350.3,-0.2,0,21,3.625,3.627,3.634,3.637,0,0,7.693,94.28,64.038780592548,10.170604,6,P-GPS,
702100,2023-05-30 18:27:25,52.2063831443609,0.0867162867043519,10.170604,10.170604,53.769751392548,64.038780592548,10.826772,0,5.3086287788,2.57027895364,29,5,14.579,65.351116592548,11.48294,0.223694,5.3086287788,0,0,0,2, -5, 1,0,0,1024,1024,1024,1024,0,0,0,0,350.3,-0.2,0,21,3.625,3.627,3.634,3.637,0,0,7.693,94.28,64.038780592548,10.170604,6,P-GPS,
702300,2023-05-30 18:27:26,52.2063830428279,0.0867165444846214,10.170604,10.170604,53.769751392548,64.038780592548,11.154856,0,5.3509188064,2.63879273536,29,5,14.579,65.351116592548,11.48294,0.223694,5.3509188064,0,0,0,2, -6.2, 0.9,0,1,1024,1024,1024,1024,0,0,0,0,350.3,-0.2,0,21,3.625,3.627,3.634,3.637,0,0,7.693,94.28,64.038780592548,10.170604,6,P-GPS,
702500,2023-05-30 18:27:26,52.2063830253579,0.0867167998818188,10.170604,10.170604,53.769751392548,64.038780592548,11.154856,0,5.3631563396,2.69625008628,29,5,14.579,65.351116592548,11.48294,0.223694,5.3631563396,0,0,0,1.8, -5.2, 0.4,0,1,1024,1024,1024,1024,0,0,0,0,350.3,-0.2,0,21,3.625,3.627,3.634,3.637,0,0,7.693,94.28,64.038780592548,10.170604,6,P-GPS,
702700,2023-05-30 18:27:26,52.2063831046725,0.0867169484955353,10.170604,10.170604,53.769751392548,64.038780592548,10.826772,0,5.3381235304,2.74031504832,29,5,14.554,65.351116592548,11.48294,0.223694,5.3631563396,0,0,0,1.8, -3.5, 0.2,0,1,1024,1024,1024,1024,0,0,0,0,350.3,-0.2,0,21,3.635,3.648,3.648,3.644,0,0,8.167,94.46,64.038780592548,10.170604,6,P-GPS,
702900,2023-05-30 18:27:26,52.2063832112471,0.0867169224280885,10.170604,10.170604,53.769751392548,64.038780592548,10.826772,0,5.2988518756,2.77963263488,29,5,14.554,65.351116592548,11.48294,0.223694,5.3631563396,0,0,0,1.8, -2.8, 1.3,0,1,1024,1024,1024,1024,0,0,0,0,350.3,-0.2,0,21,3.635,3.648,3.648,3.644,0,0,8.167,94.46,64.038780592548,10.170604,6,P-GPS,
703100,2023-05-30 18:27:26,52.2063832764392,0.0867167631283351,10.170604,10.170604,53.769751392548,64.038780592548,10.826772,0,5.2711943944,2.82246072024,29,5,14.554,65.351116592548,11.48294,0.223694,5.3631563396,0,0,0,2.1, -2.6, 2.6,0,1,1024,1024,1024,1024,0,0,0,0,350.3,-0.2,0,21,3.635,3.648,3.648,3.644,0,0,8.167,94.46,64.038780592548,10.170604,6,P-GPS,
703300,2023-05-30 18:27:27,52.2063832756531,0.0867167106863287,10.170604,10.170604,53.769751392548,64.038780592548,11.154856,0,5.2702101424,2.83418972324,29,5,14.554,65.351116592548,11.48294,0.223694,5.3631563396,0,0,0,1.9, -3.1, 2.1,0,1,1024,1024,1024,1024,0,0,0,0,350.3,-0.2,0,21,3.635,3.648,3.648,3.644,0,0,8.167,94.46,64.038780592548,10.170604,6,P-GPS,
703500,2023-05-30 18:27:27,52.2063832020719,0.0867168113201288,10.170604,10.170604,53.769751392548,64.038780592548,11.154856,0,5.2993440016,2.86921925192,29,5,14.554,65.351116592548,11.48294,0.223694,5.3631563396,0,0,0,2, -3.6, 1.2,0,1,1024,1024,1024,1024,0,0,0,0,350.3,-0.2,0,21,3.635,3.648,3.648,3.644,0,0,8.167,94.46,64.038780592548,10.170604,6,P-GPS,
703700,2023-05-30 18:27:27,52.2063831071034,0.0867169776913378,10.170604,10.170604,53.769751392548,64.038780592548,11.154856,0,5.3380251052,2.92005258688,29,5,14.574,65.351116592548,11.48294,0.223694,5.3631563396,0,0,0,1.9, -4.5, -0.3,0,1,1024,1024,1024,1024,0,0,0,0,350.3,-0.2,0,21,3.633,3.647,3.646,3.645,0,0,8.051,94.46,64.038780592548,10.170604,6,P-GPS,
703900,2023-05-30 18:27:27,52.2063831052572,0.0867169885765829,10.170604,10.170604,53.769751392548,64.038780592548,11.154856,0,5.3389765488,2.92257883368,29,5,14.574,65.351116592548,11.48294,0.223694,5.3631563396,0,0,0,1.8, -3.5, -0.4,0,1,1024,1024,1024,1024,0,0,0,0,350.3,-0.2,0,21,3.633,3.647,3.646,3.645,0,0,8.051,94.46,64.038780592548,10.170604,6,P-GPS,
704100,2023-05-30 18:27:27,52.2063831428638,0.0867167475612595,10.170604,10.170604,53.769751392548,64.038780592548,11.154856,0,5.3192915088,2.97818579084,29,5,14.574,65.351116592548,11.48294,0.223694,5.3631563396,0,0,0,1.8, -3.2, 2,0,1,1024,1024,1024,1024,0,0,0,0,350.3,-0.2,0,21,3.633,3.647,3.646,3.645,0,0,8.051,94.46,64.038780592548,10.170604,6,P-GPS,
704300,2023-05-30 18:27:28,52.2063831651571,0.0867164511839564,10.170604,10.170604,53.769751392548,64.038780592548,11.154856,0,5.304462112,3.04495088484,29,5,14.574,65.351116592548,11.48294,0.223694,5.3631563396,0,0,0,1.9, -2.5, 3.3,0,1,1024,1024,1024,1024,0,0,0,0,350.3,-0.2,0,21,3.633,3.647,3.646,3.645,0,0,8.051,94.46,64.038780592548,10.170604,6,P-GPS,
704500,2023-05-30 18:27:28,52.2063831316733,0.0867162696235558,10.170604,10.170604,53.769751392548,64.038780592548,11.154856,0,5.3129266792,3.08734261848,29,5,14.574,65.351116592548,11.48294,0.223694,5.3631563396,0,0,0,2.1, -3.5, 2.8,0,1,1024,1024,1024,1024,0,0,0,0,350.3,-0.2,0,21,3.633,3.647,3.646,3.645,0,0,8.051,94.46,64.038780592548,10.170604,6,P-GPS,
704700,2023-05-30 18:27:28,52.2063830706597,0.0867162432800133,10.170604,10.170604,53.769751392548,64.038780592548,11.154856,0,5.3345802232,3.11037083444,29,5,14.571,65.351116592548,11.48294,0.223694,5.3631563396,0,0,0,2.1, -3.9, 2.3,0,1,1024,1024,1024,1024,0,0,0,0,350.3,-0.2,0,21,3.631,3.646,3.647,3.645,0,0,8.056,94.64,64.038780592548,10.170604,6,P-GPS,
704900,2023-05-30 18:27:28,52.2063830112567,0.0867163627119068,10.170604,10.170604,53.769751392548,64.038780592548,11.154856,0,5.3585303552,3.14476059932,29,5,14.571,65.351116592548,11.48294,0.223694,5.3631563396,0,0,0,2, -3.8, 1,0,1,1024,1024,1024,1024,0,0,0,0,350.3,-0.2,0,21,3.631,3.646,3.647,3.645,0,0,8.056,94.64,64.038780592548,10.170604,6,P-GPS,
705100,2023-05-30 18:27:29,52.2063829538198,0.0867165293779965,10.170604,10.170604,53.769751392548,64.038780592548,11.154856,0,5.3829069964,3.18751322536,29,5,14.571,65.351116592548,11.48294,0.223694,5.3829069964,0,0,0,2, -3.9, 0.3,0,1,1024,1024,1024,1024,0,0,0,0,350.3,-0.2,0,21,3.631,3.646,3.647,3.645,0,0,8.056,94.64,64.038780592548,10.170604,6,P-GPS,
705300,2023-05-30 18:27:29,52.2063829083124,0.0867166564322264,10.170604,10.170604,53.769751392548,64.038780592548,11.154856,0,5.402231144,3.22041676972,29,5,14.571,65.351116592548,11.48294,0.223694,5.402231144,0,0,0,2.1, -3.7, 0.1,0,1,1024,1024,1024,1024,0,0,0,0,350.3,-0.2,0,21,3.631,3.646,3.647,3.645,0,0,8.056,94.64,64.038780592548,10.170604,6,P-GPS,
705500,2023-05-30 18:27:29,52.2063829125808,0.0867167168644054,10.170604,10.170604,53.769751392548,64.038780592548,11.154856,0,5.4020999104,3.23401913236,29,5,14.571,65.351116592548,11.48294,0.223694,5.402231144,0,0,0,2, -3.2, 0.2,0,1,1024,1024,1024,1024,0,0,0,0,350.3,-0.2,0,21,3.631,3.646,3.647,3.645,0,0,8.056,94.64,64.038780592548,10.170604,6,P-GPS,
705700,2023-05-30 18:27:29,52.2063829491509,0.0867167344371061,10.170604,10.170604,53.769751392548,64.038780592548,11.154856,0,5.3892390176,3.24792661312,29,5,14.568,65.351116592548,11.48294,0.223694,5.402231144,0,0,0,2.4, -2.9, 0,0,1,1024,1024,1024,1024,0,0,0,0,350.3,-0.2,0,21,3.633,3.647,3.648,3.647,0,0,8.111,94.64,64.038780592548,10.170604,6,P-GPS,
705900,2023-05-30 18:27:29,52.2063830081341,0.0867166926518669,10.170604,10.170604,53.769751392548,64.038780592548,11.154856,0,5.3668636888,3.27138789996,29,5,14.568,65.351116592548,11.48294,0.223694,5.402231144,0,0,0,2.1, -1.5, 0.8,0,1,1024,1024,1024,1024,0,0,0,0,350.3,-0.2,0,21,3.633,3.647,3.648,3.647,0,0,8.111,94.64,64.038780592548,10.170604,6,P-GPS,
706100,2023-05-30 18:27:29,52.2063830383325,0.0867165983114746,10.170604,10.170604,53.769751392548,64.038780592548,11.154856,0,5.3537403288,3.2951772708,29,5,14.568,65.351116592548,11.48294,0.223694,5.402231144,0,0,0,1.9, -2.2, 0.8,0,1,1024,1024,1024,1024,0,0,0,0,350.3,-0.2,0,21,3.633,3.647,3.648,3.647,0,0,8.111,94.64,64.038780592548,10.170604,6,P-GPS,
706300,2023-05-30 18:27:30,52.2063830284741,0.0867163828319392,10.170604,10.170604,53.769751392548,64.038780592548,11.154856,0,5.35269046,3.343504044,29,5,14.568,65.351116592548,11.48294,0.223694,5.402231144,0,0,0,1.8, -2.8, 1.7,0,1,1024,1024,1024,1024,0,0,0,0,350.3,-0.2,0,21,3.633,3.647,3.648,3.647,0,0,8.111,94.64,64.038780592548,10.170604,6,P-GPS,
706500,2023-05-30 18:27:30,52.2063830250687,0.0867161352475493,10.170604,10.170604,53.769751392548,64.038780592548,11.154856,0,5.3491471528,3.3988846232,29,5,14.568,65.351116592548,11.48294,0.223694,5.402231144,0,0,0,1.9, -3, 3.5,0,1,1024,1024,1024,1024,0,0,0,0,350.3,-0.2,0,21,3.633,3.647,3.648,3.647,0,0,8.111,94.64,64.038780592548,10.170604,6,P-GPS,
706700,2023-05-30 18:27:30,52.2063830184786,0.0867160149262085,10.170604,10.170604,53.769751392548,64.038780592548,11.154856,0,5.34940962,3.4258859364,29,5,14.582,65.351116592548,11.48294,0.223694,5.402231144,0,0,0,1.9, -2.7, 2.9,0,1,1024,1024,1024,1024,0,0,0,0,350.3,-0.2,0,21,3.634,3.649,3.648,3.646,0,0,7.651,94.64,64.038780592548,10.170604,6,P-GPS,
706900,2023-05-30 18:27:30,52.20638299009,0.0867160168981953,10.170604,10.170604,53.769751392548,64.038780592548,11.154856,0,5.3597770744,3.4362533908,29,5,14.582,65.351116592548,11.48294,0.223694,5.402231144,0,0,0,1.9, -2.9, 2.5,0,1,1024,1024,1024,1024,0,0,0,0,350.3,-0.2,0,21,3.634,3.649,3.648,3.646,0,0,7.651,94.64,64.038780592548,10.170604,6,P-GPS,
707100,2023-05-30 18:27:30,52.2063829538541,0.0867160928043987,10.170604,10.170604,53.769751392548,64.038780592548,11.154856,0,5.3742783872,3.4577428928,29,5,14.582,65.351116592548,11.48294,0.223694,5.402231144,0,0,0,1.9, -2.9, 1.4,0,1,1024,1024,1024,1024,0,0,0,0,350.3,-0.2,0,21,3.634,3.649,3.648,3.646,0,0,7.651,94.64,64.038780592548,10.170604,6,P-GPS,
707300,2023-05-30 18:27:31,52.2063829035021,0.0867161953376668,10.170604,10.170604,53.769751392548,64.038780592548,11.154856,0,5.3944555532,3.4871392192,29,5,14.582,65.351116592548,11.48294,0.223694,5.402231144,0,0,0,1.9, -3.3, 1.4,0,1,1024,1024,1367,1024,0,0,52,0,350.3,-0.2,0,21,3.634,3.649,3.648,3.646,0,0,7.651,94.64,64.038780592548,10.170604,6,P-GPS,
707500,2023-05-30 18:27:31,52.2063828513146,0.0867163223176305,10.170604,10.170604,53.769751392548,64.038780592548,11.154856,0,5.41584663,3.521325572,29,5,14.582,65.351116592548,11.48294,0.223694,5.41584663,0,0,0,1.8, -3.4, 0.7,0,1,1024,1024,1605,1024,0,0,88,0,350.3,-0.2,0,21,3.634,3.649,3.648,3.646,0,0,7.651,94.64,64.038780592548,10.170604,6,P-GPS,
707700,2023-05-30 18:27:31,52.2063828319854,0.0867163652282214,10.498688,10.498688,53.769751392548,64.366864592548,11.154856,0,5.423720646,3.5332350212,29,5,14.564,65.351116592548,11.48294,0.223694,5.423720646,0,0,-1.11847,1.7, -2.1, 0.7,0,1,1024,1024,1024,1024,0,0,0,0,350.3,-0.2,0,21,3.632,3.644,3.644,3.642,0,0,7.986,94.64,64.366864592548,10.498688,6,P-GPS,
707900,2023-05-30 18:27:31,52.2063828581724,0.0867162886370213,11.154856,11.154856,53.769751392548,65.023032592548,11.811024,0,5.4126970236,3.552821636,29,5,14.564,65.351116592548,11.48294,0.223694,5.423720646,0,0,-3.35541,1.6, -3.2, 2.5,0,1,1024,1024,1024,1024,0,0,0,0,350.3,-0.2,0,21,3.632,3.644,3.644,3.642,0,0,7.986,94.64,65.023032592548,11.154856,6,P-GPS,
708100,2023-05-30 18:27:31,52.2063829751001,0.0867161663340827,12.139108,12.139108,53.769751392548,66.007284592548,12.795276,0,5.3678807492,3.603510614,29,5,14.564,66.007284592548,12.139108,0.223694,5.423720646,0,0,-2.460634,1.7, -3.1, 4.3,0,1,1024,1024,1024,1024,0,0,0,0,350.3,-0.2,0,21,3.632,3.644,3.644,3.642,0,0,7.986,94.64,66.007284592548,12.139108,6,P-GPS,
708300,2023-05-30 18:27:32,52.2063831169125,0.0867160693458809,12.467192,12.467192,53.769751392548,66.335368592548,13.451444,0,5.3145670992,3.659612978,29,5,14.564,66.335368592548,12.467192,0.223694,5.423720646,0,0,-0.894776,2, -1.6, 3.4,0,1,1024,1024,1024,1024,0,0,0,0,350.3,-0.2,0,21,3.632,3.644,3.644,3.642,0,0,7.986,94.64,66.335368592548,12.467192,6,P-GPS,
708500,2023-05-30 18:27:32,52.2063832448829,0.0867160661305899,12.795276,12.795276,53.769751392548,66.663452592548,13.451444,0,5.2679463628,3.7062993312,29,5,14.564,66.663452592548,12.795276,0.223694,5.423720646,0,0,0,1.8, -0.8, 2.8,0,1,1024,1024,1378,1024,0,0,54,0,350.3,-0.2,0,21,3.632,3.644,3.644,3.642,0,0,7.986,94.64,66.663452592548,12.795276,6,P-GPS,
708700,2023-05-30 18:27:32,52.2063833043352,0.086716095671512,12.795276,12.795276,53.769751392548,66.663452592548,13.451444,0,5.24688337,3.7289699356,29,5,14.499,66.663452592548,12.795276,0.223694,5.423720646,0,0,0,1.6, -1.1, 2.3,0,1,1024,1024,1310,1024,0,0,43,0,350.3,-0.2,0,20,3.641,3.652,3.654,3.652,0,0,9.825,94.82,66.663452592548,12.795276,6,P-GPS,
708900,2023-05-30 18:27:32,52.2063833264528,0.0867160993974925,13.12336,13.12336,53.769751392548,66.991536592548,13.779528,0,5.2388781204,3.7371064188,29,5,14.499,66.991536592548,13.12336,0.223694,5.423720646,0,0,-1.565858,2.5, 0.2, 3.6,0,1,1024,1024,1024,1024,0,0,0,0,350.3,-0.2,0,20,3.641,3.652,3.654,3.652,0,0,9.825,94.82,66.991536592548,13.12336,6,P-GPS,
709100,2023-05-30 18:27:32,52.2063832334183,0.086716263883213,13.779528,13.779528,53.769751392548,67.647704592548,14.435696,0,5.2758203788,3.7871392288,29,5,14.499,67.647704592548,13.779528,0.223694,5.423720646,0,0,-1.789552,1.8, -3.9, 3.8,0,1,1024,1024,1024,1024,0,0,0,0,350.3,-0.2,0,20,3.641,3.652,3.654,3.652,0,0,9.825,94.82,67.647704592548,13.779528,6,P-GPS,
709300,2023-05-30 18:27:33,52.2063831475349,0.0867165112963537,14.107612,14.107612,53.769751392548,67.975788592548,14.76378,0.223694,5.312172086,3.850721908,29,5,14.499,67.975788592548,14.107612,0.223694,5.423720646,0,0.223694,-0.447388,1.6, -3, 1.4,0,1,1024,1024,1024,1024,0,0,0,0,350.3,-0.2,0,20,3.641,3.652,3.654,3.652,0,0,9.825,94.82,67.975788592548,14.107612,6,P-GPS,
709500,2023-05-30 18:27:33,52.2063830998193,0.0867167350801642,14.107612,14.107612,53.769751392548,67.975788592548,14.76378,0,5.3345802232,3.903707474,29,5,14.499,67.975788592548,14.107612,0.223694,5.423720646,0,0,0,1.8, -2.3, 1.1,0,1,1024,1024,983,1024,0,0,-6,0,350.3,-0.2,0,20,3.641,3.652,3.654,3.652,0,0,9.825,94.82,67.975788592548,14.107612,6,P-GPS,
709700,2023-05-30 18:27:33,52.2063830547552,0.0867168350665375,14.435696,14.435696,53.769751392548,68.303872592548,14.76378,0,5.3533794364,3.931430572,29,5,14.443,68.303872592548,14.435696,0.223694,5.423720646,0,0,0,1.7, -2.6, 1.2,0,1,1024,1024,692,1024,0,0,-50,0,350.3,-0.2,0,20,3.644,3.647,3.644,3.642,0,0,8.452,95,68.303872592548,14.435696,6,P-GPS,
709900,2023-05-30 18:27:33,52.2063830465438,0.0867168183387244,14.107612,14.107612,53.769751392548,67.975788592548,14.76378,0,5.3559384916,3.9362534068,29,5,14.443,68.303872592548,14.435696,0.223694,5.423720646,0,0,0.447388,1.8, -3.1, 2.2,0,1,1024,1024,1024,1024,0,0,0,0,350.3,-0.2,0,20,3.644,3.647,3.644,3.642,0,0,8.452,95,67.975788592548,14.107612,6,P-GPS,
710100,2023-05-30 18:27:33,52.2063830877957,0.0867168052752945,14.107612,14.107612,53.769751392548,67.975788592548,14.435696,0,5.3406497772,3.9515749296,29,5,14.443,68.303872592548,14.435696,0.223694,5.423720646,0,0,1.11847,1.8, -1.6, 2.9,0,1,1024,1024,1024,1024,0,0,0,0,350.3,-0.2,0,20,3.644,3.647,3.644,3.642,0,0,8.452,95,67.975788592548,14.107612,6,P-GPS,
710300,2023-05-30 18:27:34,52.2063831491219,0.0867168951238905,13.779528,13.779528,53.769751392548,67.647704592548,14.107612,0,5.3206694616,3.981627424,29,5,14.443,68.303872592548,14.435696,0.223694,5.423720646,0,0,0.223694,1.8, -1.6, 1.7,0,1,1024,1024,576,1024,0,0,-68,0,350.3,-0.2,0,20,3.644,3.647,3.644,3.642,0,0,8.452,95,67.647704592548,13.779528,6,P-GPS,
710500,2023-05-30 18:27:34,52.2063832293168,0.0867169091388018,13.779528,13.779528,53.769751392548,67.647704592548,14.107612,0,5.2919621116,4.0110565588,29,5,14.443,68.303872592548,14.435696,0.223694,5.423720646,0,0,0,2.1, -1.7, 3,0,1,1024,1024,1024,1024,0,0,0,0,350.3,-0.2,0,20,3.644,3.647,3.644,3.642,0,0,8.452,95,67.647704592548,13.779528,6,P-GPS,
710700,2023-05-30 18:27:34,52.2063833115678,0.0867169915341263,13.451444,13.451444,53.769751392548,67.319620592548,13.779528,0,5.2643046304,4.0462927804,29,5,14.64,68.303872592548,14.435696,0.223694,5.423720646,0,0,0.671082,2, 0, 3,0,1,1024,1024,1024,1024,0,0,0,0,350.3,-0.2,0,20,3.618,3.637,3.643,3.64,0,0,7.629,94.82,67.319620592548,13.451444,6,P-GPS,
710900,2023-05-30 18:27:34,52.2063833399093,0.0867171790388833,13.451444,13.451444,53.769751392548,67.319620592548,13.779528,0,5.25918652,4.0894686348,29,5,14.64,68.303872592548,14.435696,0.223694,5.423720646,0,0,0.223694,1.9, -0.9, 1.1,0,1,1024,1024,1024,1024,0,0,0,0,350.3,-0.2,0,20,3.618,3.637,3.643,3.64,0,0,7.629,94.82,67.319620592548,13.451444,6,P-GPS,
711100,2023-05-30 18:27:35,52.2063833303722,0.0867172811261172,13.451444,13.451444,53.769751392548,67.319620592548,13.779528,0,5.265584158,4.11253294,29,5,14.64,68.303872592548,14.435696,0.223694,5.423720646,0,0,0,2.1, -1.4, 1.3,0,1,1024,1024,697,1024,0,0,-50,0,350.3,-0.2,0,20,3.618,3.637,3.643,3.64,0,0,7.629,94.82,67.319620592548,13.451444,6,P-GPS,
711300,2023-05-30 18:27:35,52.2063833066932,0.0867173390253809,13.451444,13.451444,53.769751392548,67.319620592548,13.779528,0,5.2758531872,4.12811693,29,5,14.64,68.303872592548,14.435696,0.223694,5.423720646,0,0,0,2.2, -1.2, 1.8,0,1,1024,1024,1024,1024,0,0,0,0,350.3,-0.2,0,20,3.618,3.637,3.643,3.64,0,0,7.629,94.82,67.319620592548,13.451444,6,P-GPS,
711500,2023-05-30 18:27:35,52.2063832579068,0.0867174157694821,13.451444,13.451444,53.769751392548,67.319620592548,13.451444,0,5.2958335028,4.1528216552,29,5,14.64,68.303872592548,14.435696,0.223694,5.423720646,0,0,0.671082,2.1, -2, 1.3,0,1,1024,1024,1024,1024,0,0,0,0,350.3,-0.2,0,20,3.618,3.637,3.643,3.64,0,0,7.629,94.82,67.319620592548,13.451444,6,P-GPS,
711700,2023-05-30 18:27:35,52.2063832224933,0.0867175108752534,13.12336,13.12336,53.769751392548,66.991536592548,13.12336,0,5.3115487264,4.1777232308,29,5,14.544,68.303872592548,14.435696,0.223694,5.423720646,0,0,0.671082,2.1, -0.4, 0.2,0,1,1024,1024,1024,1024,0,0,0,0,350.3,-0.2,0,20,3.634,3.642,3.644,3.641,0,0,8.486,94.82,66.991536592548,13.12336,6,P-GPS,
711900,2023-05-30 18:27:35,52.2063831706592,0.0867175744681158,13.12336,13.12336,53.769751392548,66.991536592548,13.12336,0,5.3322836352,4.2013780872,29,5,14.544,68.303872592548,14.435696,0.223694,5.423720646,0,0,0,2.2, -1.6, 0.6,0,1,1024,1024,1024,1024,0,0,0,0,350.3,-0.2,0,20,3.634,3.642,3.644,3.641,0,0,8.486,94.82,66.991536592548,13.12336,6,P-GPS,
712100,2023-05-30 18:27:35,52.206383136308,0.0867176341073936,13.12336,13.12336,53.769751392548,66.991536592548,13.12336,0,5.3465880976,4.2196851744,28,5,14.544,68.303872592548,14.435696,0.223694,5.423720646,0,0,0,2.1, -1.5, 0.6,0,1,1024,1024,1024,1024,0,0,0,0,350.3,-0.2,0,20,3.634,3.642,3.644,3.641,0,0,8.486,94.82,66.991536592548,13.12336,6,P-GPS,
712300,2023-05-30 18:27:36,52.2063831236011,0.0867176689924263,13.12336,13.12336,53.769751392548,66.991536592548,13.12336,0,5.3522967592,4.2287402928,28,5,14.544,68.303872592548,14.435696,0.223694,5.423720646,0,0,0,2.2, -0.8, 0.4,0,1,1024,1024,1024,1024,0,0,0,0,350.3,-0.2,0,20,3.634,3.642,3.644,3.641,0,0,8.486,94.82,66.991536592548,13.12336,6,P-GPS,
712500,2023-05-30 18:27:36,52.2063830765473,0.086717718152739,13.12336,13.12336,53.769751392548,66.991536592548,13.12336,0,5.370899122,4.2491471176,28,5,14.544,68.303872592548,14.435696,0.223694,5.423720646,0,0,0,2, -1.6, -0.3,0,1,1024,1024,1024,1024,0,0,0,0,350.3,-0.2,0,20,3.634,3.642,3.644,3.641,0,0,8.486,94.82,66.991536592548,13.12336,6,P-GPS,
712700,2023-05-30 18:27:36,52.2063830201834,0.0867177253565633,13.12336,13.12336,53.769751392548,66.991536592548,13.12336,0,5.3914699888,4.2697507928,28,5,14.549,68.303872592548,14.435696,0.223694,5.423720646,0,0,0,2, -1.7, -0.3,0,1,1024,1024,1024,1024,0,0,0,0,350.3,-0.2,0,20,3.63,3.643,3.646,3.642,0,0,8.123,94.82,66.991536592548,13.12336,6,P-GPS,
712900,2023-05-30 18:27:36,52.2063829963781,0.0867176221050971,13.12336,13.12336,53.769751392548,66.991536592548,13.12336,0,5.3967193328,4.2944227096,28,5,14.549,68.303872592548,14.435696,0.223694,5.423720646,0,0,0,1.9, -1.1, 0,0,1,1024,1024,1024,1024,0,0,0,0,350.3,-0.2,0,20,3.63,3.643,3.646,3.642,0,0,8.123,94.82,66.991536592548,13.12336,6,P-GPS,
713100,2023-05-30 18:27:36,52.2063829997856,0.0867173248226196,13.12336,13.12336,53.769751392548,66.991536592548,13.12336,0.223694,5.3864503036,4.360892528,28,5,14.549,68.303872592548,14.435696,0.223694,5.423720646,0,-0.223694,0,2, -1.2, 1.5,0,1,1024,1024,1024,1024,0,0,0,0,350.3,-0.2,0,20,3.63,3.643,3.646,3.642,0,0,8.123,94.82,66.991536592548,13.12336,6,P-GPS,
713300,2023-05-30 18:27:37,52.2063829895139,0.0867169465899512,13.12336,13.12336,53.769751392548,66.991536592548,13.12336,0.223694,5.3798230068,4.4455710084,28,5,14.549,68.303872592548,14.435696,0.223694,5.423720646,0,-0.223694,0,1.8, -1.3, 3.4,0,1,1024,1024,1024,1024,0,0,0,0,350.3,-0.2,0,20,3.63,3.643,3.646,3.642,0,0,8.123,94.82,66.991536592548,13.12336,6,P-GPS,
713500,2023-05-30 18:27:37,52.2063829704439,0.0867166900687126,13.12336,13.12336,53.769751392548,66.991536592548,13.12336,0,5.3804791748,4.5033466008,28,5,14.549,68.303872592548,14.435696,0.223694,5.423720646,0,0,0,2, -1.2, 3.3,0,1,1024,1024,1024,1024,0,0,0,0,350.3,-0.2,0,20,3.63,3.643,3.646,3.642,0,0,8.123,94.82,66.991536592548,13.12336,6,P-GPS,
713700,2023-05-30 18:27:37,52.206382949727,0.0867165848941879,13.12336,13.12336,53.769751392548,66.991536592548,13.12336,0,5.3855972852,4.5280185176,28,5,14.587,68.303872592548,14.435696,0.223694,5.423720646,0,0,0,2, -1.4, 3.6,0,1,1024,1024,1024,1024,0,0,0,0,350.3,-0.2,0,20,3.632,3.645,3.645,3.642,0,0,7.955,95,66.991536592548,13.12336,6,P-GPS,
713900,2023-05-30 18:27:37,52.2063828855501,0.0867166305609298,13.12336,13.12336,53.769751392548,66.991536592548,13.12336,0,5.4099083096,4.5535762612,28,5,14.587,68.303872592548,14.435696,0.223694,5.423720646,0,0,0,2, -1.4, 2.2,0,1,1024,1024,1024,1024,0,0,0,0,350.3,-0.2,0,20,3.632,3.645,3.645,3.642,0,0,7.955,95,66.991536592548,13.12336,6,P-GPS,
714100,2023-05-30 18:27:37,52.2063827963042,0.0867167334602867,13.12336,13.12336,53.769751392548,66.991536592548,13.12336,0,5.4446852136,4.5934384672,28,5,14.587,68.303872592548,14.435696,0.223694,5.4446852136,0,0,0,1.9, -2.6, 1.9,0,1,1024,1024,1024,1024,0,0,0,0,350.3,-0.2,0,20,3.632,3.645,3.645,3.642,0,0,7.955,95,66.991536592548,13.12336,6,P-GPS,
714300,2023-05-30 18:27:38,52.2063827121943,0.086716794094732,13.12336,13.12336,53.769751392548,66.991536592548,13.12336,0,5.4766077868,4.6270014604,28,5,14.587,68.303872592548,14.435696,0.223694,5.4766077868,0,0,0,1.9, -2.1, 2,0,1,1024,1024,1024,1024,0,0,0,0,350.3,-0.2,0,20,3.632,3.645,3.645,3.642,0,0,7.955,95,66.991536592548,13.12336,6,P-GPS,
714500,2023-05-30 18:27:38,52.2063826215413,0.0867168798870812,13.12336,13.12336,53.769751392548,66.991536592548,13.12336,0,5.5115815412,4.6652232464,28,5,14.587,68.303872592548,14.435696,0.223694,5.5115815412,0,0,0,2, -2.9, 1.9,0,1,1024,1024,1024,1024,0,0,0,0,350.3,-0.2,0,20,3.632,3.645,3.645,3.642,0,0,7.955,95,66.991536592548,13.12336,6,P-GPS,
714700,2023-05-30 18:27:38,52.2063825623246,0.0867169614335863,13.12336,13.12336,53.769751392548,66.991536592548,13.12336,0,5.5350395472,4.6935040872,28,5,14.559,68.303872592548,14.435696,0.223694,5.5350395472,0,0,0,2.1, -2.9, 1.2,0,1,1024,1024,1024,1024,0,0,0,0,350.3,-0.2,0,20,3.63,3.643,3.643,3.64,0,0,7.977,95,66.991536592548,13.12336,6,P-GPS,
714900,2023-05-30 18:27:38,52.2063825319078,0.0867169996121079,13.12336,13.12336,53.769751392548,66.991536592548,13.12336,0,5.5470474216,4.707513274,28,5,14.559,68.303872592548,14.435696,0.223694,5.5470474216,0,0,0,1.9, -2.3, 1.6,0,1,1024,1024,1024,1024,0,0,0,0,350.3,-0.2,0,20,3.63,3.643,3.643,3.64,0,0,7.977,95,66.991536592548,13.12336,6,P-GPS,
715100,2023-05-30 18:27:38,52.2063825160248,0.086717052929582,13.12336,13.12336,53.769751392548,66.991536592548,13.12336,0,5.5541668444,4.7207678676,28,5,14.559,68.303872592548,14.435696,0.223694,5.5541668444,0,0,0,2, -1.8, 1.5,0,1,1024,1024,1024,1024,0,0,0,0,350.3,-0.2,0,20,3.63,3.643,3.643,3.64,0,0,7.977,95,66.991536592548,13.12336,6,P-GPS,
715300,2023-05-30 18:27:39,52.2063824629677,0.0867171311690556,13.12336,13.12336,53.769751392548,66.991536592548,13.12336,0,5.5754266876,4.7468505456,28,5,14.559,68.303872592548,14.435696,0.223694,5.5754266876,0,0,0,2.1, -2.3, 1.4,0,1,1024,1024,1024,1024,0,0,0,0,350.3,-0.2,0,20,3.63,3.643,3.643,3.64,0,0,7.977,95,66.991536592548,13.12336,6,P-GPS,
715500,2023-05-30 18:27:39,52.206382404702,0.0867172582045005,13.12336,13.12336,53.769751392548,66.991536592548,13.12336,0,5.5999345624,4.782316426,28,5,14.559,68.303872592548,14.435696,0.223694,5.5999345624,0,0,0,2, -2.1, 1.6,0,1,1024,1024,1024,1024,0,0,0,0,350.3,-0.2,0,20,3.63,3.643,3.643,3.64,0,0,7.977,95,66.991536592548,13.12336,6,P-GPS,
715700,2023-05-30 18:27:39,52.2063823373617,0.0867173951199752,13.12336,13.12336,53.769751392548,66.991536592548,13.12336,0,5.6281497864,4.8215880808,29,5,14.558,68.303872592548,14.435696,0.223694,5.6281497864,0,0,0,2.1, -2.9, 0.9,0,1,1024,1024,1024,1024,0,0,0,0,350.3,-0.2,0,20,3.632,3.645,3.647,3.642,0,0,8.009,95,66.991536592548,13.12336,6,P-GPS,
715900,2023-05-30 18:27:39,52.2063822622941,0.0867174699274752,13.12336,13.12336,53.769751392548,66.991536592548,13.12336,0,5.6574476876,4.853674696,29,5,14.558,68.303872592548,14.435696,0.223694,5.6574476876,0,0,0,2, -2.8, 2,0,1,1024,1024,1024,1024,0,0,0,0,350.3,-0.2,0,20,3.632,3.645,3.647,3.642,0,0,8.009,95,66.991536592548,13.12336,6,P-GPS,
716100,2023-05-30 18:27:39,52.2063821601722,0.0867176158309112,13.12336,13.12336,53.769751392548,66.991536592548,13.12336,0,5.6986878464,4.9031825716,29,5,14.558,68.303872592548,14.435696,0.223694,5.6986878464,0,0,0,1.9, -2.7, 1.8,0,1,1024,1024,1024,1024,0,0,0,0,350.3,-0.2,0,20,3.632,3.645,3.647,3.642,0,0,8.009,95,66.991536592548,13.12336,6,P-GPS,
716300,2023-05-30 18:27:40,52.2063820630662,0.0867178305542416,13.12336,13.12336,53.769751392548,66.991536592548,13.12336,0,5.7404201312,4.9628610512,29,5,14.558,68.303872592548,14.435696,0.223694,5.7404201312,0,0,0,2, -3.3, 1.1,0,1,1024,1024,1024,1024,0,0,0,0,350.3,-0.2,0,20,3.632,3.645,3.647,3.642,0,0,8.009,95,66.991536592548,13.12336,6,P-GPS,
716500,2023-05-30 18:27:40,52.2063819791661,0.0867181061710754,13.12336,13.12336,53.769751392548,66.991536592548,13.12336,0,5.7797245944,5.031660266,29,5,14.558,68.303872592548,14.435696,0.223694,5.7797245944,0,0,0,2, -3.5, 0.6,0,1,1024,1024,1024,1024,0,0,0,0,350.3,-0.2,0,20,3.632,3.645,3.647,3.642,0,0,8.009,95,66.991536592548,13.12336,6,P-GPS,
716700,2023-05-30 18:27:40,52.2063819042742,0.0867184147359038,13.12336,13.12336,53.769751392548,66.991536592548,13.12336,0,5.8175526796,5.1058728668,29,5,14.555,68.303872592548,14.435696,0.223694,5.8175526796,0,0,0,1.9, -3.1, -0.1,0,1,1024,1024,1024,1024,0,0,0,0,350.3,-0.2,0,20,3.631,3.646,3.646,3.644,0,0,7.818,95.18,66.991536592548,13.12336,6,P-GPS,
716900,2023-05-30 18:27:40,52.2063818475398,0.0867186258996975,13.12336,13.12336,53.769751392548,66.991536592548,13.12336,0,5.845800712,5.1574148632,29,5,14.555,68.303872592548,14.435696,0.223694,5.845800712,0,0,0,2, -2.9, -0.1,0,1,1024,1024,1024,1024,0,0,0,0,350.3,-0.2,0,20,3.631,3.646,3.646,3.644,0,0,7.818,95.18,66.991536592548,13.12336,6,P-GPS,
717100,2023-05-30 18:27:40,52.2063818203313,0.0867187185594887,13.12336,13.12336,53.769751392548,66.991536592548,13.12336,0,5.8591209224,5.1803807432,29,5,14.555,68.303872592548,14.435696,0.223694,5.8591209224,0,0,0,2.2, -2.3, 1.2,0,1,1024,1024,1024,1024,0,0,0,0,350.3,-0.2,0,20,3.631,3.646,3.646,3.644,0,0,7.818,95.18,66.991536592548,13.12336,6,P-GPS,
717300,2023-05-30 18:27:41,52.2063817396802,0.0867188379743447,13.12336,13.12336,53.769751392548,66.991536592548,13.12336,0,5.8927495324,5.220144524,29,5,14.555,68.303872592548,14.435696,0.223694,5.8927495324,0,0,0,2.1, -3.9, 0.8,0,1,1024,1024,1024,1024,0,0,0,0,350.3,-0.2,0,20,3.631,3.646,3.646,3.644,0,0,7.818,95.18,66.991536592548,13.12336,6,P-GPS,
717500,2023-05-30 18:27:41,52.2063816652872,0.0867190024364747,13.12336,13.12336,53.769751392548,66.991536592548,13.12336,0,5.9260500584,5.2658466252,29,5,14.555,68.303872592548,14.435696,0.223694,5.9260500584,0,0,0,1.9, -3.8, 0.8,0,1,1024,1024,1024,1024,0,0,0,0,350.3,-0.2,0,20,3.631,3.646,3.646,3.644,0,0,7.818,95.18,66.991536592548,13.12336,6,P-GPS,
717700,2023-05-30 18:27:41,52.2063816053017,0.0867191713860326,13.12336,13.12336,53.769751392548,66.991536592548,13.12336,0,5.9545277496,5.3094817972,29,5,14.569,68.303872592548,14.435696,0.223694,5.9545277496,0,0,0,2.1, -3.3, 1.3,0,1,1024,1024,1024,1024,0,0,0,0,350.3,-0.2,0,20,3.633,3.646,3.645,3.642,0,0,7.736,95.18,66.991536592548,13.12336,6,P-GPS,
717900,2023-05-30 18:27:41,52.2063815172766,0.0867194246749427,13.12336,13.12336,53.769751392548,66.991536592548,13.12336,0,5.9968505856,5.3746064712,29,5,14.569,68.303872592548,14.435696,0.223694,5.9968505856,0,0,0,2, -4.2, 0.8,0,1,1024,1024,1024,1024,0,0,0,0,350.3,-0.2,0,20,3.633,3.646,3.645,3.642,0,0,7.736,95.18,66.991536592548,13.12336,6,P-GPS,
718100,2023-05-30 18:27:41,52.2063814142038,0.0867197527761582,13.12336,13.12336,53.769751392548,66.991536592548,13.12336,0,6.0484253904,5.457021172,29,5,14.569,68.303872592548,14.435696,0.223694,6.0484253904,0,0,0,2.2, -4.3, 0,0,1,1024,1024,1024,1024,0,0,0,0,350.3,-0.2,0,20,3.633,3.646,3.645,3.642,0,0,7.736,95.18,66.991536592548,13.12336,6,P-GPS,
718300,2023-05-30 18:27:42,52.2063813597653,0.0867201175526595,13.12336,13.12336,53.769751392548,66.991536592548,13.12336,0,6.0851051816,5.5409778676,29,5,14.569,68.303872592548,14.435696,0.223694,6.0851051816,0,0,0,2.4, -4.3, -1,0,1,1024,1024,1024,1024,0,0,0,0,350.3,-0.2,0,20,3.633,3.646,3.645,3.642,0,0,7.736,95.18,66.991536592548,13.12336,6,P-GPS,
718500,2023-05-30 18:27:42,52.2063813831573,0.0867204670076005,13.12336,13.12336,53.769751392548,66.991536592548,13.451444,0,6.0942915336,5.619586794,29,5,14.569,68.303872592548,14.435696,0.223694,6.0942915336,0,0,0,2, -3.1, -1.6,0,1,1024,1024,1024,1024,0,0,0,0,350.3,-0.2,0,20,3.633,3.646,3.645,3.642,0,0,7.736,95.18,66.991536592548,13.12336,6,P-GPS,
718700,2023-05-30 18:27:42,52.2063814291316,0.0867207653761124,13.12336,13.12336,53.769751392548,66.991536592548,13.451444,0,6.0937009824,5.6883532004,29,5,14.553,68.303872592548,14.435696,0.223694,6.0942915336,0,0,0,2.1, -2.5, -1.8,0,1,1024,1024,1024,1024,0,0,0,0,350.3,-0.2,0,20,3.631,3.644,3.644,3.642,0,0,8.091,95.18,66.991536592548,13.12336,6,P-GPS,
718900,2023-05-30 18:27:42,52.2063814602617,0.0867209890581345,13.12336,13.12336,53.769751392548,66.991536592548,13.451444,0,6.0949477016,5.7396327296,29,5,14.553,68.303872592548,14.435696,0.223694,6.0949477016,0,0,0,2.1, -2.9, -2,0,1,1024,1024,1024,1024,0,0,0,0,350.3,-0.2,0,20,3.631,3.644,3.644,3.642,0,0,8.091,95.18,66.991536592548,13.12336,6,P-GPS,
719100,2023-05-30 18:27:42,52.2063814920556,0.0867211389142814,13.12336,13.12336,53.769751392548,66.991536592548,13.451444,0,6.092191796,5.77509861,29,5,14.553,68.303872592548,14.435696,0.223694,6.0949477016,0,0,0,1.9, -3.2, -1.6,0,1,1024,1024,1024,1024,0,0,0,0,350.3,-0.2,0,20,3.631,3.644,3.644,3.642,0,0,8.091,95.18,66.991536592548,13.12336,6,P-GPS,
719300,2023-05-30 18:27:43,52.2063815267238,0.0867212014403312,13.12336,13.12336,53.769751392548,66.991536592548,13.451444,0,6.0835631868,5.79396344,29,5,14.553,68.303872592548,14.435696,0.223694,6.0949477016,0,0,0,2, -2.6, -1.3,0,1,1024,1024,1024,1024,0,0,0,0,350.3,-0.2,0,20,3.631,3.644,3.644,3.642,0,0,8.091,95.18,66.991536592548,13.12336,6,P-GPS,
719500,2023-05-30 18:27:43,52.2063815519212,0.0867211974649036,13.12336,13.12336,53.769751392548,66.991536592548,13.451444,0,6.0744424516,5.8031826004,29,5,14.553,68.303872592548,14.435696,0.223694,6.0949477016,0,0,0,1.9, -2.3, -0.5,0,1,1024,1024,1024,1024,0,0,0,0,350.3,-0.2,0,20,3.631,3.644,3.644,3.642,0,0,8.091,95.18,66.991536592548,13.12336,6,P-GPS,
719700,2023-05-30 18:27:43,52.206381562073,0.0867212157728399,13.12336,13.12336,53.769751392548,66.991536592548,13.451444,0,6.0719162048,5.80872722,29,5,14.576,68.303872592548,14.435696,0.223694,6.0949477016,0,0,0,1.6, -1.5, -1.5,0,1,1024,1024,1024,1024,0,0,0,0,350.3,-0.2,0,20,3.632,3.646,3.646,3.645,0,0,7.497,95.18,66.991536592548,13.12336,6,P-GPS,
719900,2023-05-30 18:27:43,52.2063815088275,0.0867211601308328,13.12336,13.12336,53.769751392548,66.991536592548,13.451444,0,6.0875001948,5.8317915252,29,5,14.576,68.303872592548,14.435696,0.223694,6.0949477016,0,0,0,1.5, -2.2, -1.2,0,1,1024,1024,1024,1024,0,0,0,0,350.3,-0.2,0,20,3.632,3.646,3.646,3.645,0,0,7.497,95.18,66.991536592548,13.12336,6,P-GPS,
720100,2023-05-30 18:27:43,52.2063814064379,0.0867209997149017,13.12336,13.12336,53.769751392548,66.991536592548,13.451444,0,6.1145671248,5.8835631804,29,5,14.576,68.303872592548,14.435696,0.223694,6.1145671248,0,0,0,1.9, -3.5, 0.2,0,1,1024,1024,1024,1024,0,0,0,0,350.3,-0.2,0,20,3.632,3.646,3.646,3.645,0,0,7.497,95.18,66.991536592548,13.12336,6,P-GPS,
720300,2023-05-30 18:27:44,52.2063813482128,0.0867208801864621,13.12336,13.12336,53.769751392548,66.991536592548,13.451444,0,6.1285763116,5.9177167248,29,5,14.576,68.303872592548,14.435696,0.223694,6.1285763116,0,0,0,2, -4.4, 0.9,0,1,1024,1024,1024,1024,0,0,0,0,350.3,-0.2,0,20,3.632,3.646,3.646,3.645,0,0,7.497,95.18,66.991536592548,13.12336,6,P-GPS,
720500,2023-05-30 18:27:44,52.2063813800261,0.0867209277439348,13.12336,13.12336,53.769751392548,66.991536592548,13.451444,0,6.119914894,5.9334647568,29,5,14.576,68.303872592548,14.435696,0.223694,6.1285763116,0,0,0,1.9, -3.5, 0.4,0,1,1024,1024,1024,1024,0,0,0,0,350.3,-0.2,0,20,3.632,3.646,3.646,3.645,0,0,7.497,95.18,66.991536592548,13.12336,6,P-GPS,
720700,2023-05-30 18:27:44,52.2063814608742,0.0867211238915336,13.12336,13.12336,53.769751392548,66.991536592548,13.451444,0,6.1023295916,5.9863190892,29,5,14.562,68.303872592548,14.435696,0.223694,6.1285763116,0,0,0,2.3, -2.5, -1.3,0,1,1024,1024,1024,1024,0,0,0,0,350.3,-0.2,0,20,3.631,3.644,3.645,3.643,0,0,7.779,95.18,66.991536592548,13.12336,6,P-GPS,
