time(millisecond),datetime(utc),latitude,longitude,height_above_takeoff(feet),height_above_ground_at_drone_location(feet),ground_elevation_at_drone_location(feet),altitude_above_seaLevel(feet),height_sonar(feet),speed(mph),distance(feet),mileage(feet),satellites,gpslevel,voltage(v),max_altitude(feet),max_ascent(feet),max_speed(mph),max_distance(feet), xSpeed(mph), ySpeed(mph), zSpeed(mph), compass_heading(degrees), pitch(degrees), roll(degrees),isPhoto,isVideo,rc_elevator,rc_aileron,rc_throttle,rc_rudder,rc_elevator(percent),rc_aileron(percent),rc_throttle(percent),rc_rudder(percent),gimbal_heading(degrees),gimbal_pitch(degrees),gimbal_roll(degrees),battery_percent,voltageCell1,voltageCell2,voltageCell3,voltageCell4,voltageCell5,voltageCell6,current(A),battery_temperature(f),altitude(feet),ascent(feet),flycStateRaw,flycState,message
100,2023-05-29 17:55:17,52.2063896728547,0.0867004883493655,0,0,53.741802244672,53.741802244672,0,0,0,0,25,5,0,53.741802244672,0,0,0,0,0,0,17.7, 3.6, 0.5,0,0,1024,1024,1024,1024,0,0,0,0,17.8,0,0,72,4.006,4.012,4.01,4.006,0,0,0,73.76,53.741802244672,0,41,Motors_Started,
300,2023-05-29 17:55:17,52.2063896072964,0.086700883802673,0,0,53.741802244672,53.741802244672,0,0,0.09159613154,0.09159613154,25,5,0,53.741802244672,0,0,0.09159613154,0,0,0,17.7, 3.6, 0.5,0,0,1024,1024,1024,1024,0,0,0,0,17.8,0,0,72,4.006,4.012,4.01,4.006,0,0,0,73.76,53.741802244672,0,41,Motors_Started,
500,2023-05-29 17:55:17,52.2063895487029,0.0867012510417682,0,0,53.741802244672,53.741802244672,0,0,0.176441278612,0.176443247116,25,5,0,53.741802244672,0,0,0.176441278612,0,0,0,17.7, 3.5, 0.6,0,0,1024,1024,1024,1024,0,0,0,0,17.8,0,0,72,4.006,4.012,4.01,4.006,0,0,0,73.76,53.741802244672,0,41,Motors_Started,
700,2023-05-29 17:55:17,52.2063894893213,0.0867015801901041,0,0,53.741802244672,53.741802244672,0,0,0.25313813146,0.253159128836,25,5,0,53.741802244672,0,0,0.25313813146,0,0,0,17.7, 3.6, 0.5,0,0,1024,1024,1024,1024,0,0,0,0,17.8,0,0,72,4.006,4.012,4.01,4.006,0,0,0,73.76,53.741802244672,0,41,Motors_Started,
900,2023-05-29 17:55:18,52.2063894238615,0.0867018720724737,0,0,53.741802244672,53.741802244672,0,0,0.322443907956,0.322653225548,25,5,16.178,53.741802244672,0,0,0.322443907956,0,0,0,17.5, 3.6, 0.6,0,0,1024,1024,1024,1024,0,0,0,0,17.8,0,0,72,4.006,4.012,4.01,4.006,0,0,1.882,73.76,53.741802244672,0,41,Motors_Started,"Setting new Return-To-Home altitude to 26m (85 ft). Data Recorder File Index is 24. Setting new Maximum Flight Altitude to 120m (394 ft)"
1100,2023-05-29 17:55:18,52.2063893441805,0.0867021580554762,0,0,53.741802244672,53.741802244672,0,0,0.3921095926,0.39289371336,25,5,16.178,53.741802244672,0,0,0.3921095926,0,0,0,17.5, 3.6, 0.6,0,0,1024,1024,1024,1024,0,0,0,0,17.8,0,0,72,4.006,4.012,4.01,4.006,0,0,1.882,73.76,53.741802244672,0,41,Motors_Started,
1300,2023-05-29 17:55:18,52.2063892498116,0.0867024160234748,0,0,53.741802244672,53.741802244672,0,0,0.45780513276,0.46006563152,25,5,16.178,53.741802244672,0,0,0.45780513276,0,0,0,17.4, 3.6, 0.6,0,0,1024,1024,1024,1024,0,0,0,0,17.8,0,0,72,4.006,4.012,4.01,4.006,0,0,1.882,73.76,53.741802244672,0,41,Motors_Started,
1500,2023-05-29 17:55:18,52.2063891390499,0.0867026557027366,0,0,53.741802244672,53.741802244672,0,0,0.52226379624,0.52718505624,25,5,16.178,53.741802244672,0,0,0.52226379624,0,0,0,17.9, 3.6, 0.6,0,0,1024,1024,1024,1024,0,0,0,0,17.8,0,0,72,4.006,4.012,4.01,4.006,0,0,1.882,73.76,53.741802244672,0,41,Motors_Started,
1700,2023-05-29 17:55:19,52.2063890268961,0.0867028761391577,0,0,53.741802244672,53.741802244672,0,0,0.58358269584,0.59124345724,25,5,16.178,53.741802244672,0,0,0.58358269584,0,0,0,18.1, 3.6, 0.6,0,0,1024,1024,1024,1024,0,0,0,0,17.8,0,0,72,4.006,4.012,4.01,4.006,0,0,1.882,73.76,53.741802244672,0,11,AutoTakeoff,
1900,2023-05-29 17:55:19,52.2063888921812,0.0867031011713534,0,0,53.741802244672,53.741802244672,0,0,0.64992784232,0.661581386,25,5,16.005,53.741802244672,0,0,0.64992784232,0,0,0,18, 3.5, 0.6,0,0,1024,1024,1024,1024,0,0,0,0,17.8,0,0,72,4.034,4.04,4.038,4.028,0,0,4.717,73.76,53.741802244672,0,11,AutoTakeoff,
2100,2023-05-29 17:55:19,52.2063887118004,0.0867033343920664,0,0,53.741802244672,53.741802244672,0,0,0.72654857968,0.74554792412,25,5,16.005,53.741802244672,0,0,0.72654857968,0,0,-0.223694,17.1, -1, 0.2,0,0,1024,1024,1024,1024,0,0,0,0,17.8,0,0,72,4.034,4.04,4.038,4.028,0,0,4.717,73.76,53.741802244672,0,11,AutoTakeoff,
2300,2023-05-29 17:55:19,52.2063884902813,0.0867036202073144,0,0,53.741802244672,53.741802244672,0.328084,0,0.82249346464,0.84857942348,25,5,16.005,53.741802244672,0,0,0.82249346464,0,0,-0.894776,17.5, 0, -0.3,0,0,1024,1024,1024,1024,0,0,0,0,17.8,0,0,72,4.034,4.04,4.038,4.028,0,0,4.717,73.76,53.741802244672,0,11,AutoTakeoff,
2500,2023-05-29 17:55:19,52.2063882914987,0.08670389860292,0.328084,0.328084,53.741802244672,54.069886244672,0.328084,0,0.91399609224,0.94415357352,25,5,16.005,54.069886244672,0.328084,0,0.91399609224,0,0,-0.894776,17.3, 0.2, -0.3,0,0,1024,1024,1024,1024,0,0,0,0,17.8,0,0,72,4.034,4.04,4.038,4.028,0,0,4.717,73.76,54.069886244672,0.328084,11,AutoTakeoff,
2700,2023-05-29 17:55:20,52.2063880691357,0.0867040892629149,0.656168,0.656168,53.741802244672,54.397970244672,0.984252,0,0.9952756224,1.03580055808,25,5,16.005,54.397970244672,0.656168,0,0.9952756224,0,0,-0.894776,17.1, -0.3, -0.6,0,0,1024,1024,1024,1024,0,0,0,0,17.7,0,0,72,4.034,4.04,4.038,4.028,0,0,4.717,73.76,54.397970244672,0.656168,11,AutoTakeoff,
2900,2023-05-29 17:55:20,52.2063878063197,0.0867041592445063,0.984252,0.984252,53.741802244672,54.726054244672,0.984252,0,1.06649937796,1.13295935384,25,5,15.947,54.726054244672,0.984252,0,1.06649937796,0,0,-0.894776,17.4, -1.5, -0.5,0,0,1024,1024,1082,1024,0,0,9,0,17.7,0,0,72,3.966,3.97,3.97,3.966,0,0,4.35,73.76,54.726054244672,0.984252,11,AutoTakeoff,
3100,2023-05-29 17:55:20,52.2063875794248,0.0867041442654262,0.984252,0.984252,53.741802244672,54.726054244672,1.312336,0,1.11872050824,1.21580712552,25,5,15.947,54.726054244672,0.984252,0,1.11872050824,0,0,-0.894776,17.5, -1.8, 1,0,0,1024,1024,1270,1024,0,0,37,0,17.7,0,0,72,3.966,3.97,3.97,3.966,0,0,4.35,73.76,54.726054244672,0.984252,11,AutoTakeoff,
3300,2023-05-29 17:55:20,52.2063874196132,0.0867042045242455,1.312336,1.312336,53.741802244672,55.054138244672,1.64042,0,1.16885174344,1.27565292796,25,5,15.947,55.054138244672,1.312336,0,1.16885174344,0,0,-1.11847,17, -2.1, 0.7,0,0,1024,1024,1635,1024,0,0,93,0,17.7,0,0,72,3.966,3.97,3.97,3.966,0,0,4.35,73.76,55.054138244672,1.312336,11,AutoTakeoff,
3500,2023-05-29 17:55:20,52.2063872949431,0.0867043929999368,1.968504,1.968504,53.741802244672,55.710306244672,2.296588,0,1.23080056432,1.33765752312,24,5,15.947,55.710306244672,1.968504,0,1.23080056432,0,0,-2.013246,17.3, -1.7, 0,0,0,1024,1024,1631,1024,0,0,92,0,17.7,0,0,72,3.966,3.97,3.97,3.966,0,0,4.35,73.76,55.710306244672,1.968504,11,AutoTakeoff,
3700,2023-05-29 17:55:21,52.2063871738796,0.0867045872247151,2.952756,2.952756,53.741802244672,56.694558244672,3.28084,0,1.29273954268,1.39959978232,24,5,15.947,56.694558244672,2.952756,0,1.29273954268,0,0,-3.802798,17.1, -1.7, 1.2,0,0,1024,1024,1591,1024,0,0,86,0,17.7,0,0,72,3.966,3.97,3.97,3.966,0,0,4.35,73.76,56.694558244672,2.952756,11,AutoTakeoff,
3900,2023-05-29 17:55:21,52.2063870578364,0.0867048719530536,4.265092,4.265092,53.741802244672,58.006894244672,4.593176,0,1.36781172356,1.47605647768,24,5,15.829,58.006894244672,4.265092,0,1.36781172356,0,0,-5.816044,17.1, -1.5, 1.5,0,0,1024,1024,1387,1024,0,0,55,0,17.7,0,0,72,3.911,3.914,3.91,3.905,0,0,7.724,73.76,58.006894244672,4.265092,6,P-GPS,"Home Point updated (Code: 3000001)"
4100,2023-05-29 17:55:21,52.2063869720387,0.0867052867190995,6.56168,6.56168,53.741802244672,60.303482244672,6.889764,0,1.4567093642,1.57393049656,25,5,15.829,60.303482244672,6.56168,0,1.4567093642,0,0,-7.82929,17.3, -1.1, 2.2,0,0,1024,1024,1024,1024,0,0,0,0,17.7,0,0,72,3.911,3.914,3.91,3.905,0,0,7.724,73.76,60.303482244672,6.56168,6,P-GPS,
4300,2023-05-29 17:55:21,52.2063868908243,0.086705746967588,8.858268,8.858268,53.741802244672,62.600070244672,9.186352,0,1.55327760876,1.68101711416,25,5,15.829,62.600070244672,8.858268,0,1.55327760876,0,0,-7.158208,17.4, -1.5, 0.8,0,0,1024,1024,1150,1024,0,0,19,0,17.7,0,0,72,3.911,3.914,3.91,3.905,0,0,7.724,73.76,62.600070244672,8.858268,6,P-GPS,
4500,2023-05-29 17:55:21,52.2063868591138,0.0867061634880665,10.498688,10.498688,53.741802244672,64.240490244672,10.826772,0,1.63216540656,1.77486226152,25,5,15.829,64.240490244672,10.498688,0,1.63216540656,0,0,-5.368656,17.8, -0.5, 0.7,0,0,1024,1024,1258,1024,0,0,35,0,17.7,0,0,72,3.911,3.914,3.91,3.905,0,0,7.724,73.76,64.240490244672,10.498688,6,P-GPS,
4700,2023-05-29 17:55:22,52.2063868329247,0.0867065982833024,11.811024,11.811024,53.741802244672,65.552826244672,12.139108,0,1.71459323072,1.87254599168,26,5,15.829,65.552826244672,11.811024,0,1.71459323072,0,0,-3.579104,18.2, 0.4, 2.2,0,0,1024,1024,1024,1024,0,0,0,0,17.7,0,0,72,3.911,3.914,3.91,3.905,0,0,7.724,73.76,65.552826244672,11.811024,6,P-GPS,
4900,2023-05-29 17:55:22,52.2063867128508,0.0867071238861536,12.795276,12.795276,53.741802244672,66.537078244672,13.12336,0,1.835055833,1.99796266236,26,5,15.525,66.537078244672,12.795276,0,1.835055833,0,0,-1.789552,17.6, 0.6, 0.6,0,0,1024,1024,1024,1024,0,0,0,0,17.7,0,0,72,3.984,3.996,3.998,3.999,0,0,12.02,73.76,66.537078244672,12.795276,6,P-GPS,
5100,2023-05-29 17:55:22,52.2063865233762,0.0867076197580122,13.12336,13.12336,53.741802244672,66.865162244672,13.12336,0,1.96539704452,2.12861883452,26,5,15.525,66.865162244672,13.12336,0,1.96539704452,0,0,-0.223694,17.3, 0.1, 0.4,0,0,1024,1024,1024,1024,0,0,0,0,17.7,0,0,72,3.984,3.996,3.998,3.999,0,0,12.02,73.76,66.865162244672,13.12336,6,P-GPS,
5300,2023-05-29 17:55:22,52.2063862597977,0.0867080757706992,12.795276,12.795276,53.741802244672,66.537078244672,13.12336,0,2.10441935868,2.26877631932,26,5,15.525,66.865162244672,13.12336,0,2.10441935868,0,0,0,16.3, -1.7, -0.1,0,0,1024,1024,1024,1024,0,0,0,0,17.7,0,0,72,3.984,3.996,3.998,3.999,0,0,12.02,73.76,66.537078244672,12.795276,6,P-GPS,
5500,2023-05-29 17:55:22,52.2063859925698,0.0867084608232268,12.795276,12.795276,53.741802244672,66.537078244672,13.12336,0,2.23168642312,2.39884522112,26,5,15.525,66.865162244672,13.12336,0,2.23168642312,0,0,0,16.2, -3.1, 0.6,0,0,1024,1684,1024,1024,0,100,0,0,17.7,0,0,72,3.984,3.996,3.998,3.999,0,0,12.02,73.76,66.537078244672,12.795276,6,P-GPS,
5700,2023-05-29 17:55:22,52.2063858322099,0.0867088401371521,12.795276,12.795276,53.741802244672,66.537078244672,13.12336,0,2.33463262064,2.50187672048,26,5,15.525,66.865162244672,13.12336,0,2.33463262064,0,0,0,16, -0.8, 1.8,0,0,1024,1684,1024,1024,0,100,0,0,17.7,0,0,72,3.984,3.996,3.998,3.999,0,0,12.02,73.76,66.537078244672,12.795276,6,P-GPS,
5900,2023-05-29 17:55:23,52.2063856997096,0.0867093135473802,12.795276,12.795276,53.741802244672,66.537078244672,13.12336,0,2.44843839856,2.6182415536,26,5,15.907,66.865162244672,13.12336,0,2.44843839856,0,0,0,15.8, -0.6, 4.1,0,0,1024,1684,1024,1024,0,100,0,0,17.7,0,0,72,3.955,3.956,3.957,3.956,0,0,4.909,73.94,66.537078244672,12.795276,6,P-GPS,
6100,2023-05-29 17:55:23,52.2063854995263,0.0867100601353495,12.795276,12.795276,53.741802244672,66.537078244672,13.12336,0.447388,2.6265092704,2.80044628384,26,5,15.907,66.865162244672,13.12336,0.447388,2.6265092704,0,0.447388,0,16.1, -0.5, 4.9,0,0,1024,1024,1024,1024,0,0,0,0,17.7,0,0,72,3.955,3.956,3.957,3.956,0,0,4.909,73.94,66.537078244672,12.795276,6,P-GPS,
6300,2023-05-29 17:55:23,52.2063852263444,0.0867111483763558,12.795276,12.795276,53.741802244672,66.537078244672,13.12336,0.7158208,2.8831693836,3.0633859248,26,5,15.907,66.865162244672,13.12336,0.7158208,2.8831693836,-0.223694,0.671082,0,15.9, -0.4, -0.5,0,0,1024,909,1024,1024,0,-17,0,0,17.7,0,0,72,3.955,3.956,3.957,3.956,0,0,4.909,73.94,66.537078244672,12.795276,6,P-GPS,
6500,2023-05-29 17:55:23,52.2063849193873,0.0867121217229944,12.795276,12.795276,53.741802244672,66.537078244672,13.12336,0.223694,3.12623369584,3.3081365888,26,5,15.907,66.865162244672,13.12336,0.7158208,3.12623369584,0,0.223694,0,15.9, -1.5, -4.7,0,0,1024,435,1024,1024,0,-89,0,0,17.7,0,0,72,3.955,3.956,3.957,3.956,0,0,4.909,73.94,66.537078244672,12.795276,6,P-GPS,
6700,2023-05-29 17:55:24,52.2063847188485,0.0867125159915357,12.795276,12.795276,53.741802244672,66.537078244672,13.12336,0,3.2401903924,3.4227035216,26,5,15.907,66.865162244672,13.12336,0.7158208,3.2401903924,0,0,0,16.3, -1.2, -4.5,0,0,1024,403,1024,1024,0,-94,0,0,17.7,0,0,72,3.955,3.956,3.957,3.956,0,0,4.909,73.94,66.537078244672,12.795276,6,P-GPS,
6900,2023-05-29 17:55:24,52.2063846082753,0.0867123066793358,12.795276,12.795276,53.741802244672,66.537078244672,13.12336,0.671082,3.22440299032,3.4844817388,26,5,15.824,66.865162244672,13.12336,0.7158208,3.2401903924,0,-0.671082,0,18.1, -1.1, -20.7,0,0,1024,431,1024,1024,0,-90,0,0,17.7,0,0,72,3.944,3.945,3.95,3.939,0,0,7.324,74.12,66.537078244672,12.795276,6,P-GPS,
7100,2023-05-29 17:55:24,52.2063848064539,0.0867101987564962,12.795276,12.795276,53.741802244672,66.537078244672,13.12336,2.5053728,2.80466872492,3.9613190244,26,5,15.824,66.865162244672,13.12336,2.5053728,3.2401903924,0.447388,-2.460634,0,18.7, -0.9, -25.5,0,0,1024,1024,1024,364,0,0,0,-100,17.7,0,0,72,3.944,3.945,3.95,3.939,0,0,7.324,74.12,66.537078244672,12.795276,6,P-GPS,
7300,2023-05-29 17:55:24,52.2063855403777,0.0867057926003107,12.795276,12.795276,53.741802244672,66.537078244672,13.12336,4.1159696,1.91826777792,4.9822180072,26,5,15.824,66.865162244672,13.12336,4.1159696,3.2401903924,0.894776,-4.026492,0,17.4, -1.6, -4.3,0,0,1024,1024,882,364,0,0,-22,-100,12.2,0,0,72,3.944,3.945,3.95,3.939,0,0,7.324,74.12,66.537078244672,12.795276,6,P-GPS,
7500,2023-05-29 17:55:24,52.2063863424728,0.0867009290684327,12.795276,12.795276,53.741802244672,66.537078244672,13.12336,3.2659324,1.219078123,6.1083007204,26,5,15.824,66.865162244672,13.12336,4.1159696,3.2401903924,0.894776,-3.131716,0,14.6, -0.1, 26.8,0,0,1024,1024,928,364,0,0,-15,-100,0.5,0,0,72,3.944,3.945,3.95,3.939,0,0,7.324,74.12,66.537078244672,12.795276,6,P-GPS,
7700,2023-05-29 17:55:24,52.2063866414669,0.0866982445418747,12.795276,12.795276,53.741802244672,66.537078244672,12.795276,1.1408394,1.21446526196,6.7183729184,26,5,15.824,66.865162244672,13.12336,4.1159696,3.2401903924,0.223694,-1.11847,0.223694,3.4, 6, 16.8,0,0,1024,1024,954,364,0,0,-11,-100,348.6,0,0,72,3.944,3.945,3.95,3.939,0,0,7.324,74.12,66.537078244672,12.795276,6,P-GPS,
7900,2023-05-29 17:55:25,52.206386406699,0.0866974227701766,12.467192,12.467192,53.741802244672,66.208994244672,12.467192,0.3131716,1.37471789176,6.921096022,26,5,15.747,66.865162244672,13.12336,4.1159696,3.2401903924,-0.223694,-0.223694,0.223694,352.4, 0.2, 7.5,0,0,1024,1024,932,364,0,0,-14,-100,336.6,0,0,72,3.956,3.958,3.949,3.94,0,0,8.366,74.12,66.208994244672,12.467192,6,P-GPS,
8100,2023-05-29 17:55:25,52.2063859819939,0.086697421919172,12.467192,12.467192,53.741802244672,66.208994244672,12.139108,0,1.51109912972,7.0760500952,26,5,15.747,66.865162244672,13.12336,4.1159696,3.2401903924,0,0,0.223694,341.8, -3.5, 4.1,0,0,1024,1024,936,364,0,0,-13,-100,324.6,0,0,72,3.956,3.958,3.949,3.94,0,0,8.366,74.12,66.208994244672,12.467192,6,P-GPS,
8300,2023-05-29 17:55:25,52.2063856569349,0.0866976651177837,12.467192,12.467192,53.741802244672,66.208994244672,12.139108,0,1.59539703268,7.206529102,26,5,15.747,66.865162244672,13.12336,4.1159696,3.2401903924,0,0,0.223694,330.2, -3.4, 2.8,0,0,1024,1024,797,499,0,0,-34,-80,312.6,0,0,72,3.956,3.958,3.949,3.94,0,0,8.366,74.12,66.208994244672,12.467192,6,P-GPS,
8500,2023-05-29 17:55:25,52.2063854703346,0.0866978797020186,12.467192,12.467192,53.741802244672,66.208994244672,12.139108,0,1.64047577428,7.2897968212,26,5,15.747,66.865162244672,13.12336,4.1159696,3.2401903924,0,0,0,317.7, -2.7, 2.2,0,0,1024,1024,1024,1024,0,0,0,0,304.9,0,0,72,3.956,3.958,3.949,3.94,0,0,8.366,74.12,66.208994244672,12.467192,6,P-GPS,
8700,2023-05-29 17:55:25,52.2063853622371,0.0866979244120915,12.139108,12.139108,53.741802244672,65.880910244672,12.139108,0,1.67394690396,7.3304792372,26,5,15.747,66.865162244672,13.12336,4.1159696,3.2401903924,0,0,0.447388,308.5, -1.8, 2.8,0,0,1024,1024,1024,1024,0,0,0,0,304.6,0,0,72,3.956,3.958,3.949,3.94,0,0,8.366,74.12,65.880910244672,12.139108,6,P-GPS,
8900,2023-05-29 17:55:26,52.2063852781442,0.0866978624862116,12.139108,12.139108,53.741802244672,65.880910244672,12.139108,0,1.70751645884,7.3641406556,26,5,15.783,66.865162244672,13.12336,4.1159696,3.2401903924,0,0,0,309.4, -0.8, 4.2,0,0,1024,1024,1024,1197,0,0,0,26,305.3,0,0,72,3.95,3.984,3.987,3.943,0,0,7.36,74.12,65.880910244672,12.139108,6,P-GPS,
9100,2023-05-29 17:55:26,52.2063852146591,0.0866978864768545,12.139108,12.139108,53.741802244672,65.880910244672,12.139108,0,1.72747052772,7.3879267456,26,5,15.783,66.865162244672,13.12336,4.1159696,3.2401903924,0,0,0,309.6, -1.8, 4.9,0,0,1024,1024,1024,1024,0,0,0,0,307.1,0,0,72,3.95,3.984,3.987,3.943,0,0,7.36,74.12,65.880910244672,12.139108,6,P-GPS,
9300,2023-05-29 17:55:26,52.2063852196707,0.0866980987055365,12.139108,12.139108,53.741802244672,65.880910244672,12.139108,0,1.71033798124,7.4354005004,26,5,15.783,66.865162244672,13.12336,4.1159696,3.2401903924,0,0,0,311.7, -2.4, 3.9,0,0,1024,1024,1024,1024,0,0,0,0,307.2,0,0,72,3.95,3.984,3.987,3.943,0,0,7.36,74.12,65.880910244672,12.139108,6,P-GPS,
9500,2023-05-29 17:55:26,52.2063852519209,0.0866984003159205,12.139108,12.139108,53.741802244672,65.880910244672,12.139108,0,1.67917984376,7.5038716312,26,5,15.783,66.865162244672,13.12336,4.1159696,3.2401903924,0,0,0,311.7, -3.4, 3.9,0,0,1024,1024,956,364,0,0,-10,-100,305.8,0,0,72,3.95,3.984,3.987,3.943,0,0,7.36,74.12,65.880910244672,12.139108,6,P-GPS,
9700,2023-05-29 17:55:27,52.2063853437883,0.0866986916460981,12.139108,12.139108,53.741802244672,65.880910244672,12.139108,0,1.62974414664,7.5771327884,26,5,15.783,66.865162244672,13.12336,4.1159696,3.2401903924,0,0,0,311.2, -3.8, 3.6,0,0,1024,1024,1024,1024,0,0,0,0,295.4,0,0,72,3.95,3.984,3.987,3.943,0,0,7.36,74.12,65.880910244672,12.139108,6,P-GPS,
9900,2023-05-29 17:55:27,52.2063854910322,0.0866989187822151,12.139108,12.139108,53.741802244672,65.880910244672,12.139108,0,1.56557419708,7.6510501136,26,5,15.788,66.865162244672,13.12336,4.1159696,3.2401903924,0,0,0,301, -3.4, 3.5,0,0,1024,1024,1024,1024,0,0,0,0,288.8,0,0,72,3.943,3.95,3.951,3.948,0,0,7.455,74.3,65.880910244672,12.139108,6,P-GPS,
10100,2023-05-29 17:55:27,52.2063856148457,0.0866989531998495,12.139108,12.139108,53.741802244672,65.880910244672,12.467192,0,1.51982944496,7.6968834484,26,5,15.788,66.865162244672,13.12336,4.1159696,3.2401903924,0,0,0,292.5, -2.7, 4,0,0,1024,1024,989,1499,0,0,-5,72,289.1,0,0,72,3.943,3.95,3.951,3.948,0,0,7.455,74.3,65.880910244672,12.139108,6,P-GPS,
10300,2023-05-29 17:55:27,52.2063856590852,0.0866987997533977,12.139108,12.139108,53.741802244672,65.880910244672,12.467192,0.223694,1.51230647884,7.7347771504,26,5,15.788,66.865162244672,13.12336,4.1159696,3.2401903924,0,-0.223694,0,293.3, -1.5, 6.5,0,0,1024,1024,1024,1024,0,0,0,0,293.4,0,0,72,3.943,3.95,3.951,3.948,0,0,7.455,74.3,65.880910244672,12.139108,6,P-GPS,
10500,2023-05-29 17:55:27,52.2063857162309,0.0866986257500281,12.139108,12.139108,53.741802244672,65.880910244672,12.467192,0,1.50244099296,7.7789372568,26,5,15.788,66.865162244672,13.12336,4.1159696,3.2401903924,0,0,0,297.8, -0.6, 7.1,0,0,1024,1024,1024,1024,0,0,0,0,294.2,0,0,72,3.943,3.95,3.951,3.948,0,0,7.455,74.3,65.880910244672,12.139108,6,P-GPS,
10700,2023-05-29 17:55:28,52.2063858571653,0.0866986143497109,12.139108,12.139108,53.741802244672,65.880910244672,12.467192,0,1.4538386292,7.8304136364,26,5,15.788,66.865162244672,13.12336,4.1159696,3.2401903924,0,0,0,299.4, -0.7, 6.4,0,0,1024,1024,1024,1024,0,0,0,0,294.2,0,0,72,3.943,3.95,3.951,3.948,0,0,7.455,74.3,65.880910244672,12.139108,6,P-GPS,
10900,2023-05-29 17:55:28,52.2063860140342,0.0866987699490123,12.139108,12.139108,53.741802244672,65.880910244672,12.139108,0,1.38911093684,7.8973755808,26,5,15.76,66.865162244672,13.12336,4.1159696,3.2401903924,0,0,0,298.8, -2.7, 5.2,0,0,1024,1024,1024,1024,0,0,0,0,294.2,0,0,72,3.938,3.944,3.944,3.943,0,0,7.379,74.3,65.880910244672,12.139108,6,P-GPS,
11100,2023-05-29 17:55:28,52.2063861532766,0.0866989188625974,12.139108,12.139108,53.741802244672,65.880910244672,12.467192,0,1.33120083,7.9581367376,26,5,15.76,66.865162244672,13.12336,4.1159696,3.2401903924,0,0,0,298.7, -2.3, 4.8,0,0,1024,1024,1024,1024,0,0,0,0,294.2,0,0,72,3.938,3.944,3.944,3.943,0,0,7.379,74.3,65.880910244672,12.139108,6,P-GPS,
11300,2023-05-29 17:55:28,52.2063862639356,0.0866989932896835,12.139108,12.139108,53.741802244672,65.880910244672,12.467192,0,1.28788061864,8.001804718,26,5,15.76,66.865162244672,13.12336,4.1159696,3.2401903924,0,0,0,298.6, -2, 6.1,0,0,1024,1024,1024,1024,0,0,0,0,294.2,0,0,72,3.938,3.944,3.944,3.943,0,0,7.379,74.3,65.880910244672,12.139108,6,P-GPS,
11500,2023-05-29 17:55:28,52.2063862879872,0.0866990616077093,12.467192,12.467192,53.741802244672,66.208994244672,12.467192,0,1.27550200932,8.0194228288,26,5,15.76,66.865162244672,13.12336,4.1159696,3.2401903924,0,0,0,298.4, -1.5, 6.8,0,0,1024,1024,1024,1024,0,0,0,0,294.2,0,0,72,3.938,3.944,3.944,3.943,0,0,7.379,74.3,66.208994244672,12.467192,6,P-GPS,
11700,2023-05-29 17:55:29,52.2063862951106,0.0866992537110919,12.467192,12.467192,53.741802244672,66.208994244672,12.467192,0,1.26290686456,8.0624346412,26,5,15.76,66.865162244672,13.12336,4.1159696,3.2401903924,0,0,0,298.8, -1.8, 7.6,0,0,1024,1024,1024,1024,0,0,0,0,294.2,0,0,72,3.938,3.944,3.944,3.943,0,0,7.379,74.3,66.208994244672,12.467192,6,P-GPS,
11900,2023-05-29 17:55:29,52.2063863403182,0.0866995844670752,12.467192,12.467192,53.741802244672,66.208994244672,12.467192,0,1.23255581372,8.1382220452,26,5,15.767,66.865162244672,13.12336,4.1159696,3.2401903924,0,0,0,298.2, -3.9, 6.9,0,0,1024,1024,1024,1024,0,0,0,0,294.2,0,0,72,3.941,3.949,3.949,3.946,0,0,7.347,74.3,66.208994244672,12.467192,6,P-GPS,
12100,2023-05-29 17:55:29,52.2063863411149,0.0866998195925009,12.467192,12.467192,53.741802244672,66.208994244672,12.467192,0,1.22474413368,8.190781102,26,5,15.767,66.865162244672,13.12336,4.1159696,3.2401903924,0,0,0,298, -3, 7.1,0,0,1024,1024,1024,1024,0,0,0,0,294.2,0,0,72,3.941,3.949,3.949,3.946,0,0,7.347,74.3,66.208994244672,12.467192,6,P-GPS,
12300,2023-05-29 17:55:29,52.2063863037418,0.0867000223448003,12.467192,12.467192,53.741802244672,66.208994244672,12.467192,0,1.23362536756,8.2381236232,26,5,15.767,66.865162244672,13.12336,4.1159696,3.2401903924,0,0,0,298.3, -3.1, 8.9,0,0,1024,1024,1024,1024,0,0,0,0,294.2,0,0,72,3.941,3.949,3.949,3.946,0,0,7.347,74.3,66.208994244672,12.467192,6,P-GPS,
12500,2023-05-29 17:55:29,52.2063862574718,0.0867002455631504,12.467192,12.467192,53.741802244672,66.208994244672,12.467192,0,1.24728350448,8.2908139136,26,5,15.767,66.865162244672,13.12336,4.1159696,3.2401903924,0,0,0,298.1, -3.5, 8.7,0,0,1024,1024,1024,1024,0,0,0,0,294.2,0,0,72,3.941,3.949,3.949,3.946,0,0,7.347,74.3,66.208994244672,12.467192,6,P-GPS,
12700,2023-05-29 17:55:29,52.2063862532226,0.0867004296912038,12.467192,12.467192,53.741802244672,66.208994244672,12.467192,0,1.2477198562,8.332021264,26,5,15.767,66.865162244672,13.12336,4.1159696,3.2401903924,0,0,0,298.5, -2.7, 9.7,0,0,1024,1024,1024,1024,0,0,0,0,294.2,0,0,72,3.941,3.949,3.949,3.946,0,0,7.347,74.3,66.208994244672,12.467192,6,P-GPS,
12900,2023-05-29 17:55:30,52.2063863025767,0.0867006256669198,12.795276,12.795276,53.741802244672,66.537078244672,12.467192,0,1.23002628608,8.3793965936,26,5,15.791,66.865162244672,13.12336,4.1159696,3.2401903924,0,0,0,298.9, -2.4, 8.8,0,0,1024,1024,1024,1024,0,0,0,0,294.2,0,0,72,3.945,3.948,3.943,3.943,0,0,7.12,74.48,66.537078244672,12.795276,6,P-GPS,
13100,2023-05-29 17:55:30,52.2063863716218,0.0867008421156763,12.795276,12.795276,53.741802244672,66.537078244672,12.467192,0,1.20704728272,8.4339569628,26,5,15.791,66.865162244672,13.12336,4.1159696,3.2401903924,0,0,0,298.6, -2.2, 8.7,0,0,1024,1024,1024,1024,0,0,0,0,294.2,0,0,72,3.945,3.948,3.943,3.943,0,0,7.12,74.48,66.537078244672,12.795276,6,P-GPS,
13300,2023-05-29 17:55:30,52.206386441198,0.0867010560830639,12.795276,12.795276,53.741802244672,66.537078244672,12.467192,0,1.18588258388,8.4880908228,26,5,15.791,66.865162244672,13.12336,4.1159696,3.2401903924,0,0,0,297.9, -2, 8.5,0,0,1024,1024,1024,1024,0,0,0,0,294.2,0,0,72,3.945,3.948,3.943,3.943,0,0,7.12,74.48,66.537078244672,12.795276,6,P-GPS,
13500,2023-05-29 17:55:30,52.2063865118108,0.0867012520902339,12.795276,12.795276,53.741802244672,66.537078244672,12.467192,0,1.1658793024,8.5389438428,26,5,15.791,66.865162244672,13.12336,4.1159696,3.2401903924,0,0,0,298.9, -0.4, 9.5,0,0,1024,1024,1024,1024,0,0,0,0,294.2,0,0,72,3.945,3.948,3.943,3.943,0,0,7.12,74.48,66.537078244672,12.795276,6,P-GPS,
13700,2023-05-29 17:55:30,52.2063865588604,0.0867015301782896,12.795276,12.795276,53.741802244672,66.537078244672,12.139108,0,1.15977365916,8.6034451572,26,5,15.791,66.865162244672,13.12336,4.1159696,3.2401903924,0,0,0,299.2, -0.4, 10,0,0,1024,1024,1024,1024,0,0,0,0,294.2,0,0,72,3.945,3.948,3.943,3.943,0,0,7.12,74.48,66.537078244672,12.795276,6,P-GPS,
13900,2023-05-29 17:55:31,52.2063865502463,0.0867019375806113,12.795276,12.795276,53.741802244672,66.537078244672,12.139108,0,1.184465261,8.6945868924,26,5,15.771,66.865162244672,13.12336,4.1159696,3.2401903924,0,0,0,298.8, -1.5, 9.7,0,0,1024,1024,1024,1024,0,0,0,0,294.2,0,0,72,3.931,3.939,3.938,3.933,0,0,7.037,74.48,66.537078244672,12.795276,6,P-GPS,
14100,2023-05-29 17:55:31,52.2063865146208,0.0867024100611998,12.795276,12.795276,53.741802244672,66.537078244672,12.139108,0,1.22978350392,8.801017342,26,5,15.771,66.865162244672,13.12336,4.1159696,3.2401903924,0,0,0,299.1, -2.8, 9.9,0,0,1024,1024,1310,1024,0,0,43,0,294.2,0,0,72,3.931,3.939,3.938,3.933,0,0,7.037,74.48,66.537078244672,12.795276,6,P-GPS,
14300,2023-05-29 17:55:31,52.2063865165826,0.0867028522061803,12.795276,12.795276,53.741802244672,66.537078244672,12.139108,0,1.267060408,8.8998690512,26,5,15.771,66.865162244672,13.12336,4.1159696,3.2401903924,0,0,0,299.2, -2.7, 8.9,0,0,1024,1024,1546,1024,0,0,79,0,294.2,0,0,72,3.931,3.939,3.938,3.933,0,0,7.037,74.48,66.537078244672,12.795276,6,P-GPS,
14500,2023-05-29 17:55:31,52.2063866125878,0.0867032855265745,13.12336,13.12336,53.741802244672,66.865162244672,12.139108,0,1.27976382048,9.0029202356,26,5,15.771,66.865162244672,13.12336,4.1159696,3.2401903924,0,0,-1.565858,298.2, -2.2, 6.1,0,0,1024,1024,1024,1024,0,0,0,0,294.2,0,0,72,3.931,3.939,3.938,3.933,0,0,7.037,74.48,66.865162244672,13.12336,6,P-GPS,
14700,2023-05-29 17:55:31,52.2063867455165,0.0867034927418429,14.107612,14.107612,53.741802244672,67.849414244672,13.12336,0.223694,1.26172248132,9.0699806052,26,5,15.771,67.849414244672,14.107612,4.1159696,3.2401903924,0.223694,0,-3.35541,297.3, -1.5, 7,0,0,1024,1024,1024,1024,0,0,0,0,294.2,0,0,72,3.931,3.939,3.938,3.933,0,0,7.037,74.48,67.849414244672,14.107612,6,P-GPS,
14900,2023-05-29 17:55:32,52.2063869132096,0.0867033531770771,15.091864,15.091864,53.741802244672,68.833666244672,14.107612,0.3131716,1.19333337152,9.1386485864,26,5,15.729,68.833666244672,15.091864,4.1159696,3.2401903924,0.223694,-0.223694,-2.013246,298.9, 1.5, 11.4,0,0,1024,1024,1024,1024,0,0,0,0,294.2,0,0,72,3.868,3.869,3.852,3.872,0,0,7.586,74.48,68.833666244672,15.091864,6,P-GPS,
15100,2023-05-29 17:55:32,52.2063870912859,0.0867031584070967,15.419948,15.419948,53.741802244672,69.161750244672,14.435696,0.223694,1.1151411118,9.216863812,26,5,15.729,69.161750244672,15.419948,4.1159696,3.2401903924,0.223694,0,-0.447388,299.1, 3.7, 8.8,0,0,1024,1024,1024,1024,0,0,0,0,294.2,0,0,72,3.868,3.869,3.852,3.872,0,0,7.586,74.48,69.161750244672,15.419948,6,P-GPS,
15300,2023-05-29 17:55:32,52.2063872248143,0.0867031599693106,15.419948,15.419948,53.741802244672,69.161750244672,14.435696,0,1.07450462756,9.265584286,26,5,15.729,69.161750244672,15.419948,4.1159696,3.2401903924,0,0,-0.223694,299.1, 2.2, 7.4,0,0,1024,1024,1658,1024,0,0,96,0,294.2,0,0,72,3.868,3.869,3.852,3.872,0,0,7.586,74.48,69.161750244672,15.419948,6,P-GPS,
15500,2023-05-29 17:55:32,52.2063872061983,0.0867033308028188,15.748032,15.748032,53.741802244672,69.489834244672,14.435696,0,1.1017388804,9.3043966232,26,5,15.729,69.489834244672,15.748032,4.1159696,3.2401903924,0,0,-0.447388,299, 1.4, 7.4,0,0,1024,1024,1682,1024,0,0,100,0,294.2,0,0,72,3.868,3.869,3.852,3.872,0,0,7.586,74.48,69.489834244672,15.748032,6,P-GPS,
15700,2023-05-29 17:55:32,52.2063871179119,0.0867036658505217,16.076116,16.076116,53.741802244672,69.817918244672,14.76378,0,1.17203743908,9.3859254972,26,5,15.729,69.817918244672,16.076116,4.1159696,3.2401903924,0,0,-2.460634,298.6, -0.9, 7.1,0,0,1024,1024,1631,1024,0,0,92,0,294.2,0,0,72,3.868,3.869,3.852,3.872,0,0,7.586,74.48,69.817918244672,16.076116,6,P-GPS,
15900,2023-05-29 17:55:33,52.2063870212985,0.0867040071820292,17.388452,17.388452,53.741802244672,71.130254244672,16.076116,0.223694,1.24695542048,9.469980618,26,5,15.741,71.130254244672,17.388452,4.1159696,3.2401903924,0,0.223694,-5.144962,299.1, -0.1, 8,0,0,1024,1024,1524,1024,0,0,76,0,294.2,0,0,72,3.874,3.88,3.88,3.877,0,0,8.507,74.66,71.130254244672,17.388452,6,P-GPS,
16100,2023-05-29 17:55:33,52.2063868919723,0.0867046109445044,20.341208,20.341208,53.741802244672,74.083010244672,18.04462,0.3131716,1.37078744544,9.6129924336,26,5,15.741,74.083010244672,20.341208,4.1159696,3.2401903924,-0.223694,0.223694,-7.158208,298.2, -2.9, 10.4,0,0,1024,1024,1024,1024,0,0,0,0,294.2,0,0,72,3.874,3.88,3.88,3.877,0,0,8.507,74.66,74.083010244672,20.341208,6,P-GPS,
16300,2023-05-29 17:55:33,52.2063867434989,0.0867050684180536,22.309712,22.309712,53.741802244672,76.051514244672,20.341208,0,1.4801837744,9.7287404688,26,5,15.741,76.051514244672,22.309712,4.1159696,3.2401903924,0,0,-6.263432,299.2, -3.7, 13.8,0,0,1024,1024,1024,1024,0,0,0,0,294.2,0,0,72,3.874,3.88,3.88,3.877,0,0,8.507,74.66,76.051514244672,22.309712,6,P-GPS,
16500,2023-05-29 17:55:33,52.2063866425378,0.0867051778953484,23.950132,23.950132,53.741802244672,77.691934244672,21.981628,0,1.52373364456,9.772966192,26,5,15.741,77.691934244672,23.950132,4.1159696,3.2401903924,0,0,-4.250186,299, -3.5, 12,0,0,1024,1024,1024,1024,0,0,0,0,294.2,0,0,72,3.874,3.88,3.88,3.877,0,0,8.507,74.66,77.691934244672,23.950132,6,P-GPS,
16700,2023-05-29 17:55:34,52.2063864858702,0.0867048830772748,25.262468,25.262468,53.741802244672,79.004270244672,23.293964,0.3131716,1.52234584924,9.8602037276,26,5,15.741,79.004270244672,25.262468,4.1159696,3.2401903924,-0.223694,-0.223694,-2.23694,299.3, -1.8, 13.4,0,0,1024,1024,1024,1024,0,0,0,0,294.2,0,0,72,3.874,3.88,3.88,3.877,0,0,8.507,74.66,79.004270244672,25.262468,6,P-GPS,
16900,2023-05-29 17:55:34,52.2063862564138,0.0867043802505937,25.918636,25.918636,53.741802244672,79.660438244672,23.622048,0.3131716,1.520177214,10.0003940208,26,5,15.485,79.660438244672,25.918636,4.1159696,3.2401903924,-0.223694,-0.223694,-0.447388,299.3, 0.8, 15.3,0,0,1024,1024,1645,1024,0,0,94,0,294.2,0,0,72,3.95,3.954,3.961,3.964,0,0,11.566,74.48,79.660438244672,25.918636,6,P-GPS,
17100,2023-05-29 17:55:34,52.206386142084,0.0867040274698407,26.24672,26.24672,53.741802244672,79.988522244672,23.622048,0.223694,1.51182419536,10.0896328688,26,5,15.485,79.988522244672,26.24672,4.1159696,3.2401903924,0,-0.223694,0,299.2, 1.6, 14.4,0,0,1024,1024,1106,1024,0,0,12,0,294.2,0,0,72,3.95,3.954,3.961,3.964,0,0,11.566,74.48,79.988522244672,26.24672,6,P-GPS,
17300,2023-05-29 17:55:34,52.2063862405607,0.0867039970398709,26.902888,26.902888,53.741802244672,80.644690244672,23.950132,0,1.4777067402,10.1261814264,26,5,15.485,80.644690244672,26.902888,4.1159696,3.2401903924,0,0,-1.789552,299, 1.2, 9.8,0,0,1024,1024,1024,1024,0,0,0,0,294.2,0,0,72,3.95,3.954,3.961,3.964,0,0,11.566,74.48,80.644690244672,26.902888,6,P-GPS,
17500,2023-05-29 17:55:34,52.2063863739477,0.0867040669830185,27.559056,27.559056,53.741802244672,81.300858244672,24.6063,0,1.44529532184,10.1772969136,26,5,15.485,81.300858244672,27.559056,4.1159696,3.2401903924,0,0,-1.342164,298.7, 1, 13.5,0,0,1024,1024,1511,1024,0,0,74,0,294.2,0,0,72,3.95,3.954,3.961,3.964,0,0,11.566,74.48,81.300858244672,27.559056,6,P-GPS,
17700,2023-05-29 17:55:35,52.2063864250151,0.0867041081178233,27.88714,27.88714,53.741802244672,81.628942244672,24.934384,0,1.43498364172,10.1980646308,26,5,15.485,81.628942244672,27.88714,4.1159696,3.2401903924,0,0,-0.223694,299.3, 2.7, 13.2,0,0,1024,1024,1273,1024,0,0,38,0,294.2,0,0,72,3.95,3.954,3.961,3.964,0,0,11.566,74.48,81.628942244672,27.88714,6,P-GPS,
17900,2023-05-29 17:55:35,52.2063865120807,0.0867044211652207,28.543308,28.543308,53.741802244672,82.285110244672,24.934384,0.3131716,1.45020673932,10.274934712,26,5,15.436,82.285110244672,28.543308,4.1159696,3.2401903924,0.223694,0.223694,-1.342164,299, 0.9, 9,0,0,1024,1024,1024,1024,0,0,0,0,294.2,0,0,72,3.914,3.924,3.924,3.912,0,0,8.31,74.48,82.285110244672,28.543308,6,P-GPS,
18100,2023-05-29 17:55:35,52.2063865684939,0.0867048222138402,29.199476,29.199476,53.741802244672,82.941278244672,25.590552,0,1.490567633,10.3669294656,26,5,15.436,82.941278244672,29.199476,4.1159696,3.2401903924,0,0,-1.11847,298.8, -0.7, 11,0,0,1024,1024,1376,1024,0,0,53,0,294.2,0,0,72,3.914,3.924,3.924,3.912,0,0,8.31,74.48,82.941278244672,29.199476,6,P-GPS,
18300,2023-05-29 17:55:35,52.2063865630924,0.0867050173298143,29.52756,29.52756,53.741802244672,83.269362244672,25.590552,0,1.52075792268,10.4106302544,26,5,15.436,83.269362244672,29.52756,4.1159696,3.2401903924,0,0,-0.447388,299.1, -0.6, 11.2,0,0,1024,1024,1024,1024,0,0,0,0,294.2,0,0,72,3.914,3.924,3.924,3.912,0,0,8.31,74.48,83.269362244672,29.52756,6,P-GPS,
18500,2023-05-29 17:55:35,52.2063866205294,0.0867050790425061,29.855644,29.855644,53.741802244672,83.597446244672,25.918636,0,1.51450464164,10.435695872,26,5,15.436,83.597446244672,29.855644,4.1159696,3.2401903924,0,0,-1.342164,299.2, 1.5, 8.9,0,0,1024,1024,1024,1024,0,0,0,0,294.2,0,0,72,3.914,3.924,3.924,3.912,0,0,8.31,74.48,83.597446244672,29.855644,6,P-GPS,
18700,2023-05-29 17:55:36,52.2063866330413,0.0867051186535407,30.183728,30.183728,53.741802244672,83.925530244672,26.24672,0,1.51718180708,10.4456696256,26,5,15.436,83.925530244672,30.183728,4.1159696,3.2401903924,0,0,-0.447388,299.2, 3.3, 12.9,0,0,1024,1024,1024,1024,0,0,0,0,294.2,0,0,72,3.914,3.924,3.924,3.912,0,0,8.31,74.48,83.925530244672,30.183728,6,P-GPS,
18900,2023-05-29 17:55:36,52.2063866238105,0.0867053164326178,30.511812,30.511812,53.741802244672,84.253614244672,26.24672,0,1.55010831732,10.4900265824,26,5,15.648,84.253614244672,30.511812,4.1159696,3.2401903924,0,0,0,298.8, 2.3, 11.9,0,0,1024,1024,1024,1024,0,0,0,0,294.2,0,0,71,3.917,3.86,3.85,3.853,0,0,8.074,74.84,84.253614244672,30.511812,6,P-GPS,
19100,2023-05-29 17:55:36,52.2063866178693,0.0867057310693529,30.511812,30.511812,53.741802244672,84.253614244672,26.24672,0,1.61753286016,10.5827431208,26,5,15.648,84.253614244672,30.511812,4.1159696,3.2401903924,0,0,0,298.6, -0.4, 9.4,0,0,1024,1024,1684,1024,0,0,100,0,294.2,0,0,71,3.917,3.86,3.85,3.853,0,0,8.074,74.84,84.253614244672,30.511812,6,P-GPS,
19300,2023-05-29 17:55:36,52.2063865376144,0.0867060156474114,30.511812,30.511812,53.741802244672,84.253614244672,26.24672,0,1.683973151,10.6527890548,26,5,15.648,84.253614244672,30.511812,4.1159696,3.2401903924,0,0,0,299.1, 0.7, 10.7,0,0,1024,1024,1024,1024,0,0,0,0,294.2,0,0,71,3.917,3.86,3.85,3.853,0,0,8.074,74.84,84.253614244672,30.511812,6,P-GPS,
19500,2023-05-29 17:55:36,52.2063865513643,0.0867063518938601,31.16798,31.16798,53.741802244672,84.909782244672,26.574804,0,1.73660110544,10.7281499496,26,5,15.648,84.909782244672,31.16798,4.1159696,3.2401903924,0,0,-1.789552,298.7, -0.4, 8.9,0,0,1024,1024,1024,1024,0,0,0,0,294.2,0,0,71,3.917,3.86,3.85,3.853,0,0,8.074,74.84,84.909782244672,31.16798,6,P-GPS,
19700,2023-05-29 17:55:36,52.2063866309424,0.0867065351761512,31.496064,31.496064,53.741802244672,85.237866244672,27.230972,0,1.74917656516,10.7783468016,26,5,15.648,85.237866244672,31.496064,4.1159696,3.2401903924,0,0,-0.894776,299.2, 0.8, 11.7,0,0,1024,1024,1684,1024,0,0,100,0,294.2,0,0,71,3.917,3.86,3.85,3.853,0,0,8.074,74.84,85.237866244672,31.496064,6,P-GPS,
19900,2023-05-29 17:55:37,52.2063867071067,0.0867066124585589,31.824148,31.824148,53.741802244672,85.565950244672,27.230972,0,1.74520346792,10.8110895848,26,5,15.69,85.565950244672,31.824148,4.1159696,3.2401903924,0,0,-0.447388,299.5, 2, 9.6,0,0,1024,1024,1024,1024,0,0,0,0,294.2,0,0,71,3.849,3.859,3.854,3.853,0,0,8.781,74.84,85.565950244672,31.824148,6,P-GPS,
20100,2023-05-29 17:55:37,52.2063868165105,0.0867068405557694,32.152232,32.152232,53.741802244672,85.894034244672,27.88714,0,1.76159126372,10.8758533664,26,5,15.69,85.894034244672,32.152232,4.1159696,3.2401903924,0,0,-1.565858,299, 1.2, 8.4,0,0,1024,1024,1024,1024,0,0,0,0,294.2,0,0,71,3.849,3.859,3.854,3.853,0,0,8.781,74.84,85.894034244672,32.152232,6,P-GPS,
20300,2023-05-29 17:55:37,52.2063868131737,0.0867069249747336,32.480316,32.480316,53.741802244672,86.222118244672,28.215224,0,1.777559112,10.8947510048,26,5,15.69,86.222118244672,32.480316,4.1159696,3.2401903924,0,0,-0.447388,299.1, 1.9, 10,0,0,1024,1024,1291,1024,0,0,40,0,294.2,0,0,71,3.849,3.859,3.854,3.853,0,0,8.781,74.84,86.222118244672,32.480316,6,P-GPS,
20500,2023-05-29 17:55:37,52.2063868291167,0.0867069636666133,32.8084,32.8084,53.741802244672,86.550202244672,28.543308,0,1.78117787852,10.905184076,26,5,15.69,86.550202244672,32.8084,4.1159696,3.2401903924,0,0,-0.894776,299.3, 1.5, 8.6,0,0,1024,1024,1024,1024,0,0,0,0,294.2,0,0,71,3.849,3.859,3.854,3.853,0,0,8.781,74.84,86.550202244672,32.8084,6,P-GPS,
20700,2023-05-29 17:55:37,52.2063868149685,0.0867069330269503,33.136484,33.136484,53.741802244672,86.878286244672,28.871392,0,1.77863522752,10.9137798768,26,5,15.69,86.878286244672,33.136484,4.1159696,3.2401903924,0,0,-0.671082,299.1, 2, 11.2,0,0,1024,1024,1024,1024,0,0,0,0,294.2,0,0,71,3.849,3.859,3.854,3.853,0,0,8.781,74.84,86.878286244672,33.136484,6,P-GPS,
20900,2023-05-29 17:55:38,52.2063867665739,0.0867068242451378,33.136484,33.136484,53.741802244672,86.878286244672,29.199476,0,1.76951121148,10.9438323712,26,5,15.698,86.878286244672,33.136484,4.1159696,3.2401903924,0,0,0,298.8, 3, 10,0,0,1024,1024,1024,1024,0,0,0,0,294.2,0,0,71,3.918,3.911,3.857,3.844,0,0,9.115,75.02,86.878286244672,33.136484,6,P-GPS,
21100,2023-05-29 17:55:38,52.2063867593477,0.0867068154904491,33.136484,33.136484,53.741802244672,86.878286244672,28.871392,0,1.76952761568,10.9471132112,26,5,15.698,86.878286244672,33.136484,4.1159696,3.2401903924,0,0,0,299, 2.3, 10.3,0,0,1024,1024,1024,1024,0,0,0,0,294.2,0,0,71,3.918,3.911,3.857,3.844,0,0,9.115,75.02,86.878286244672,33.136484,6,P-GPS,
21300,2023-05-29 17:55:38,52.2063867926088,0.0867068310846291,33.136484,33.136484,53.741802244672,86.878286244672,28.871392,0,1.76506239244,10.9597444452,26,5,15.698,86.878286244672,33.136484,4.1159696,3.2401903924,0,0,0,299, 2.2, 10,0,0,1684,1024,1024,1024,100,0,0,0,294.2,0,0,71,3.918,3.911,3.857,3.844,0,0,9.115,75.02,86.878286244672,33.136484,6,P-GPS,
21500,2023-05-29 17:55:38,52.2063868402495,0.0867068136766034,33.136484,33.136484,53.741802244672,86.878286244672,28.871392,0.223694,1.75162735264,10.977526598,26,5,15.698,86.878286244672,33.136484,4.1159696,3.2401903924,0,-0.223694,0,298.9, -10.8, 1.5,0,0,1684,1024,1024,1024,100,0,0,0,294.2,0,0,71,3.918,3.911,3.857,3.844,0,0,9.115,75.02,86.878286244672,33.136484,6,P-GPS,
21700,2023-05-29 17:55:38,52.20638690433,0.0867055092769162,33.136484,33.136484,53.741802244672,86.878286244672,28.871392,1.8119214,1.51014768612,11.2701119092,26,5,15.698,86.878286244672,33.136484,4.1159696,3.2401903924,0.223694,-1.789552,0,297, -26.4, 4.3,0,0,1684,1024,1024,1024,100,0,0,0,294.2,0,0,71,3.918,3.911,3.857,3.844,0,0,9.115,75.02,86.878286244672,33.136484,6,P-GPS,
21900,2023-05-29 17:55:39,52.2063875343971,0.0867016005757724,32.8084,32.8084,53.741802244672,86.550202244672,28.871392,3.9593838,0.81888782148,12.1737864788,26,5,15.619,86.878286244672,33.136484,4.1159696,3.2401903924,1.11847,-3.802798,0,296.6, -24.6, 8.6,0,0,1684,1024,1024,1024,100,0,0,0,294.2,0,0,71,3.902,3.906,3.903,3.909,0,0,8.664,75.02,86.550202244672,32.8084,6,P-GPS,
22100,2023-05-29 17:55:39,52.2063889577567,0.0866951347069481,32.8084,32.8084,53.741802244672,86.550202244672,29.199476,5.9502604,1.22510502608,13.7099085752,25,5,15.619,86.878286244672,33.136484,5.9502604,3.2401903924,2.013246,-5.59235,0,297, -25, 10.3,0,0,1684,1024,1024,1024,100,0,0,0,294.2,0,0,71,3.902,3.906,3.903,3.909,0,0,8.664,75.02,86.550202244672,32.8084,6,P-GPS,
22300,2023-05-29 17:55:39,52.2063911712521,0.0866862785774475,32.8084,32.7755916,53.774610644672,86.550202244672,29.199476,8.0082452,3.22380587744,15.8483928956,25,5,15.619,86.878286244672,33.136484,8.0082452,3.2401903924,3.131716,-7.381902,0,297, -23.2, 11.2,0,0,1684,1024,1024,1024,100,0,0,0,294.2,0,0,71,3.902,3.906,3.903,3.909,0,0,8.664,75.02,86.550202244672,32.8084,6,P-GPS,
22500,2023-05-29 17:55:39,52.2063941996243,0.0866754383397338,32.8084,32.7427832,53.807419044672,86.550202244672,29.199476,9.618842,5.8392718404,18.5120740832,25,5,15.619,86.878286244672,33.136484,9.618842,5.8392718404,4.026492,-8.724066,0,297.2, -21.1, 11,0,0,1637,1024,1024,1024,93,0,0,0,294.2,0,0,71,3.902,3.906,3.903,3.909,0,0,8.664,75.02,86.550202244672,32.8084,6,P-GPS,
22700,2023-05-29 17:55:39,52.2063978802199,0.0866629633858315,32.480316,32.3818908,53.840227444672,86.222118244672,29.199476,11.0057448,8.9084320436,21.6077434736,25,5,15.619,86.878286244672,33.136484,11.0057448,8.9084320436,4.921268,-9.842536,0,296.8, -19.2, 10.6,0,0,1618,1024,1024,1024,90,0,0,0,294.2,0,0,71,3.902,3.906,3.903,3.909,0,0,8.664,75.02,86.222118244672,32.480316,6,P-GPS,
22900,2023-05-29 17:55:40,52.2064020278582,0.0866490752167911,32.480316,32.316274,53.905844244672,86.222118244672,29.52756,12.0123678,12.3475069568,25.0620414844,25,5,15.535,86.878286244672,33.136484,12.0123678,12.3475069568,5.368656,-10.737312,0,296.2, -17.6, 10.5,0,0,1226,1024,1024,1024,31,0,0,0,294.2,0,0,71,3.887,3.891,3.887,3.886,0,0,9.441,75.02,86.222118244672,32.480316,6,P-GPS,
23100,2023-05-29 17:55:40,52.206406512637,0.0866340089410008,32.480316,32.2506572,53.971461044672,86.222118244672,29.199476,13.1084684,16.083661932,28.8070547276,25,5,15.535,86.878286244672,33.136484,13.1084684,16.083661932,6.039738,-11.632088,0,296.8, -16.3, 11,0,0,1540,1024,1024,1024,78,0,0,0,294.2,0,0,71,3.887,3.891,3.887,3.886,0,0,9.441,75.02,86.222118244672,32.480316,6,P-GPS,
23300,2023-05-29 17:55:40,52.2064112580966,0.08661811118472,32.480316,32.2178488,54.004269444672,86.222118244672,29.199476,13.3992706,20.0314638956,32.7607950116,25,5,15.535,86.878286244672,33.136484,13.3992706,20.0314638956,6.263432,-11.855782,-0.223694,297.6, -3.1, 10,0,0,1684,1024,1024,1024,100,0,0,0,294.2,0,0,71,3.887,3.891,3.887,3.886,0,0,9.441,75.02,86.222118244672,32.480316,6,P-GPS,
23500,2023-05-29 17:55:40,52.2064159493168,0.0866021997214974,32.480316,32.152232,54.069886244672,86.222118244672,29.199476,13.3992706,23.9761162528,36.708662592,25,5,15.535,86.878286244672,33.136484,13.3992706,23.9761162528,6.263432,-11.855782,0,297, -13.1, 11.5,0,0,1024,1024,1024,1024,0,0,0,0,294.2,0,0,71,3.887,3.891,3.887,3.886,0,0,9.441,75.02,86.222118244672,32.480316,6,P-GPS,
23700,2023-05-29 17:55:41,52.2064207932434,0.0865859815296307,32.152232,31.7585312,54.135503044672,85.894034244672,28.871392,13.8242892,28.0069890852,40.742783456,26,5,15.535,86.878286244672,33.136484,13.8242892,28.0069890852,6.71082,-12.079476,0,297.1, -5.8, 10.5,0,0,1024,1024,1024,1024,0,0,0,0,294.2,0,0,71,3.887,3.891,3.887,3.886,0,0,9.441,75.02,85.894034244672,32.152232,6,P-GPS,
23900,2023-05-29 17:55:41,52.2064256902721,0.0865700350791073,32.152232,31.7257228,54.168311444672,85.894034244672,28.871392,12.8176662,31.991142756,44.730644476,26,5,15.538,86.878286244672,33.136484,13.8242892,31.991142756,6.263432,-11.1847,-0.447388,298.7, 26.4, 4.2,0,0,1024,1024,1024,1024,0,0,0,0,294.2,-0.3,0,71,3.9,3.908,3.903,3.895,0,0,9.256,75.2,85.894034244672,32.152232,6,P-GPS,
24100,2023-05-29 17:55:41,52.2064296499485,0.0865564361083643,32.152232,31.660106,54.233928244672,85.894034244672,28.871392,10.2228158,35.356956512,48.0971144,25,5,15.538,86.878286244672,33.136484,13.8242892,35.356956512,4.921268,-8.94776,-0.223694,299.6, 27.6, 5.2,0,0,1024,1024,1024,1024,0,0,0,0,294.2,-2.5,0,71,3.9,3.908,3.903,3.895,0,0,9.256,75.2,85.894034244672,32.152232,6,P-GPS,
24300,2023-05-29 17:55:41,52.2064326528141,0.0865455545230946,32.152232,31.6272976,54.266736644672,85.894034244672,28.215224,7.9187676,38.0249356,50.765093488,26,5,15.538,86.878286244672,33.136484,13.8242892,38.0249356,3.802798,-6.934514,0,299.6, 27.1, 6.4,0,0,1024,1024,1024,1024,0,0,0,0,294.2,-5.3,0,71,3.9,3.908,3.903,3.895,0,0,9.256,75.2,85.894034244672,32.152232,6,P-GPS,
24500,2023-05-29 17:55:41,52.2064348204659,0.086537273097842,31.824148,31.2664052,54.299545044672,85.565950244672,27.88714,5.6147194,40.038059024,52.778544996,27,5,15.538,86.878286244672,33.136484,13.8242892,40.038059024,2.684328,-4.921268,0,300.1, 29, 7.5,0,0,1024,1024,1024,1024,0,0,0,0,294.2,-8.2,0,71,3.9,3.908,3.903,3.895,0,0,9.256,75.2,85.565950244672,31.824148,6,P-GPS,
24700,2023-05-29 17:55:42,52.2064360159085,0.0865318377397545,31.824148,31.2664052,54.299545044672,85.565950244672,27.559056,3.1093466,41.32546064,54.06988362,27,5,15.538,86.878286244672,33.136484,13.8242892,41.32546064,1.565858,-2.684328,0,300.4, 25.9, 9.1,0,0,1024,1024,1024,1024,0,0,0,0,294.2,-11.1,0,71,3.9,3.908,3.903,3.895,0,0,9.256,75.2,85.565950244672,31.824148,6,P-GPS,
24900,2023-05-29 17:55:42,52.2064364320906,0.0865290263698147,31.824148,31.2664052,54.299545044672,85.565950244672,27.559056,1.2974252,41.961287432,54.716537184,27,5,15.676,86.878286244672,33.136484,13.8242892,41.961287432,0.671082,-1.11847,0,299.5, 13.7, 9.8,0,0,1024,1024,1024,1024,0,0,0,0,294.2,-14,0,71,3.899,3.903,3.901,3.9,0,0,7.772,75.38,85.565950244672,31.824148,6,P-GPS,
25100,2023-05-29 17:55:42,52.2064365260746,0.0865278655505169,31.824148,31.2664052,54.299545044672,85.565950244672,27.559056,0.4921268,42.212271692,54.978348216,27,5,15.676,86.878286244672,33.136484,13.8242892,42.212271692,0.447388,-0.223694,0,298.2, 5.1, 8.9,0,0,1024,1024,1024,1024,0,0,0,0,294.2,-17,0,71,3.899,3.903,3.901,3.9,0,0,7.772,75.38,85.565950244672,31.824148,6,P-GPS,
25300,2023-05-29 17:55:42,52.2064366075883,0.0865273732189776,31.824148,31.2664052,54.299545044672,85.565950244672,27.88714,0.447388,42.325132588,55.092193364,27,5,15.676,86.878286244672,33.136484,13.8242892,42.325132588,0.447388,0,0,296.8, 2.2, 6.8,0,0,1024,1024,1024,1024,0,0,0,0,294.2,-19.9,0,71,3.899,3.903,3.901,3.9,0,0,7.772,75.38,85.565950244672,31.824148,6,P-GPS,
25500,2023-05-29 17:55:42,52.2064366930348,0.0865271234045473,31.824148,31.2664052,54.299545044672,85.565950244672,28.215224,0.223694,42.388780884,55.156169744,27,5,15.676,86.878286244672,33.136484,13.8242892,42.388780884,0.223694,0,0,297.1, 1.6, 6.1,0,0,1024,1024,1024,1024,0,0,0,0,294.2,-22.8,0,71,3.899,3.903,3.901,3.9,0,0,7.772,75.38,85.565950244672,31.824148,6,P-GPS,
25700,2023-05-29 17:55:43,52.2064367848925,0.0865269706361033,31.824148,31.2664052,54.299545044672,85.565950244672,28.215224,0.223694,42.433400308,55.204070008,27,5,15.676,86.878286244672,33.136484,13.8242892,42.433400308,0.223694,0,0,298, 1.6, 6.5,0,0,1024,1024,1024,1024,0,0,0,0,294.2,-25.7,0,71,3.899,3.903,3.901,3.9,0,0,7.772,75.38,85.565950244672,31.824148,6,P-GPS,
25900,2023-05-29 17:55:43,52.2064369089303,0.0865269195268947,31.824148,31.2664052,54.299545044672,85.565950244672,28.543308,0.223694,42.4622717,55.25098602,27,5,15.609,86.878286244672,33.136484,13.8242892,42.4622717,0.223694,0,0,298.2, 2.7, 5.9,0,0,1024,1024,1024,1024,0,0,0,0,294.2,-28.6,0,71,3.905,3.912,3.912,3.91,0,0,8.233,75.38,85.565950244672,31.824148,6,P-GPS,
26100,2023-05-29 17:55:43,52.206437012386,0.0865270075560759,31.824148,31.2664052,54.299545044672,85.565950244672,28.543308,0,42.459647028,55.293308856,27,5,15.609,86.878286244672,33.136484,13.8242892,42.4622717,0,0,0,298.2, 1, 6.5,0,0,1024,1024,1024,1024,0,0,0,0,294.2,-31.6,0,71,3.905,3.912,3.912,3.91,0,0,8.233,75.38,85.565950244672,31.824148,6,P-GPS,
26300,2023-05-29 17:55:43,52.2064371289652,0.0865272219323652,31.824148,31.2664052,54.299545044672,85.565950244672,28.871392,0,42.433072224,55.35761332,27,5,15.609,86.878286244672,33.136484,13.8242892,42.4622717,0,0,0,298.2, 2.3, 6.2,0,0,1024,1024,1024,1024,0,0,0,0,294.2,-34.5,0,71,3.905,3.912,3.912,3.91,0,0,8.233,75.38,85.565950244672,31.824148,6,P-GPS,
26500,2023-05-29 17:55:43,52.2064371959703,0.0865276299812407,31.824148,31.2664052,54.299545044672,85.565950244672,28.871392,0.223694,42.359909492,55.452101512,27,5,15.609,86.878286244672,33.136484,13.8242892,42.4622717,0,0.223694,0,298.2, 0, 6.4,0,0,1024,1024,1024,1024,0,0,0,0,294.2,-37.4,0,71,3.905,3.912,3.912,3.91,0,0,8.233,75.38,85.565950244672,31.824148,6,P-GPS,
26700,2023-05-29 17:55:43,52.2064371930522,0.0865280804999674,32.152232,31.5944892,54.299545044672,85.894034244672,28.871392,0,42.267717888,55.5528233,27,5,15.609,86.878286244672,33.136484,13.8242892,42.4622717,0,0,0,297.9, -1.6, 8.4,0,0,1024,1024,1024,1024,0,0,0,0,294.2,-40.3,0,71,3.905,3.912,3.912,3.91,0,0,8.233,75.38,85.894034244672,32.152232,6,P-GPS,
26900,2023-05-29 17:55:44,52.2064372465237,0.0865284734509368,32.152232,31.5944892,54.299545044672,85.894034244672,29.199476,0,42.195539408,55.642718316,27,5,15.652,86.878286244672,33.136484,13.8242892,42.4622717,0,0,0,298, -1.7, 8.1,0,0,1024,1024,1024,1024,0,0,0,0,294.2,-43.3,0,71,3.911,3.915,3.912,3.916,0,0,7.346,75.38,85.894034244672,32.152232,6,P-GPS,
27100,2023-05-29 17:55:44,52.2064372924349,0.0865287081674608,32.152232,31.5944892,54.299545044672,85.894034244672,29.199476,0,42.154528908,55.697836428,27,5,15.652,86.878286244672,33.136484,13.8242892,42.4622717,0,0,0,298, -1.2, 9.1,0,0,1024,1024,1024,1024,0,0,0,0,294.2,-46.2,0,71,3.911,3.915,3.912,3.916,0,0,7.346,75.38,85.894034244672,32.152232,6,P-GPS,
27300,2023-05-29 17:55:44,52.2064373124173,0.0865288429861718,32.152232,31.5944892,54.299545044672,85.894034244672,29.199476,0,42.130250692,55.728676324,27,5,15.652,86.878286244672,33.136484,13.8242892,42.4622717,0,0,0,298, -0.7, 10.7,0,0,1024,1024,1024,1024,0,0,0,0,294.2,-49.1,0,71,3.911,3.915,3.912,3.916,0,0,7.346,75.38,85.894034244672,32.152232,6,P-GPS,
27500,2023-05-29 17:55:44,52.2064373940873,0.0865289806846687,32.152232,31.5944892,54.299545044672,85.894034244672,28.871392,0,42.11450266,55.771655328,27,5,15.652,86.878286244672,33.136484,13.8242892,42.4622717,0,0,0,298.1, -1.1, 10.5,0,0,1024,1024,1024,1024,0,0,0,0,294.2,-52,0,71,3.911,3.915,3.912,3.916,0,0,7.346,75.38,85.894034244672,32.152232,6,P-GPS,
27700,2023-05-29 17:55:44,52.2064375244914,0.0865291500048914,32.152232,31.5616808,54.332353444672,85.894034244672,28.871392,0,42.09973888,55.832350868,27,5,15.652,86.878286244672,33.136484,13.8242892,42.4622717,0,0,0,298, -1.2, 10.5,0,0,1024,1024,1024,1024,0,0,0,0,294.2,-54.9,0,71,3.911,3.915,3.912,3.916,0,0,7.346,75.38,85.894034244672,32.152232,6,P-GPS,
27900,2023-05-29 17:55:45,52.2064376768525,0.0865293214639842,32.152232,31.5616808,54.332353444672,85.894034244672,28.871392,0,42.087927856,55.899936172,27,5,15.635,86.878286244672,33.136484,13.8242892,42.4622717,0,0,0,298, -1.8, 10.2,0,0,1024,1024,1024,1024,0,0,0,0,294.2,-57.8,0,71,3.905,3.909,3.91,3.907,0,0,7.256,75.38,85.894034244672,32.152232,6,P-GPS,
28100,2023-05-29 17:55:45,52.2064378583389,0.0865295176389087,32.152232,31.5616808,54.332353444672,85.894034244672,28.543308,0,42.075460664,55.9793325,27,5,15.635,86.878286244672,33.136484,13.8242892,42.4622717,0,0,0,297.8, -1.8, 10,0,0,1024,1024,1024,1024,0,0,0,0,294.2,-60.7,0,71,3.905,3.909,3.91,3.907,0,0,7.256,75.38,85.894034244672,32.152232,6,P-GPS,
28300,2023-05-29 17:55:45,52.2064380473124,0.0865296737344839,32.152232,31.5616808,54.332353444672,85.894034244672,28.871392,0,42.072835992,56.056760324,27,5,15.635,86.878286244672,33.136484,13.8242892,42.4622717,0,0,0,297.9, -1.7, 9.9,0,0,1024,1024,1024,1024,0,0,0,0,294.2,-63.7,0,71,3.905,3.909,3.91,3.907,0,0,7.256,75.38,85.894034244672,32.152232,6,P-GPS,
28500,2023-05-29 17:55:45,52.2064382130716,0.0865297468474929,32.152232,31.5616808,54.332353444672,85.894034244672,28.543308,0,42.08333468,56.119424368,27,5,15.635,86.878286244672,33.136484,13.8242892,42.4622717,0,0,0,298, -1.2, 10.4,0,0,1024,1024,1024,1024,0,0,0,0,294.2,-66.6,0,71,3.905,3.909,3.91,3.907,0,0,7.256,75.38,85.894034244672,32.152232,6,P-GPS,
28700,2023-05-29 17:55:45,52.2064383697573,0.0865298382177848,32.152232,31.5616808,54.332353444672,85.894034244672,28.543308,0,42.088912108,56.180119908,27,5,15.635,86.878286244672,33.136484,13.8242892,42.4622717,0,0,0,298, -1.4, 10.2,0,0,1024,1024,1024,1024,0,0,0,0,294.2,-69.5,0,71,3.905,3.909,3.91,3.907,0,0,7.256,75.38,85.894034244672,32.152232,6,P-GPS,
28900,2023-05-29 17:55:46,52.2064385128239,0.0865299579106305,32.480316,31.8897648,54.332353444672,86.222118244672,28.543308,0,42.08661552,56.23851886,27,5,15.642,86.878286244672,33.136484,13.8242892,42.4622717,0,0,0,297.8, -1.7, 10.5,0,0,1024,1024,1024,1024,0,0,0,0,294.2,-72.4,0,71,3.907,3.914,3.912,3.909,0,0,7.355,75.56,86.222118244672,32.480316,6,P-GPS,
29100,2023-05-29 17:55:46,52.20643863553,0.0865300821608071,32.480316,31.8897648,54.332353444672,86.222118244672,28.871392,0,42.080710008,56.291340384,27,5,15.642,86.878286244672,33.136484,13.8242892,42.4622717,0,0,0,297.9, -2.1, 10.5,0,0,1024,1024,1024,1024,0,0,0,0,294.2,-74.7,0,71,3.907,3.914,3.912,3.909,0,0,7.355,75.56,86.222118244672,32.480316,6,P-GPS,
29300,2023-05-29 17:55:46,52.2064387827204,0.086530195059595,32.480316,31.8897648,54.332353444672,86.222118244672,28.543308,0,42.080381924,56.350723588,27,5,15.642,86.878286244672,33.136484,13.8242892,42.4622717,0,0,0,297.9, -2.2, 10.4,0,0,1024,1024,1024,1024,0,0,0,0,294.2,-75.5,0,71,3.907,3.914,3.912,3.909,0,0,7.355,75.56,86.222118244672,32.480316,6,P-GPS,
29500,2023-05-29 17:55:46,52.2064389150933,0.0865302952090398,32.480316,31.8897648,54.332353444672,86.222118244672,28.215224,0,42.080710008,56.403873196,27,5,15.642,86.878286244672,33.136484,13.8242892,42.4622717,0,0,0,297.8, -2.2, 10.7,0,0,1024,1024,1024,1024,0,0,0,0,294.2,-75.5,0,71,3.907,3.914,3.912,3.909,0,0,7.355,75.56,86.222118244672,32.480316,6,P-GPS,
29700,2023-05-29 17:55:46,52.2064390728799,0.0865303565233147,32.480316,31.8897648,54.332353444672,86.222118244672,28.543308,0,42.0931772,56.4632564,27,5,15.642,86.878286244672,33.136484,13.8242892,42.4622717,0,0,0,297.9, -1.7, 9.7,0,0,1024,1024,1024,1024,0,0,0,0,294.2,-76,0,71,3.907,3.914,3.912,3.909,0,0,7.355,75.56,86.222118244672,32.480316,6,P-GPS,
29900,2023-05-29 17:55:47,52.2064392650606,0.0865303338484962,32.8084,32.2178488,54.332353444672,86.550202244672,28.543308,0,42.12762602,56.533466376,27,5,15.633,86.878286244672,33.136484,13.8242892,42.4622717,0,0,0,297.7, -1.3, 9.9,0,0,1024,1024,1024,1024,0,0,0,0,294.2,-78.3,0,71,3.907,3.916,3.914,3.914,0,0,7.291,75.56,86.550202244672,32.8084,6,P-GPS,
30100,2023-05-29 17:55:47,52.2064394483284,0.0865302283448865,33.136484,32.5459328,54.332353444672,86.878286244672,28.543308,0,42.177822872,56.60433252,27,5,15.633,86.878286244672,33.136484,13.8242892,42.4622717,0,0,0,298.1, 0.2, 11.2,0,0,1024,1024,1024,1024,0,0,0,0,294.2,-81.1,0,71,3.907,3.916,3.914,3.914,0,0,7.291,75.56,86.878286244672,33.136484,6,P-GPS,
30300,2023-05-29 17:55:47,52.2064395619033,0.086530224109085,33.136484,32.5459328,54.332353444672,86.878286244672,28.543308,0,42.19652366,56.645671104,27,5,15.633,86.878286244672,33.136484,13.8242892,42.4622717,0,0,0,298.1, -0.6, 10.6,0,0,1024,1024,1024,1024,0,0,0,0,294.2,-84,0,71,3.907,3.916,3.914,3.914,0,0,7.291,75.56,86.878286244672,33.136484,6,P-GPS,
30500,2023-05-29 17:55:47,52.2064396171856,0.0865303218540485,33.136484,32.5459328,54.332353444672,86.878286244672,28.543308,0,42.185368804,56.675526748,27,5,15.633,86.878286244672,33.136484,13.8242892,42.4622717,0,0,0,297.9, -1, 10.9,0,0,1024,1024,1024,1024,0,0,0,0,294.2,-86.9,0,71,3.907,3.916,3.914,3.914,0,0,7.291,75.56,86.878286244672,33.136484,6,P-GPS,
30700,2023-05-29 17:55:48,52.2064396235787,0.0865303942680803,33.136484,32.5459328,54.332353444672,86.878286244672,28.543308,0,42.17191736,56.691930948,27,5,15.633,86.878286244672,33.136484,13.8242892,42.4622717,0,0,0,297.8, -1.7, 10.7,0,0,1024,1024,1024,1024,0,0,0,0,294.2,-89.8,0,71,3.907,3.916,3.914,3.914,0,0,7.291,75.56,86.878286244672,33.136484,6,P-GPS,
30900,2023-05-29 17:55:48,52.2064395989488,0.0865303973435797,33.464568,32.8740168,54.332353444672,87.206370244672,28.871392,0,42.167324184,56.700789216,27,5,15.607,87.206370244672,33.464568,13.8242892,42.4622717,0,0,0,297.9, -1.1, 12.5,0,0,1024,1024,1024,1024,0,0,0,0,294.2,-89.9,0,71,3.908,3.917,3.915,3.918,0,0,7.344,75.74,87.206370244672,33.464568,6,P-GPS,
31100,2023-05-29 17:55:48,52.2064395450318,0.0865304357453839,33.464568,32.8740168,54.332353444672,87.206370244672,28.871392,0,42.151248068,56.72244276,27,5,15.607,87.206370244672,33.464568,13.8242892,42.4622717,0,0,0,297.8, -1.7, 14,0,0,1024,1024,1024,1024,0,0,0,0,294.2,-90,0,71,3.908,3.917,3.915,3.918,0,0,7.344,75.74,87.206370244672,33.464568,6,P-GPS,
31300,2023-05-29 17:55:48,52.2064394827921,0.086530516407346,33.792652,33.2021008,54.332353444672,87.534454244672,28.543308,0,42.125001348,56.751314152,27,5,15.607,87.534454244672,33.792652,13.8242892,42.4622717,0,0,0,297.9, -1.9, 13.2,0,0,1684,1024,1024,1024,100,0,0,0,294.2,-89.9,0,71,3.908,3.917,3.915,3.918,0,0,7.344,75.74,87.534454244672,33.792652,6,P-GPS,
31500,2023-05-29 17:55:48,52.2064394482577,0.0865305685091021,33.792652,33.2021008,54.332353444672,87.534454244672,28.871392,0.223694,42.109253316,56.76837452,27,5,15.607,87.534454244672,33.792652,13.8242892,42.4622717,-0.223694,0,0,298.1, -6, 3.6,0,0,1684,1024,1024,1024,100,0,0,0,294.2,-89.9,0,71,3.908,3.917,3.915,3.918,0,0,7.344,75.74,87.534454244672,33.792652,6,P-GPS,
31700,2023-05-29 17:55:49,52.2064391934111,0.0865298739494963,33.792652,33.2021008,54.332353444672,87.534454244672,28.871392,1.1408394,42.209318936,56.949476888,27,5,15.607,87.534454244672,33.792652,13.8242892,42.4622717,-0.223694,-1.11847,0,296.6, -22.7, 7,0,0,1684,1024,1024,1024,100,0,0,0,294.2,-89.9,0,71,3.908,3.917,3.915,3.918,0,0,7.344,75.74,87.534454244672,33.792652,6,P-GPS,
31900,2023-05-29 17:55:49,52.2064392274293,0.0865272462987083,33.792652,33.2021008,54.332353444672,87.534454244672,28.871392,2.684328,42.746392444,57.537075332,27,5,15.605,87.534454244672,33.792652,13.8242892,42.746392444,0.223694,-2.684328,0,295.4, -25, 11.3,0,0,1684,1024,1024,1024,100,0,0,0,294.2,-90,0,71,3.879,3.892,3.893,3.894,0,0,7.475,75.74,87.534454244672,33.792652,6,P-GPS,
32100,2023-05-29 17:55:49,52.2064398199539,0.0865224352949625,34.120736,33.5301848,54.332353444672,87.862538244672,28.871392,4.3396636,43.813321612,58.634188228,27,5,15.605,87.862538244672,34.120736,13.8242892,43.813321612,0.894776,-4.250186,0,295.1, -24.3, 14,0,0,1684,1024,1024,1024,100,0,0,0,294.2,-89.9,0,71,3.879,3.892,3.893,3.894,0,0,7.475,75.74,87.862538244672,34.120736,6,P-GPS,
32300,2023-05-29 17:55:49,52.2064410565761,0.0865156695037841,34.120736,33.4973764,54.365161844672,87.862538244672,28.871392,5.8607828,45.376641872,60.212928436,26,5,15.605,87.862538244672,34.120736,13.8242892,45.376641872,1.789552,-5.59235,0,294.7, -24.9, 16.3,0,0,1684,1024,1024,1024,100,0,0,0,294.2,-90,0,71,3.879,3.892,3.893,3.894,0,0,7.475,75.74,87.862538244672,34.120736,6,P-GPS,
32500,2023-05-29 17:55:49,52.2064428904112,0.0865070753841175,34.120736,33.4973764,54.365161844672,87.862538244672,28.871392,7.5608572,47.403544824,62.247705404,26,5,15.605,87.862538244672,34.120736,13.8242892,47.403544824,2.460634,-7.158208,0,294.3, -25, 17.2,0,0,1024,1024,1024,1024,0,0,0,0,294.2,-90,0,71,3.879,3.892,3.893,3.894,0,0,7.475,75.74,87.862538244672,34.120736,6,P-GPS,
