time(millisecond),datetime(utc),latitude,longitude,height_above_takeoff(feet),height_above_ground_at_drone_location(feet),ground_elevation_at_drone_location(feet),altitude_above_seaLevel(feet),height_sonar(feet),speed(mph),distance(feet),mileage(feet),satellites,gpslevel,voltage(v),max_altitude(feet),max_ascent(feet),max_speed(mph),max_distance(feet), xSpeed(mph), ySpeed(mph), zSpeed(mph), compass_heading(degrees), pitch(degrees), roll(degrees),isPhoto,isVideo,rc_elevator,rc_aileron,rc_throttle,rc_rudder,rc_elevator(percent),rc_aileron(percent),rc_throttle(percent),rc_rudder(percent),gimbal_heading(degrees),gimbal_pitch(degrees),gimbal_roll(degrees),battery_percent,voltageCell1,voltageCell2,voltageCell3,voltageCell4,voltageCell5,voltageCell6,current(A),battery_temperature(f),altitude(feet),ascent(feet),flycStateRaw,flycState,message
797800,2023-05-16 19:17:48,52.2088036287692,0.06997391220779,0,0,77.944419488972,77.747569088972,0,0,0,0,26,5,15.747,77.747569088972,0,0,0,0,0,0,277.3, 3.7, 0.1,0,0,1024,1024,1024,1024,0,0,0,0,282.2,0,0,60,3.932,3.94,3.939,3.935,0,0,1.518,96.26,77.747569088972,0,41,Motors_Started,"Setting new Return-To-Home altitude to 26m (85 ft). Data Recorder File Index is 11. Setting new Maximum Flight Altitude to 120m (394 ft) Aircraft not in flight. Vision systems and obstacle avoidance disabled (Code: 180059)"
798000,2023-05-16 19:17:48,52.2088036475821,0.0699739480282794,0,0,77.944419488972,77.747569088972,0,0,3.16045285704,0.0105475068992,26,5,15.747,77.747569088972,0,0,3.16045285704,0,0,0,277.3, 3.7, 0,0,0,1024,1024,1024,1024,0,0,0,0,282.2,0,0,60,3.932,3.94,3.939,3.935,0,0,1.518,96.26,77.747569088972,0,41,Motors_Started,
798200,2023-05-16 19:17:48,52.2088036626706,0.0699739866697236,0,0,77.944419488972,77.747569088972,0,0,3.1698327786,0.0207916017152,26,5,15.747,77.747569088972,0,0,3.1698327786,0,0,0,277.3, 3.7, 0.1,0,0,1024,1024,1024,1024,0,0,0,0,282.2,0,0,60,3.932,3.94,3.939,3.935,0,0,1.518,96.26,77.747569088972,0,41,Motors_Started,
798400,2023-05-16 19:17:48,52.20880367395,0.0699740145026777,0,0,77.944419488972,77.747569088972,0,0,3.17671270008,0.0282520350248,26,5,15.747,77.747569088972,0,0,3.17671270008,0,0,0,277.2, 3.7, 0.1,0,0,1024,1024,1024,1024,0,0,0,0,282.2,0,0,60,3.932,3.94,3.939,3.935,0,0,1.518,96.26,77.747569088972,0,41,Motors_Started,
798600,2023-05-16 19:17:48,52.2088036816441,0.0699740375360331,0,0,77.944419488972,77.747569088972,0,0,3.18191283148,0.034117127076,26,5,15.747,77.747569088972,0,0,3.18191283148,0,0,0,277.2, 3.7, 0.1,0,0,1024,1024,1024,1024,0,0,0,0,282.2,0,0,60,3.932,3.94,3.939,3.935,0,0,1.518,96.26,77.747569088972,0,41,Motors_Started,
798800,2023-05-16 19:17:49,52.2088036904702,0.0699740662925583,0,0,77.944419488972,77.747569088972,0,0,3.1881726742,0.041307744104,25,5,15.674,77.747569088972,0,0,3.1881726742,0,0,0,277.2, 3.7, 0.1,0,0,1024,1024,1024,1024,0,0,0,0,282.2,0,0,60,3.907,3.916,3.915,3.909,0,0,2.918,96.08,77.747569088972,0,41,Motors_Started,
799000,2023-05-16 19:17:49,52.2088037149683,0.0699740994616037,0,0,77.944419488972,77.747569088972,0,0,3.19973107352,0.05292158962,25,5,15.674,77.747569088972,0,0,3.19973107352,0,0,0,277.2, 3.7, 0.1,0,0,1024,1024,1024,1024,0,0,0,0,282.2,0,0,60,3.907,3.916,3.915,3.909,0,0,2.918,96.08,77.747569088972,0,41,Motors_Started,
799200,2023-05-16 19:17:49,52.2088037469732,0.0699741265129738,0,0,77.944419488972,77.747569088972,0,0,3.21279209756,0.066071852508,25,5,15.674,77.747569088972,0,0,3.21279209756,0,0,0,277.2, 3.7, 0.1,0,0,1024,1024,1024,1024,0,0,0,0,282.2,0,0,60,3.907,3.916,3.915,3.909,0,0,2.918,96.08,77.747569088972,0,41,Motors_Started,
799400,2023-05-16 19:17:49,52.2088037956836,0.0699741401577095,0,0,77.944419488972,77.747569088972,0,0,3.229248791,0.084103677232,25,5,15.674,77.747569088972,0,0,3.229248791,0,0,0,277.2, 3.7, 0.1,0,0,1024,1024,1024,1024,0,0,0,0,282.2,0,0,60,3.907,3.916,3.915,3.909,0,0,2.918,96.08,77.747569088972,0,11,AutoTakeoff,
799600,2023-05-16 19:17:49,52.2088038450685,0.0699741726469647,0,0,77.944419488972,77.747569088972,0,0,3.24826453964,0.103530843208,25,5,15.674,77.747569088972,0,0,3.24826453964,0,0,0,277.3, 3.7, 0.1,0,0,1024,1024,1024,1024,0,0,0,0,282.2,0,0,60,3.907,3.916,3.915,3.909,0,0,2.918,96.08,77.747569088972,0,11,AutoTakeoff,
799800,2023-05-16 19:17:50,52.2088038622773,0.0699742453089396,0,0,77.944419488972,77.747569088972,0,0,3.26252307028,0.120947510432,24,5,15.7,77.747569088972,0,0,3.26252307028,0,0,0,277.4, 3.4, 0.2,0,0,1024,1024,1024,1024,0,0,0,0,282.2,0,0,60,3.914,3.922,3.92,3.913,0,0,4.238,96.08,77.747569088972,0,11,AutoTakeoff,
800000,2023-05-16 19:17:50,52.2088038609505,0.0699743884550267,0,0,77.944419488972,77.747569088972,0,0,3.28009196848,0.152954729304,24,5,15.7,77.747569088972,0,0,3.28009196848,0,0,-0.223694,277.4, -2, 0.3,0,0,1024,1024,1024,1024,0,0,0,0,282.2,0,0,60,3.914,3.922,3.92,3.913,0,0,4.238,96.08,77.747569088972,0,11,AutoTakeoff,
800200,2023-05-16 19:17:50,52.2088038830199,0.0699743768645157,0,0,77.944419488972,77.747569088972,0.328084,0,3.285269134,0.161413719076,24,5,15.7,77.747569088972,0,0,3.285269134,0,0,-0.894776,277.5, -0.1, 0.1,0,0,1024,1024,1024,1024,0,0,0,0,282.2,0,0,60,3.914,3.922,3.92,3.913,0,0,4.238,96.08,77.747569088972,0,11,AutoTakeoff,
800400,2023-05-16 19:17:50,52.2088039118197,0.0699742616068669,0.328084,0.328084,77.944419488972,78.075653088972,0.328084,0,3.27956375324,0.18924213204,24,5,15.7,78.075653088972,0.328084,0,3.285269134,0,0,-0.894776,277.6, 1.8, 0,0,0,1024,1024,1024,1024,0,0,0,0,282.2,0,0,60,3.914,3.922,3.92,3.913,0,0,4.238,96.08,78.075653088972,0.328084,11,AutoTakeoff,
800600,2023-05-16 19:17:50,52.208803910343,0.0699742844702747,0.656168,0.656168,77.944419488972,78.403737088972,0.656168,0,3.2819554856,0.194382224068,25,5,15.7,78.403737088972,0.656168,0,3.285269134,0,0,-0.894776,277.4, 0.8, 0.2,0,0,1024,1024,1024,1024,0,0,0,0,282.2,0,0,60,3.914,3.922,3.92,3.913,0,0,4.238,96.08,78.403737088972,0.656168,11,AutoTakeoff,
800800,2023-05-16 19:17:50,52.2088039136648,0.0699744133800863,0.984252,0.984252,77.944419488972,78.731821088972,1.312336,0,3.2991142788,0.223228681684,25,5,15.579,78.731821088972,0.984252,0,3.2991142788,0,0,-0.894776,277.5, 0.4, 0.2,0,0,1024,1024,1024,1024,0,0,0,0,282.2,0,0,60,3.887,3.896,3.895,3.888,0,0,5.808,95.9,78.731821088972,0.984252,11,AutoTakeoff,
801000,2023-05-16 19:17:51,52.2088039373256,0.069974590902327,1.312336,1.312336,77.944419488972,79.059905088972,1.64042,0,3.3287074556,0.263846137052,25,5,15.579,79.059905088972,1.312336,0,3.3287074556,0,0,-0.894776,277.5, 0.3, -0.3,0,0,1024,1024,1024,1024,0,0,0,0,282.2,0,0,60,3.887,3.896,3.895,3.888,0,0,5.808,95.9,79.059905088972,1.312336,11,AutoTakeoff,
801200,2023-05-16 19:17:51,52.2088039297888,0.0699747699217665,1.64042,1.64042,77.944419488972,79.387989088972,1.968504,0,3.3494751728,0.303964576656,26,5,15.579,79.387989088972,1.64042,0,3.3494751728,0,0,-0.894776,277.5, 0.6, 0.2,0,0,1024,1024,1024,1024,0,0,0,0,282.2,0,0,60,3.887,3.896,3.895,3.888,0,0,5.808,95.9,79.387989088972,1.64042,11,AutoTakeoff,
801400,2023-05-16 19:17:51,52.2088039177063,0.0699749371204575,1.968504,1.968504,77.944419488972,79.716073088972,2.296588,0,3.3676510264,0.34160434164,25,5,15.579,79.716073088972,1.968504,0,3.3676510264,0,0,-1.11847,277.5, 0, -0.1,0,0,1024,1024,1024,1024,0,0,0,0,282.2,0,0,60,3.887,3.896,3.895,3.888,0,0,5.808,95.9,79.716073088972,1.968504,11,AutoTakeoff,
801600,2023-05-16 19:17:51,52.2088039169138,0.0699751560727678,2.296588,2.296588,77.944419488972,80.044157088972,2.624672,0,3.3963583764,0.39055775528,27,5,15.579,80.044157088972,2.296588,0,3.3963583764,0,0,-1.11847,277.5, -1.6, -1.2,0,0,1024,1024,1024,1024,0,0,0,0,282.2,0,0,60,3.887,3.896,3.895,3.888,0,0,5.808,95.9,80.044157088972,2.296588,11,AutoTakeoff,"Home Point updated (Code: 3000001)"
801800,2023-05-16 19:17:51,52.2088038996719,0.0699752341975301,2.624672,2.624672,77.944419488972,80.372241088972,2.952756,0,3.4017717624,0.40912402884,27,5,15.553,80.372241088972,2.624672,0,3.4017717624,0,0,-1.11847,277.4, 0.2, 0,0,0,1024,1024,1024,1024,0,0,0,0,282.2,0,0,60,3.882,3.891,3.89,3.884,0,0,7.861,95.9,80.372241088972,2.624672,11,AutoTakeoff,
802000,2023-05-16 19:17:52,52.2088039074196,0.0699752213741348,2.952756,2.952756,77.944419488972,80.700325088972,3.28084,0,3.4023295052,0.41314961952,27,5,15.553,80.700325088972,2.952756,0,3.4023295052,0,0,-1.11847,277.5, 1.7, -0.2,0,0,1024,1024,1024,1024,0,0,0,0,282.2,0,0,60,3.882,3.891,3.89,3.884,0,0,7.861,95.9,80.700325088972,2.952756,11,AutoTakeoff,
802200,2023-05-16 19:17:52,52.2088039050626,0.0699753577441636,3.28084,3.28084,77.944419488972,81.028409088972,3.608924,0,3.4199804244,0.443651589,27,5,15.553,81.028409088972,3.28084,0,3.4199804244,0,0,-1.11847,277.5, 0.5, 0,0,0,1024,1024,1024,1024,0,0,0,0,282.2,0,0,60,3.882,3.891,3.89,3.884,0,0,7.861,95.9,81.028409088972,3.28084,11,AutoTakeoff,
802400,2023-05-16 19:17:52,52.2088038892202,0.0699756314104137,3.608924,3.608924,77.944419488972,81.356493088972,3.937008,0,3.4527888244,0.50510828388,27,5,15.553,81.356493088972,3.608924,0,3.4527888244,0,0,-0.671082,277.6, -0.8, -0.3,0,0,1024,1024,1024,1024,0,0,0,0,282.2,0,0,60,3.882,3.891,3.89,3.884,0,0,7.861,95.9,81.356493088972,3.608924,6,P-GPS,
802600,2023-05-16 19:17:52,52.2088038433573,0.0699758918006575,3.608924,3.608924,77.944419488972,81.356493088972,3.937008,0,3.4760171716,0.5656824328,26,5,15.553,81.356493088972,3.608924,0,3.4760171716,0,0,0,277.7, -1.1, -0.1,0,0,1024,1024,1024,1024,0,0,0,0,282.2,0,0,60,3.882,3.891,3.89,3.884,0,0,7.861,95.9,81.356493088972,3.608924,6,P-GPS,
802800,2023-05-16 19:17:52,52.2088037451977,0.0699761441631727,3.937008,3.937008,77.944419488972,81.684577088972,3.937008,0,3.4843505052,0.63250986276,27,5,15.543,81.684577088972,3.937008,0,3.4843505052,0,0,0,277.5, -1.8, 0.9,0,0,1024,1024,1024,1024,0,0,0,0,282.2,0,0,60,3.886,3.895,3.893,3.885,0,0,7.834,95.9,81.684577088972,3.937008,6,P-GPS,
803000,2023-05-16 19:17:53,52.2088036862906,0.0699762365657145,3.608924,3.608924,77.944419488972,81.356493088972,3.937008,0,3.4813649408,0.662319575,26,5,15.543,81.684577088972,3.937008,0,3.4843505052,0,0,0,277.6, -0.7, 1.1,0,0,1024,1024,1024,1024,0,0,0,0,282.2,0,0,60,3.886,3.895,3.893,3.885,0,0,7.834,95.9,81.356493088972,3.608924,6,P-GPS,
803200,2023-05-16 19:17:53,52.2088036792561,0.0699762033914265,3.608924,3.608924,77.944419488972,81.356493088972,3.937008,0,3.474573602,0.67016734428,26,5,15.543,81.684577088972,3.937008,0,3.4843505052,0,0,0,277.6, -0.5, 0.9,0,0,1024,1024,1024,1024,0,0,0,0,282.2,0,0,60,3.886,3.895,3.893,3.885,0,0,7.834,95.9,81.356493088972,3.608924,6,P-GPS,
803400,2023-05-16 19:17:53,52.2088037046516,0.0699761298316566,3.608924,3.608924,77.944419488972,81.356493088972,3.937008,0,3.470964678,0.68904529764,27,5,15.543,81.684577088972,3.937008,0,3.4843505052,0,0,0,277.6, 0, 0.8,0,0,1024,1024,1024,1024,0,0,0,0,282.2,0,0,60,3.886,3.895,3.893,3.885,0,0,7.834,95.9,81.356493088972,3.608924,6,P-GPS,
803600,2023-05-16 19:17:53,52.2088037850456,0.0699760610924559,3.608924,3.608924,77.944419488972,81.356493088972,3.937008,0,3.4835631036,0.72215881576,27,5,15.543,81.684577088972,3.937008,0,3.4843505052,0,0,0,277.6, 0.2, 0.3,0,0,1024,1024,1024,1024,0,0,0,0,282.2,0,0,60,3.886,3.895,3.893,3.885,0,0,7.834,95.9,81.356493088972,3.608924,6,P-GPS,
803800,2023-05-16 19:17:54,52.208803877989,0.0699760193399665,3.608924,3.608924,77.944419488972,81.356493088972,3.937008,0,3.5038058864,0.7573327014,27,5,15.54,81.684577088972,3.937008,0,3.5038058864,0,0,0,277.6, 0.3, 0.2,0,0,1024,1024,1024,1024,0,0,0,0,282.2,0,0,60,3.881,3.889,3.888,3.88,0,0,7.275,96.08,81.356493088972,3.608924,6,P-GPS,
804000,2023-05-16 19:17:54,52.2088039863893,0.0699760133686471,3.608924,3.608924,77.944419488972,81.356493088972,3.937008,0,3.5336943388,0.79690291264,27,5,15.54,81.684577088972,3.937008,0,3.5336943388,0,0,0,277.6, 0.3, 0,0,0,1024,1024,1024,1024,0,0,0,0,282.2,0,0,60,3.881,3.889,3.888,3.88,0,0,7.275,96.08,81.356493088972,3.608924,6,P-GPS,
804200,2023-05-16 19:17:54,52.2088041059298,0.0699760351450896,3.937008,3.937008,77.944419488972,81.684577088972,3.937008,0,3.5708006392,0.84078742848,27,5,15.54,81.684577088972,3.937008,0,3.5708006392,0,0,0,277.6, 0.2, 0.1,0,0,1024,1024,1024,1024,0,0,0,0,282.2,0,0,60,3.881,3.889,3.888,3.88,0,0,7.275,96.08,81.684577088972,3.937008,6,P-GPS,
804400,2023-05-16 19:17:54,52.2088042205164,0.0699760858820817,3.937008,3.937008,77.944419488972,81.684577088972,3.937008,0,3.6106300368,0.88410763984,27,5,15.54,81.684577088972,3.937008,0,3.6106300368,0,0,0,277.6, 0.2, 0.2,0,0,1024,1024,1024,1024,0,0,0,0,282.2,0,0,60,3.881,3.889,3.888,3.88,0,0,7.275,96.08,81.684577088972,3.937008,6,P-GPS,
804600,2023-05-16 19:17:54,52.2088043248806,0.0699761619635413,3.937008,3.937008,77.944419488972,81.684577088972,3.937008,0,3.651082794,0.92581039708,27,5,15.54,81.684577088972,3.937008,0,3.651082794,0,0,0,277.6, 0.2, 0.4,0,0,1024,1024,1024,1024,0,0,0,0,282.2,0,0,60,3.881,3.889,3.888,3.88,0,0,7.275,96.08,81.684577088972,3.937008,6,P-GPS,
804800,2023-05-16 19:17:55,52.2088044117351,0.0699762360816479,3.937008,3.937008,77.944419488972,81.684577088972,3.937008,0,3.6862533988,0.96157155308,27,5,15.532,81.684577088972,3.937008,0,3.6862533988,0,0,0,277.6, 0.1, 0.4,0,0,1024,1024,1024,1024,0,0,0,0,282.2,0,0,60,3.88,3.887,3.887,3.879,0,0,7.686,96.08,81.684577088972,3.937008,6,P-GPS,
805000,2023-05-16 19:17:55,52.2088044774047,0.0699763029055528,3.937008,3.937008,77.944419488972,81.684577088972,3.937008,0,3.7143373892,0.98980646212,27,5,15.532,81.684577088972,3.937008,0,3.7143373892,0,0,0,277.6, 0, 0.5,0,0,1024,1024,1024,1024,0,0,0,0,282.2,0,0,60,3.88,3.887,3.887,3.879,0,0,7.686,96.08,81.684577088972,3.937008,6,P-GPS,
805200,2023-05-16 19:17:55,52.2088045325081,0.069976366283323,3.937008,3.9041996,77.977227888972,81.684577088972,3.937008,0,3.7389108808,1.0144029196,27,5,15.532,81.684577088972,3.937008,0,3.7389108808,0,0,0,277.6, 0, 0.4,0,0,1024,1024,1024,1024,0,0,0,0,282.2,0,0,60,3.88,3.887,3.887,3.879,0,0,7.686,96.08,81.684577088972,3.937008,6,P-GPS,
805400,2023-05-16 19:17:55,52.2088045968788,0.0699764222450012,3.937008,3.9041996,77.977227888972,81.684577088972,3.937008,0,3.7651247924,1.04101381284,27,5,15.532,81.684577088972,3.937008,0,3.7651247924,0,0,0,277.5, 0, 0.5,0,0,1024,1024,1024,1024,0,0,0,0,282.2,0,0,60,3.88,3.887,3.887,3.879,0,0,7.686,96.08,81.684577088972,3.937008,6,P-GPS,
805600,2023-05-16 19:17:55,52.2088046433767,0.0699764661172478,3.937008,3.9041996,77.977227888972,81.684577088972,3.937008,0,3.7845473652,1.06061027016,27,5,15.532,81.684577088972,3.937008,0,3.7845473652,0,0,0,277.5, 0, 0.4,0,0,1024,1024,1024,1024,0,0,0,0,282.2,0,0,60,3.88,3.887,3.887,3.879,0,0,7.686,96.08,81.684577088972,3.937008,6,P-GPS,
805800,2023-05-16 19:17:56,52.2088046839539,0.0699764919387917,3.937008,3.9041996,77.977227888972,81.684577088972,3.937008,0,3.7998032712,1.07649937828,27,5,15.524,81.684577088972,3.937008,0,3.7998032712,0,0,0,277.5, 0, 0.4,0,0,1024,1024,1130,1024,0,0,16,0,282.2,0,0,60,3.878,3.884,3.886,3.876,0,0,7.67,96.08,81.684577088972,3.937008,6,P-GPS,
806000,2023-05-16 19:17:56,52.2088047208055,0.0699764996755561,3.937008,3.9041996,77.977227888972,81.684577088972,3.937008,0,3.8114830616,1.09005580916,27,5,15.524,81.684577088972,3.937008,0,3.8114830616,0,0,0,277.6, 0, 0.4,0,0,1024,1024,1157,1024,0,0,20,0,282.2,0,0,60,3.878,3.884,3.886,3.876,0,0,7.67,96.08,81.684577088972,3.937008,6,P-GPS,
806200,2023-05-16 19:17:56,52.2088047447746,0.0699764771280148,3.937008,3.9041996,77.977227888972,81.684577088972,3.937008,0,3.8153544528,1.10015095384,27,5,15.524,81.684577088972,3.937008,0,3.8153544528,0,0,-0.223694,277.6, 0, 0.5,0,0,1024,1024,1182,1024,0,0,24,0,282.2,0,0,60,3.878,3.884,3.886,3.876,0,0,7.67,96.08,81.684577088972,3.937008,6,P-GPS,
806400,2023-05-16 19:17:56,52.2088047718396,0.0699764456444647,3.937008,3.9041996,77.977227888972,81.684577088972,4.265092,0,3.8189305684,1.11227693848,27,5,15.524,81.684577088972,3.937008,0,3.8189305684,0,0,-0.223694,277.6, 0, 0.2,0,0,1024,1024,1174,1024,0,0,23,0,282.2,0,0,60,3.878,3.884,3.886,3.876,0,0,7.67,96.08,81.684577088972,3.937008,6,P-GPS,
806600,2023-05-16 19:17:56,52.2088047834253,0.0699763937934205,4.265092,4.2322836,77.977227888972,82.012661088972,4.265092,0,3.815288836,1.12461617772,27,5,15.524,82.012661088972,4.265092,0,3.8189305684,0,0,-0.447388,277.6, -0.1, 0.1,0,0,1024,1024,1179,1024,0,0,23,0,282.2,0,0,60,3.878,3.884,3.886,3.876,0,0,7.67,96.08,82.012661088972,4.265092,6,P-GPS,
806800,2023-05-16 19:17:57,52.2088047933201,0.0699763415871902,4.265092,4.2322836,77.977227888972,82.012661088972,4.265092,0,3.8111549776,1.13683402588,27,5,15.504,82.012661088972,4.265092,0,3.8189305684,0,0,-0.447388,277.5, 0, 0.2,0,0,1024,1024,1205,1024,0,0,27,0,282.2,0,0,60,3.869,3.879,3.878,3.871,0,0,7.857,96.08,82.012661088972,4.265092,6,P-GPS,
807000,2023-05-16 19:17:57,52.2088047925844,0.0699763132264812,4.593176,4.5603676,77.977227888972,82.340745088972,4.593176,0,3.8071523528,1.14317917044,27,5,15.504,82.340745088972,4.593176,0,3.8189305684,0,0,-0.671082,277.5, 0, 0.3,0,0,1024,1024,1194,1024,0,0,26,0,282.2,0,0,60,3.869,3.879,3.878,3.871,0,0,7.857,96.08,82.340745088972,4.593176,6,P-GPS,
807200,2023-05-16 19:17:57,52.2088047593427,0.0699762805725211,4.92126,4.8884516,77.977227888972,82.668829088972,4.92126,0,3.7930447408,1.15733599504,27,5,15.504,82.668829088972,4.92126,0,3.8189305684,0,0,-0.671082,277.5, 0, 0.5,0,0,1024,1024,1240,1024,0,0,33,0,282.2,0,0,60,3.869,3.879,3.878,3.871,0,0,7.857,96.08,82.668829088972,4.92126,6,P-GPS,
807400,2023-05-16 19:17:57,52.2088047229986,0.0699762833834275,4.92126,4.8884516,77.977227888972,82.668829088972,4.92126,0,3.7828413284,1.17061027368,26,5,15.504,82.668829088972,4.92126,0,3.8189305684,0,0,-0.894776,277.5, 0, 0.3,0,0,1024,1024,1282,1024,0,0,39,0,282.2,0,0,60,3.869,3.879,3.878,3.871,0,0,7.857,96.08,82.668829088972,4.92126,6,P-GPS,
807600,2023-05-16 19:17:57,52.2088046896884,0.0699762758685998,5.249344,5.2165356,77.977227888972,82.996913088972,5.249344,0,3.7721129816,1.18288061528,27,5,15.504,82.996913088972,5.249344,0,3.8189305684,0,0,-1.11847,277.5, 0.2, 0.6,0,0,1024,1024,1308,1024,0,0,43,0,282.2,0,0,60,3.869,3.879,3.878,3.871,0,0,7.857,96.08,82.996913088972,5.249344,6,P-GPS,
807800,2023-05-16 19:17:57,52.2088046707791,0.0699762977053322,5.905512,5.8727036,77.977227888972,83.653081088972,5.905512,0,3.7695867348,1.19133205912,27,5,15.509,83.653081088972,5.905512,0,3.8189305684,0,0,-1.789552,277.5, 0, 0.3,0,0,1024,1024,1321,1024,0,0,45,0,282.2,0,0,60,3.866,3.878,3.876,3.868,0,0,8.022,96.08,83.653081088972,5.905512,6,P-GPS,
808000,2023-05-16 19:17:58,52.2088046392014,0.0699763578069154,6.56168,6.5288716,77.977227888972,84.309249088972,6.56168,0,3.7685696744,1.20903219092,27,5,15.509,84.309249088972,6.56168,0,3.8189305684,0,0,-2.23694,277.5, 0, 0.4,0,0,1024,1024,1343,1024,0,0,48,0,282.2,0,0,60,3.866,3.878,3.876,3.868,0,0,8.022,96.08,84.309249088972,6.56168,6,P-GPS,
808200,2023-05-16 19:17:58,52.2088045834266,0.0699763953465402,7.217848,7.1850396,77.977227888972,84.965417088972,7.217848,0,3.7575788604,1.23104334648,27,5,15.509,84.965417088972,7.217848,0,3.8189305684,0,0,-2.460634,277.5, 0.1, 0.7,0,0,1024,1024,1332,1024,0,0,47,0,282.2,0,0,60,3.866,3.878,3.876,3.868,0,0,8.022,96.08,84.965417088972,7.217848,6,P-GPS,
808400,2023-05-16 19:17:58,52.2088045223392,0.0699764007014175,7.874016,7.8412076,77.977227888972,85.621585088972,8.2021,0,3.7407153428,1.253362901,27,5,15.509,85.621585088972,7.874016,0,3.8189305684,0,0,-2.684328,277.5, 0.2, 0.7,0,0,1024,1024,1339,1024,0,0,48,0,282.2,0,0,60,3.866,3.878,3.876,3.868,0,0,8.022,96.08,85.621585088972,7.874016,6,P-GPS,
808600,2023-05-16 19:17:58,52.2088044999742,0.0699764210230389,8.858268,8.858268,77.944419488972,86.605837088972,8.858268,0,3.7370736104,1.26270345248,27,5,15.509,86.605837088972,8.858268,0,3.8189305684,0,0,-2.908022,277.5, 0.1, 0.4,0,0,1024,1024,1359,1024,0,0,51,0,282.2,0,0,60,3.866,3.878,3.876,3.868,0,0,8.022,96.08,86.605837088972,8.858268,6,P-GPS,
808800,2023-05-16 19:17:59,52.2088044782614,0.0699764047897703,9.514436,9.514436,77.944419488972,87.262005088972,9.514436,0,3.7286090432,1.27141736352,27,5,15.464,87.262005088972,9.514436,0,3.8189305684,0,0,-2.908022,277.5, 0, 0.3,0,0,1024,1024,1397,1024,0,0,57,0,282.2,0,0,60,3.864,3.877,3.875,3.866,0,0,8.946,96.26,87.262005088972,9.514436,6,P-GPS,
809000,2023-05-16 19:17:59,52.2088044303906,0.069976395687746,10.498688,10.498688,77.944419488972,88.246257088972,10.498688,0,3.7136484128,1.28899938508,27,5,15.464,88.246257088972,10.498688,0,3.8189305684,0,0,-3.131716,277.5, 0, 0.8,0,0,1024,1024,1406,1024,0,0,58,0,282.2,0,0,60,3.864,3.877,3.875,3.866,0,0,8.946,96.26,88.246257088972,10.498688,6,P-GPS,
809200,2023-05-16 19:17:59,52.2088043997693,0.0699763767431803,11.48294,11.48294,77.944419488972,89.230509088972,11.48294,0,3.7022310896,1.30094820436,27,5,15.464,89.230509088972,11.48294,0,3.8189305684,0,0,-3.802798,277.5, 0, 0.4,0,0,1024,1024,1393,1024,0,0,56,0,282.2,0,0,60,3.864,3.877,3.875,3.866,0,0,8.946,96.26,89.230509088972,11.48294,6,P-GPS,
809400,2023-05-16 19:17:59,52.2088043620288,0.0699764055595585,12.795276,12.795276,77.944419488972,90.542845088972,12.795276,0,3.6954725592,1.31615161692,27,5,15.464,90.542845088972,12.795276,0,3.8189305684,0,0,-4.250186,277.5, 0.2, 0.2,0,0,1024,1024,1402,1024,0,0,57,0,282.2,0,0,60,3.864,3.877,3.875,3.866,0,0,8.946,96.26,90.542845088972,12.795276,6,P-GPS,
809600,2023-05-16 19:17:59,52.2088043232218,0.0699764503780941,14.107612,14.107612,77.944419488972,91.855181088972,14.107612,0,3.6906825328,1.333497418,27,5,15.464,91.855181088972,14.107612,0,3.8189305684,0,0,-4.026492,277.5, 0.3, 0.5,0,0,1024,1024,1417,1024,0,0,60,0,282.2,0,0,60,3.864,3.877,3.875,3.866,0,0,8.946,96.26,91.855181088972,14.107612,6,P-GPS,
809800,2023-05-16 19:17:59,52.2088042881018,0.0699763950538285,15.091864,15.091864,77.944419488972,92.839433088972,15.419948,0,3.6729331884,1.35130581752,27,5,15.442,92.839433088972,15.091864,0,3.8189305684,0,0,-4.250186,277.5, 0, 0.7,0,0,1024,1024,1405,1024,0,0,58,0,282.2,0,0,60,3.859,3.873,3.872,3.864,0,0,8.996,96.08,92.839433088972,15.091864,6,P-GPS,
810000,2023-05-16 19:18:00,52.2088043013409,0.0699762752569633,16.4042,16.4042,77.944419488972,94.151769088972,16.732284,0,3.6600066788,1.37852038532,27,5,15.442,94.151769088972,16.4042,0,3.8189305684,0,0,-4.47388,277.5, 0, 0.6,0,0,1024,1024,1410,1024,0,0,58,0,282.2,0,0,60,3.859,3.873,3.872,3.864,0,0,8.996,96.08,94.151769088972,16.4042,6,P-GPS,
810200,2023-05-16 19:18:00,52.2088043677644,0.0699761209323461,17.716536,17.716536,77.944419488972,95.464105088972,18.04462,0,3.6577757076,1.420685741,27,5,15.442,95.464105088972,17.716536,0,3.8189305684,0,0,-4.250186,277.5, 0, 0.5,0,0,1024,1024,1401,1024,0,0,57,0,282.2,0,0,60,3.859,3.873,3.872,3.864,0,0,8.996,96.08,95.464105088972,17.716536,6,P-GPS,
810400,2023-05-16 19:18:00,52.2088044978925,0.0699759688135521,19.028872,19.028872,77.944419488972,96.776441088972,19.356956,0,3.6749345008,1.47908797384,27,5,15.442,96.776441088972,19.028872,0,3.8189305684,0,0,-4.250186,277.5, 0.3, 0.2,0,0,1024,1024,1397,1024,0,0,57,0,282.2,0,0,60,3.859,3.873,3.872,3.864,0,0,8.996,96.08,96.776441088972,19.028872,6,P-GPS,
810600,2023-05-16 19:18:00,52.2088046286652,0.0699758766115397,20.341208,20.3083996,77.977227888972,98.088777088972,20.669292,0,3.7009843704,1.53106304112,27,5,15.442,98.088777088972,20.341208,0,3.8189305684,0,0,-4.250186,277.5, 0, 0.3,0,0,1024,1024,1404,1024,0,0,58,0,282.2,0,0,60,3.859,3.873,3.872,3.864,0,0,8.996,96.08,98.088777088972,20.341208,6,P-GPS,
810800,2023-05-16 19:18:00,52.2088047251232,0.0699758408155157,21.32546,21.2926516,77.977227888972,99.073029088972,22.309712,0,3.7247704604,1.56715228112,27,5,15.457,99.073029088972,21.32546,0,3.8189305684,0,0,-4.250186,277.5, -0.1, 0.3,0,0,1024,1024,1399,1024,0,0,57,0,282.2,0,0,60,3.859,3.871,3.871,3.862,0,0,8.657,96.26,99.073029088972,21.32546,6,P-GPS,
811000,2023-05-16 19:18:01,52.2088048356556,0.0699758206223379,22.637796,22.6049876,77.977227888972,100.38536508897,23.293964,0,3.7549541884,1.60773299108,27,5,15.457,100.38536508897,22.637796,0,3.8189305684,0,0,-4.250186,277.5, -0.2, 0.4,0,0,1024,1024,1396,1024,0,0,56,0,282.2,0,0,60,3.859,3.871,3.871,3.862,0,0,8.657,96.26,100.38536508897,22.637796,6,P-GPS,
811200,2023-05-16 19:18:01,52.2088049397328,0.0699757920029941,23.950132,23.9173236,77.977227888972,101.69770108897,24.934384,0,3.782316394,1.64624021016,27,5,15.457,101.69770108897,23.950132,0,3.8189305684,0,0,-4.026492,277.5, -0.3, 0.7,0,0,1024,1024,1209,1024,0,0,28,0,282.2,0,0,60,3.859,3.871,3.871,3.862,0,0,8.657,96.26,101.69770108897,23.950132,6,P-GPS,
811400,2023-05-16 19:18:01,52.2088050684056,0.0699757642233397,25.262468,25.2296596,77.977227888972,103.01003708897,26.24672,0,3.8173557652,1.69359585472,27,5,15.457,103.01003708897,25.262468,0,3.8189305684,0,0,-3.802798,277.5, -0.4, 0.6,0,0,1024,1024,1024,1024,0,0,0,0,282.2,0,0,60,3.859,3.871,3.871,3.862,0,0,8.657,96.26,103.01003708897,25.262468,6,P-GPS,
811600,2023-05-16 19:18:01,52.2088052330711,0.0699757453255205,25.918636,25.8858276,77.977227888972,103.66620508897,26.902888,0,3.8646982864,1.7538222346,25,5,15.457,103.66620508897,25.918636,0,3.8646982864,0,0,-1.789552,277.4, -0.4, 0.6,0,0,1024,1024,1024,1024,0,0,0,0,282.2,0,0,60,3.859,3.871,3.871,3.862,0,0,8.657,96.26,103.66620508897,25.918636,6,P-GPS,
811800,2023-05-16 19:18:02,52.2088053646727,0.0699757144134137,26.24672,26.2139116,77.977227888972,103.99428908897,27.559056,0,3.9008203348,1.80233273484,27,5,15.46,103.99428908897,26.24672,0,3.9008203348,0,0,-0.223694,277.5, -0.1, 0.7,0,0,1024,1024,1024,1024,0,0,0,0,282.2,0,0,59,3.878,3.896,3.892,3.885,0,0,8.337,96.44,103.99428908897,26.24672,6,P-GPS,
812000,2023-05-16 19:18:02,52.2088054686857,0.06997564818367,26.24672,26.2139116,77.977227888972,103.99428908897,27.559056,0,3.9244751912,1.84306764428,27,5,15.46,103.99428908897,26.24672,0,3.9244751912,0,0,0,277.5, 0.3, 0.7,0,0,1024,1024,1024,1024,0,0,0,0,282.2,0,0,59,3.878,3.896,3.892,3.885,0,0,8.337,96.44,103.99428908897,26.24672,6,P-GPS,
812200,2023-05-16 19:18:02,52.2088055793551,0.0699755838259707,26.24672,26.2139116,77.977227888972,103.99428908897,27.559056,0,3.9506891028,1.88593181888,26,5,15.46,103.99428908897,26.24672,0,3.9506891028,0,0,0,277.5, 0.2, 0.5,0,0,1024,1024,1024,1024,0,0,0,0,282.2,0,0,59,3.878,3.896,3.892,3.885,0,0,8.337,96.44,103.99428908897,26.24672,6,P-GPS,
812400,2023-05-16 19:18:02,52.2088056934898,0.0699755377937736,26.24672,26.2139116,77.977227888972,103.99428908897,27.559056,0,3.9804135132,1.92882880188,26,5,15.46,103.99428908897,26.24672,0,3.9804135132,0,0,0,277.5, 0, 0,0,0,1024,1024,1024,1024,0,0,0,0,282.2,0,0,59,3.878,3.896,3.892,3.885,0,0,8.337,96.44,103.99428908897,26.24672,6,P-GPS,
812600,2023-05-16 19:18:02,52.2088057633016,0.069975507344763,26.24672,26.2139116,77.977227888972,103.99428908897,27.559056,0,3.9984581332,1.95519363212,26,5,15.46,103.99428908897,26.24672,0,3.9984581332,0,0,0,277.5, 0, 0.1,0,0,1024,1024,1024,1024,0,0,0,0,282.2,0,0,59,3.878,3.896,3.892,3.885,0,0,8.337,96.44,103.99428908897,26.24672,6,P-GPS,
812800,2023-05-16 19:18:03,52.2088057875116,0.0699754949053879,26.24672,26.2139116,77.977227888972,103.99428908897,27.559056,0,4.0044948788,1.9644521626,26,5,15.48,103.99428908897,26.24672,0,4.0044948788,0,0,0,277.5, 0.1, 0.7,0,0,1024,1024,1024,1024,0,0,0,0,282.2,0,0,59,3.863,3.876,3.873,3.865,0,0,6.359,96.44,103.99428908897,26.24672,6,P-GPS,
813000,2023-05-16 19:18:03,52.2088058062624,0.0699755100713509,26.24672,26.2139116,77.977227888972,103.99428908897,27.559056,0,4.0121064276,1.97208667728,26,5,15.48,103.99428908897,26.24672,0,4.0121064276,0,0,0,277.5, 0.2, 0.9,0,0,1024,1024,1024,1024,0,0,0,0,282.2,0,0,59,3.863,3.876,3.873,3.865,0,0,6.359,96.44,103.99428908897,26.24672,6,P-GPS,
813200,2023-05-16 19:18:03,52.2088058409456,0.0699755629097512,26.24672,26.2139116,77.977227888972,103.99428908897,27.230972,0,4.0290683704,1.98939966996,25,5,15.48,103.99428908897,26.24672,0,4.0290683704,0,0,0,277.5, 0, 0.8,0,0,1024,1024,1024,1024,0,0,0,0,282.2,0,0,59,3.863,3.876,3.873,3.865,0,0,6.359,96.44,103.99428908897,26.24672,6,P-GPS,
813400,2023-05-16 19:18:03,52.2088058683907,0.0699756333034286,26.24672,26.2139116,77.977227888972,103.99428908897,27.230972,0,4.0458662712,2.0080545262,26,5,15.48,103.99428908897,26.24672,0,4.0458662712,0,0,0,277.5, 0, 0.5,0,0,1024,1024,1024,1024,0,0,0,0,282.2,0,0,59,3.863,3.876,3.873,3.865,0,0,6.359,96.44,103.99428908897,26.24672,6,P-GPS,
813600,2023-05-16 19:18:03,52.2088059019805,0.0699757150171862,26.24672,26.2139116,77.977227888972,103.99428908897,27.230972,0,4.0659122036,2.0300525584,26,5,15.48,103.99428908897,26.24672,0,4.0659122036,0,0,0,277.5, 0, 0.6,0,0,1024,1024,1024,1024,0,0,0,0,282.2,0,0,59,3.863,3.876,3.873,3.865,0,0,6.359,96.44,103.99428908897,26.24672,6,P-GPS,
813800,2023-05-16 19:18:04,52.2088059396535,0.0699758075477348,26.24672,26.2139116,77.977227888972,103.99428908897,27.230972,0,4.0885499996,2.0548885172,26,5,15.473,103.99428908897,26.24672,0,4.0885499996,0,0,0,277.5, -0.2, 0.6,0,0,1024,1024,1024,1024,0,0,0,0,282.2,0,0,59,3.862,3.874,3.872,3.865,0,0,7.64,96.62,103.99428908897,26.24672,6,P-GPS,
814000,2023-05-16 19:18:04,52.2088059668566,0.0699759051269054,26.24672,26.2139116,77.977227888972,103.99428908897,27.559056,0,4.1085631236,2.07885833424,26,5,15.473,103.99428908897,26.24672,0,4.1085631236,0,0,0,277.5, -0.1, 0.7,0,0,1024,1024,1024,1024,0,0,0,0,282.2,0,0,59,3.862,3.874,3.872,3.865,0,0,7.64,96.62,103.99428908897,26.24672,6,P-GPS,
814200,2023-05-16 19:18:04,52.2088059816784,0.0699759971615915,26.24672,26.2139116,77.977227888972,103.99428908897,27.559056,0,4.1241143052,2.1001313008,26,5,15.473,103.99428908897,26.24672,0,4.1241143052,0,0,0,277.5, -0.4, -0.3,0,0,1024,1024,1024,1024,0,0,0,0,282.2,0,0,59,3.862,3.874,3.872,3.865,0,0,7.64,96.62,103.99428908897,26.24672,6,P-GPS,
814400,2023-05-16 19:18:04,52.2088059663137,0.0699760812616051,26.24672,26.2139116,77.977227888972,103.99428908897,27.559056,0,4.1295276912,2.11975400484,26,5,15.473,103.99428908897,26.24672,0,4.1295276912,0,0,0,277.5, 0, 0.4,0,0,965,1028,1024,1024,-9,1,0,0,282.2,0,0,59,3.862,3.874,3.872,3.865,0,0,7.64,96.62,103.99428908897,26.24672,6,P-GPS,
814600,2023-05-16 19:18:04,52.2088059354964,0.0699761974668536,26.24672,26.2139116,77.977227888972,103.99428908897,27.559056,0,4.134186484,2.14806109236,26,5,15.473,103.99428908897,26.24672,0,4.134186484,0,0,0,277.5, 0, 0.3,0,0,1024,1193,1024,1024,0,26,0,0,282.2,0,0,59,3.862,3.874,3.872,3.865,0,0,7.64,96.62,103.99428908897,26.24672,6,P-GPS,
814800,2023-05-16 19:18:04,52.2088058898497,0.0699763260559929,26.24672,26.2139116,77.977227888972,103.99428908897,27.559056,0,4.1360893712,2.18128615904,26,5,15.467,103.99428908897,26.24672,0,4.1360893712,0,0,0,277.5, 0, 0.5,0,0,999,1182,1024,1024,-4,24,0,0,282.2,0,0,59,3.86,3.872,3.87,3.864,0,0,7.696,96.62,103.99428908897,26.24672,6,P-GPS,
815000,2023-05-16 19:18:05,52.2088058535528,0.0699764701911835,26.24672,26.2139116,77.977227888972,103.99428908897,27.559056,0,4.1429791352,2.216125399,26,5,15.467,103.99428908897,26.24672,0,4.1429791352,0,0,0,277.4, 0, 2.3,0,0,1024,1274,1024,1024,0,38,0,0,282.2,0,0,59,3.86,3.872,3.87,3.864,0,0,7.696,96.62,103.99428908897,26.24672,6,P-GPS,
815200,2023-05-16 19:18:05,52.2088059160291,0.0699766333294822,26.24672,26.2139116,77.977227888972,103.99428908897,27.230972,0,4.1823164068,2.2591372114,26,5,15.467,103.99428908897,26.24672,0,4.1823164068,0,0,0,277.5, -0.1, 3.5,0,0,1024,1403,1024,1024,0,57,0,0,282.2,0,0,59,3.86,3.872,3.87,3.864,0,0,7.696,96.62,103.99428908897,26.24672,6,P-GPS,
815400,2023-05-16 19:18:05,52.2088061549998,0.0699768189971915,26.24672,26.2139116,77.977227888972,103.99428908897,27.559056,0.223694,4.2777888508,2.35570217512,27,5,15.467,103.99428908897,26.24672,0.223694,4.2777888508,0.223694,0,0,277.4, -0.2, 6.3,0,0,992,1074,1024,1024,-5,8,0,0,282.2,0,0,59,3.86,3.872,3.87,3.864,0,0,7.696,96.62,103.99428908897,26.24672,6,P-GPS,
815600,2023-05-16 19:18:05,52.2088067495387,0.0699770479543453,26.24672,26.1811032,78.010036288972,103.99428908897,27.559056,0.894776,4.4868439756,2.57857947884,27,5,15.467,103.99428908897,26.24672,0.894776,4.4868439756,0.894776,0,0,277.6, -0.2, 8.8,0,0,1024,1024,1024,1024,0,0,0,0,282.2,0,0,59,3.86,3.872,3.87,3.864,0,0,7.696,96.62,103.99428908897,26.24672,6,P-GPS,
815800,2023-05-16 19:18:06,52.2088077499734,0.0699773335038181,26.24672,26.1482948,78.042844688972,103.99428908897,27.230972,1.11847,4.8297901808,2.94912739096,27,5,15.464,103.99428908897,26.24672,1.11847,4.8297901808,1.11847,0,0,278.3, 0.2, -8.7,0,0,1024,1024,1024,1024,0,0,0,0,282.2,0,0,59,3.86,3.869,3.869,3.861,0,0,7.684,96.62,103.99428908897,26.24672,6,P-GPS,
816000,2023-05-16 19:18:06,52.2088083677994,0.0699775322714698,26.24672,26.1482948,78.042844688972,103.99428908897,27.230972,0.223694,5.0460631536,3.17887805448,27,5,15.464,103.99428908897,26.24672,1.11847,5.0460631536,0.223694,0,0,276.7, -0.7, -6.1,0,0,1024,1024,1024,1024,0,0,0,0,282.2,0,0,59,3.86,3.869,3.869,3.861,0,0,7.684,96.62,103.99428908897,26.24672,6,P-GPS,
816200,2023-05-16 19:18:06,52.2088085558783,0.0699776186048303,26.574804,26.4763788,78.042844688972,104.32237308897,27.230972,0,5.1150592188,3.250164146,26,5,15.464,104.32237308897,26.574804,1.11847,5.1150592188,0,0,0,277.1, -0.3, -1.9,0,0,1024,1024,1023,951,0,0,-0,-11,282.2,0,0,59,3.86,3.869,3.869,3.861,0,0,7.684,96.62,104.32237308897,26.574804,6,P-GPS,
816400,2023-05-16 19:18:06,52.2088085425396,0.0699776546273782,26.574804,26.4763788,78.042844688972,104.32237308897,27.559056,0,5.1148951768,3.25957359512,26,5,15.464,104.32237308897,26.574804,1.11847,5.1150592188,0,0,0,277.5, 0, -0.1,0,0,1024,1024,1024,689,0,0,0,-51,282.2,0,0,59,3.86,3.869,3.869,3.861,0,0,7.684,96.62,104.32237308897,26.574804,6,P-GPS,
816600,2023-05-16 19:18:06,52.208808484289,0.0699776784322694,26.574804,26.4763788,78.042844688972,104.32237308897,27.230972,0,5.0992783784,3.281496168,26,5,15.464,104.32237308897,26.574804,1.11847,5.1150592188,0,0,0,277.4, 0.1, 0.8,0,0,1024,1024,1024,689,0,0,0,-51,281.5,0,0,59,3.86,3.869,3.869,3.861,0,0,7.684,96.62,104.32237308897,26.574804,6,P-GPS,
816800,2023-05-16 19:18:06,52.2088084445685,0.0699777130615968,26.574804,26.4763788,78.042844688972,104.32237308897,27.559056,0,5.0907481944,3.297900368,26,5,15.458,104.32237308897,26.574804,1.11847,5.1150592188,0,0,0,276.1, 0, 1.1,0,0,1024,1024,1024,651,0,0,0,-57,279.4,0,0,59,3.86,3.87,3.868,3.861,0,0,8.088,96.44,104.32237308897,26.574804,6,P-GPS,
817000,2023-05-16 19:18:07,52.208808453265,0.0699777805694423,26.574804,26.4763788,78.042844688972,104.32237308897,27.559056,0,5.1011812656,3.313320316,26,5,15.458,104.32237308897,26.574804,1.11847,5.1150592188,0,0,0,273.7, 0, 0.9,0,0,1024,1024,1024,639,0,0,0,-58,276.7,0,0,59,3.86,3.87,3.868,3.861,0,0,8.088,96.44,104.32237308897,26.574804,6,P-GPS,
817200,2023-05-16 19:18:07,52.2088084887095,0.0699778740071787,26.574804,26.4763788,78.042844688972,104.32237308897,27.230972,0,5.1229988516,3.3378938076,26,5,15.458,104.32237308897,26.574804,1.11847,5.1229988516,0,0,0,270.7, -0.2, 0.6,0,0,1024,1024,1024,616,0,0,0,-62,273.4,0,0,59,3.86,3.87,3.868,3.861,0,0,8.088,96.44,104.32237308897,26.574804,6,P-GPS,
817400,2023-05-16 19:18:07,52.2088085370376,0.0699779666749086,26.574804,26.4763788,78.042844688972,104.32237308897,27.559056,0,5.1487534456,3.3651247796,27,5,15.458,104.32237308897,26.574804,1.11847,5.1487534456,0,0,0,267.3, -0.3, 0.6,0,0,1024,1024,1024,602,0,0,0,-64,269.9,0,0,59,3.86,3.87,3.868,3.861,0,0,8.088,96.44,104.32237308897,26.574804,6,P-GPS,
817600,2023-05-16 19:18:07,52.2088085790957,0.0699780411942924,26.574804,26.4763788,78.042844688972,104.32237308897,27.559056,0,5.1705054148,3.3877625756,27,5,15.458,104.32237308897,26.574804,1.11847,5.1705054148,0,0,0,263.6, -0.1, 0.6,0,0,1024,1024,1024,540,0,0,0,-73,266,0,0,59,3.86,3.87,3.868,3.861,0,0,8.088,96.44,104.32237308897,26.574804,6,P-GPS,
817800,2023-05-16 19:18:07,52.2088086163489,0.0699781282758153,26.574804,26.4763788,78.042844688972,104.32237308897,27.559056,0,5.1922245756,3.4115158572,27,5,15.456,104.32237308897,26.574804,1.11847,5.1922245756,0,0,0,259.4, 0, 0.4,0,0,1024,1024,1024,469,0,0,0,-84,261.1,0,0,59,3.86,3.868,3.868,3.859,0,0,7.668,96.8,104.32237308897,26.574804,6,P-GPS,
818000,2023-05-16 19:18:08,52.2088086277075,0.0699782131818784,26.574804,26.4763788,78.042844688972,104.32237308897,27.559056,0,5.2056104028,3.43093843,27,5,15.456,104.32237308897,26.574804,1.11847,5.2056104028,0,0,0,253.9, 0.1, 0.5,0,0,1024,1024,1024,454,0,0,0,-86,254.7,0,0,59,3.86,3.868,3.868,3.859,0,0,7.668,96.8,104.32237308897,26.574804,6,P-GPS,
818200,2023-05-16 19:18:08,52.2088086238396,0.0699782950424288,26.574804,26.4763788,78.042844688972,104.32237308897,27.559056,0,5.2139437364,3.4492783256,27,5,15.456,104.32237308897,26.574804,1.11847,5.2139437364,0,0,0,246.7, 0.2, 0.6,0,0,1024,1024,1024,433,0,0,0,-90,246.4,0,0,59,3.86,3.868,3.868,3.859,0,0,7.668,96.8,104.32237308897,26.574804,6,P-GPS,
818400,2023-05-16 19:18:08,52.2088086489203,0.0699783819459219,26.574804,26.4763788,78.042844688972,104.32237308897,27.559056,0,5.2319227396,3.4707678276,26,5,15.456,104.32237308897,26.574804,1.11847,5.2319227396,0,0,0,238, 0.4, 0.4,0,0,1024,1024,1024,406,0,0,0,-94,237.8,0,0,59,3.86,3.868,3.868,3.859,0,0,7.668,96.8,104.32237308897,26.574804,6,P-GPS,
818600,2023-05-16 19:18:08,52.2088086740031,0.0699785075522412,26.574804,26.4763788,78.042844688972,104.32237308897,27.559056,0,5.2544621104,3.5002953876,27,5,15.456,104.32237308897,26.574804,1.11847,5.2544621104,0,0,0,229.1, 0.4, 0.6,0,0,1024,1024,1024,409,0,0,0,-93,227.8,0,0,59,3.86,3.868,3.868,3.859,0,0,7.668,96.8,104.32237308897,26.574804,6,P-GPS,
818800,2023-05-16 19:18:09,52.2088086899247,0.0699786809546735,26.574804,26.4763788,78.042844688972,104.32237308897,27.88714,0,5.2799542372,3.5395014256,27,5,15.453,104.32237308897,26.574804,1.11847,5.2799542372,0,0,0,218.6, 0.4, 0.4,0,0,1024,1024,1024,408,0,0,0,-93,217.5,0,0,59,3.858,3.868,3.868,3.859,0,0,7.658,96.62,104.32237308897,26.574804,6,P-GPS,
819000,2023-05-16 19:18:09,52.2088087195341,0.0699788867917505,26.574804,26.4763788,78.042844688972,104.32237308897,27.559056,0,5.3137140808,3.58677833,27,5,15.453,104.32237308897,26.574804,1.11847,5.3137140808,0,0,0,208.4, 0.6, 0.4,0,0,1024,1024,1024,407,0,0,0,-93,207.3,0,0,59,3.858,3.868,3.868,3.859,0,0,7.658,96.62,104.32237308897,26.574804,6,P-GPS,
819200,2023-05-16 19:18:09,52.2088087537192,0.0699791065542607,26.574804,26.4763788,78.042844688972,104.32237308897,27.559056,0,5.3507875728,3.637467308,27,5,15.453,104.32237308897,26.574804,1.11847,5.3507875728,0,0,0,198.1, 0.6, 0.3,0,0,1024,1024,1024,405,0,0,0,-94,197,0,0,59,3.858,3.868,3.868,3.859,0,0,7.658,96.62,104.32237308897,26.574804,6,P-GPS,
819400,2023-05-16 19:18:09,52.2088088045777,0.0699793470753848,26.574804,26.4763788,78.042844688972,104.32237308897,27.559056,0,5.395669464,3.6943570736,27,5,15.453,104.32237308897,26.574804,1.11847,5.395669464,0,0,0,187.7, 0.8, 0.3,0,0,1024,1024,1024,398,0,0,0,-95,186.6,0,0,59,3.858,3.868,3.868,3.859,0,0,7.658,96.62,104.32237308897,26.574804,6,P-GPS,
819600,2023-05-16 19:18:09,52.2088088629826,0.0699796151558649,26.574804,26.4763788,78.042844688972,104.32237308897,27.559056,0,5.446522484,3.7579725612,27,5,15.453,104.32237308897,26.574804,1.11847,5.446522484,0,0,0,177.2, 0.9, 0.5,0,0,1024,1024,1024,383,0,0,0,-97,176,0,0,59,3.858,3.868,3.868,3.859,0,0,7.658,96.62,104.32237308897,26.574804,6,P-GPS,
819800,2023-05-16 19:18:10,52.2088089560085,0.0699798616458782,26.574804,26.4763788,78.042844688972,104.32237308897,27.559056,0,5.505413562,3.822670726,27,5,15.448,104.32237308897,26.574804,1.11847,5.505413562,0,0,0,166.6, 1, 0.6,0,0,1024,1024,1024,386,0,0,0,-97,165,0,0,59,3.856,3.866,3.866,3.857,0,0,7.681,96.8,104.32237308897,26.574804,6,P-GPS,
820000,2023-05-16 19:18:10,52.2088090721522,0.0699800460661768,26.574804,26.4763788,78.042844688972,104.32237308897,27.559056,0,5.5635828552,3.8818242712,27,5,15.448,104.32237308897,26.574804,1.11847,5.5635828552,0,0,0,155.5, 0.9, 0.7,0,0,1024,1024,1024,385,0,0,0,-97,153.8,0,0,59,3.856,3.866,3.866,3.857,0,0,7.681,96.8,104.32237308897,26.574804,6,P-GPS,
820200,2023-05-16 19:18:10,52.208809195234,0.0699801705137181,26.574804,26.4763788,78.042844688972,104.32237308897,27.88714,0,5.6163715708,3.9346457952,27,5,15.448,104.32237308897,26.574804,1.11847,5.6163715708,0,0,0,144.3, 0.8, 0.5,0,0,1024,1024,1024,385,0,0,0,-97,142.6,0,0,59,3.856,3.866,3.866,3.857,0,0,7.681,96.8,104.32237308897,26.574804,6,P-GPS,
820400,2023-05-16 19:18:10,52.2088093132431,0.0699802375141033,26.574804,26.4763788,78.042844688972,104.32237308897,27.88714,0,5.6604660604,3.9802166628,27,5,15.448,104.32237308897,26.574804,1.11847,5.6604660604,0,0,0,133.1, 0.6, 0.4,0,0,1024,1024,1024,387,0,0,0,-97,131.4,0,0,59,3.856,3.866,3.866,3.857,0,0,7.681,96.8,104.32237308897,26.574804,6,P-GPS,
820600,2023-05-16 19:18:10,52.2088094259065,0.0699802396318878,26.574804,26.4763788,78.042844688972,104.32237308897,27.559056,0,5.6948492636,4.021325588,27,5,15.448,104.32237308897,26.574804,1.11847,5.6948492636,0,0,0,121.9, 0.6, 0.1,0,0,1024,1024,1024,384,0,0,0,-97,120.2,0,0,59,3.856,3.866,3.866,3.857,0,0,7.681,96.8,104.32237308897,26.574804,6,P-GPS,
820800,2023-05-16 19:18:11,52.2088095535545,0.069980188939956,26.574804,26.4435704,78.075653088972,104.32237308897,27.559056,0,5.7274280048,4.0692586604,27,5,15.442,104.32237308897,26.574804,1.11847,5.7274280048,0,0,0,110.7, 0.5, 0,0,0,1024,1024,1024,383,0,0,0,-97,109.1,0,0,59,3.855,3.865,3.864,3.856,0,0,7.729,96.8,104.32237308897,26.574804,6,P-GPS,
821000,2023-05-16 19:18:11,52.2088096852417,0.0699801074794746,26.574804,26.4435704,78.075653088972,104.32237308897,27.559056,0,5.7576773496,4.1206366148,27,5,15.442,104.32237308897,26.574804,1.11847,5.7576773496,0,0,0,99.5, 0.4, 0.1,0,0,1024,1024,1024,384,0,0,0,-97,97.9,0,0,59,3.855,3.865,3.864,3.856,0,0,7.729,96.8,104.32237308897,26.574804,6,P-GPS,
821200,2023-05-16 19:18:11,52.2088098129732,0.0699800070403301,26.574804,26.4435704,78.075653088972,104.32237308897,27.559056,0,5.7847442796,4.1723754616,26,5,15.442,104.32237308897,26.574804,1.11847,5.7847442796,0,0,0,88.3, 0.3, 0,0,0,1024,1024,1024,383,0,0,0,-97,86.6,0,0,59,3.855,3.865,3.864,3.856,0,0,7.729,96.8,104.32237308897,26.574804,6,P-GPS,
821400,2023-05-16 19:18:11,52.2088099441968,0.0699798773611672,26.574804,26.4435704,78.075653088972,104.32237308897,27.559056,0,5.8097770888,4.228346592,26,5,15.442,104.32237308897,26.574804,1.11847,5.8097770888,0,0,0,77.1, 0.3, 0,0,0,1024,1024,1024,382,0,0,0,-97,75.4,0,0,59,3.855,3.865,3.864,3.856,0,0,7.729,96.8,104.32237308897,26.574804,6,P-GPS,
821600,2023-05-16 19:18:11,52.2088100538928,0.0699797188049267,26.574804,26.4435704,78.075653088972,104.32237308897,27.559056,0,5.82513142,4.281824284,26,5,15.442,104.32237308897,26.574804,1.11847,5.82513142,0,0,0,65.8, 0.2, 0.1,0,0,1024,1024,1024,380,0,0,0,-98,64.1,0,0,59,3.855,3.865,3.864,3.856,0,0,7.729,96.8,104.32237308897,26.574804,6,P-GPS,
821800,2023-05-16 19:18:12,52.2088101346841,0.0699795543131639,26.574804,26.4435704,78.075653088972,104.32237308897,27.559056,0,5.8312337824,4.3289371464,27,5,15.44,104.32237308897,26.574804,1.11847,5.8312337824,0,0,0,54.5, 0, 0,0,0,1024,1024,1024,381,0,0,0,-97,52.8,0,0,59,3.854,3.865,3.865,3.856,0,0,7.717,96.8,104.32237308897,26.574804,6,P-GPS,
822000,2023-05-16 19:18:12,52.2088102163139,0.0699793991318734,26.574804,26.4435704,78.075653088972,104.32237308897,27.559056,0,5.8390093732,4.374672056,27,5,15.44,104.32237308897,26.574804,1.11847,5.8390093732,0,0,0,43.1, 0.1, 0,0,0,1024,1024,1024,382,0,0,0,-97,41.5,0,0,59,3.854,3.865,3.865,3.856,0,0,7.717,96.8,104.32237308897,26.574804,6,P-GPS,
822200,2023-05-16 19:18:12,52.2088102688183,0.0699792594130256,26.574804,26.4435704,78.075653088972,104.32237308897,27.559056,0,5.839731158,4.4113190388,27,5,15.44,104.32237308897,26.574804,1.11847,5.839731158,0,0,0,31.8, 0, 0,0,0,1024,1024,1024,384,0,0,0,-97,30.2,0,0,59,3.854,3.865,3.865,3.856,0,0,7.717,96.8,104.32237308897,26.574804,6,P-GPS,
822400,2023-05-16 19:18:12,52.2088102885243,0.0699791195199708,26.574804,26.4435704,78.075653088972,104.32237308897,27.559056,0,5.8302495304,4.443405654,27,5,15.44,104.32237308897,26.574804,1.11847,5.839731158,0,0,0,20.5, -0.2, -0.2,0,0,1024,1024,1024,386,0,0,0,-97,18.9,0,0,59,3.854,3.865,3.865,3.856,0,0,7.717,96.8,104.32237308897,26.574804,6,P-GPS,
822600,2023-05-16 19:18:12,52.2088103026672,0.0699789703753683,26.574804,26.4435704,78.075653088972,104.32237308897,27.559056,0,5.8181760392,4.4771326892,27,5,15.44,104.32237308897,26.574804,1.11847,5.839731158,0,0,0,9.2, -0.3, 0,0,0,1024,1024,1024,388,0,0,0,-96,7.6,0,0,59,3.854,3.865,3.865,3.856,0,0,7.717,96.8,104.32237308897,26.574804,6,P-GPS,
822800,2023-05-16 19:18:12,52.2088103448057,0.0699787742586145,26.574804,26.4435704,78.075653088972,104.32237308897,27.559056,0,5.810039556,4.523622192,27,5,15.437,104.32237308897,26.574804,1.11847,5.839731158,0,0,0,358.1, -0.1, 0.3,0,0,1024,1024,1024,388,0,0,0,-96,356.5,0,0,59,3.853,3.864,3.863,3.855,0,0,7.702,96.8,104.32237308897,26.574804,6,P-GPS,
823000,2023-05-16 19:18:13,52.2088104072177,0.0699785350556762,26.574804,26.4435704,78.075653088972,104.32237308897,27.559056,0,5.804134044,4.5817258684,27,5,15.437,104.32237308897,26.574804,1.11847,5.839731158,0,0,0,347, 0.1, 0.3,0,0,1024,1024,1024,392,0,0,0,-96,345.5,0,0,59,3.853,3.864,3.863,3.855,0,0,7.702,96.8,104.32237308897,26.574804,6,P-GPS,
823200,2023-05-16 19:18:13,52.2088104491056,0.0699782961654371,26.574804,26.4435704,78.075653088972,104.32237308897,27.559056,0,5.7922245948,4.637303298,27,5,15.437,104.32237308897,26.574804,1.11847,5.839731158,0,0,0,335.9, 0, 0,0,0,1024,1024,1024,391,0,0,0,-96,334.5,0,0,59,3.853,3.864,3.863,3.855,0,0,7.702,96.8,104.32237308897,26.574804,6,P-GPS,
823400,2023-05-16 19:18:13,52.2088104634755,0.0699780796734344,26.574804,26.4435704,78.075653088972,104.32237308897,27.559056,0,5.7742455916,4.6859581552,27,5,15.437,104.32237308897,26.574804,1.11847,5.839731158,0,0,0,325, 0, 0.1,0,0,1024,1024,1024,392,0,0,0,-96,323.6,0,0,59,3.853,3.864,3.863,3.855,0,0,7.702,96.8,104.32237308897,26.574804,6,P-GPS,
823600,2023-05-16 19:18:13,52.2088104423613,0.0699778882473863,26.574804,26.4435704,78.075653088972,104.32237308897,27.559056,0,5.7476707876,4.7294620936,27,5,15.437,104.32237308897,26.574804,1.11847,5.839731158,0,0,0,314.1, -0.1, 0,0,0,1024,1024,1024,392,0,0,0,-96,312.6,0,0,59,3.853,3.864,3.863,3.855,0,0,7.702,96.8,104.32237308897,26.574804,6,P-GPS,
823800,2023-05-16 19:18:13,52.2088103868413,0.0699776897200203,26.574804,26.4435704,78.075653088972,104.32237308897,27.559056,0,5.7093833848,4.7782481844,27,5,15.435,104.32237308897,26.574804,1.11847,5.839731158,0,0,0,303.2, 0, 0.2,0,0,1024,1024,1024,652,0,0,0,-56,301.7,0,0,59,3.853,3.864,3.863,3.855,0,0,7.677,96.8,104.32237308897,26.574804,6,P-GPS,
824000,2023-05-16 19:18:14,52.2088103146962,0.0699774841000742,26.574804,26.4435704,78.075653088972,104.32237308897,27.559056,0,5.6651576616,4.8312337504,27,5,15.435,104.32237308897,26.574804,1.11847,5.839731158,0,0,0,292.3, 0.1, 0.5,0,0,1024,1024,1024,1024,0,0,0,0,292.7,0,0,59,3.853,3.864,3.863,3.855,0,0,7.677,96.8,104.32237308897,26.574804,6,P-GPS,
824200,2023-05-16 19:18:14,52.2088102485104,0.069977314173703,26.574804,26.4435704,78.075653088972,104.32237308897,27.559056,0,5.6265421748,4.8762468752,27,5,15.435,104.32237308897,26.574804,1.11847,5.839731158,0,0,0,286.2, 0.1, 0.2,0,0,1024,1024,1024,1024,0,0,0,0,291.5,0,0,59,3.853,3.864,3.863,3.855,0,0,7.677,96.8,104.32237308897,26.574804,6,P-GPS,
824400,2023-05-16 19:18:14,52.2088101808511,0.0699771736486966,26.574804,26.4435704,78.075653088972,104.32237308897,27.559056,0,5.5904857432,4.9162075064,27,5,15.435,104.32237308897,26.574804,1.11847,5.839731158,0,0,0,287.1, -0.1, 0.9,0,0,1024,1024,1024,1024,0,0,0,0,291.5,0,0,59,3.853,3.864,3.863,3.855,0,0,7.677,96.8,104.32237308897,26.574804,6,P-GPS,
824600,2023-05-16 19:18:14,52.2088101317489,0.069977066257348,26.574804,26.4435704,78.075653088972,104.32237308897,27.559056,0,5.563812514,4.9461615756,27,5,15.435,104.32237308897,26.574804,1.11847,5.839731158,0,0,0,286.9, 0, 0.7,0,0,1024,1024,1024,1024,0,0,0,0,291.5,0,0,59,3.853,3.864,3.863,3.855,0,0,7.677,96.8,104.32237308897,26.574804,6,P-GPS,
824800,2023-05-16 19:18:14,52.2088100929643,0.0699770065452461,26.574804,26.4435704,78.075653088972,104.32237308897,27.88714,0,5.5452101512,4.9656169568,27,5,15.433,104.32237308897,26.574804,1.11847,5.839731158,0,0,0,286.9, -0.1, 0.5,0,0,1024,1024,1024,1024,0,0,0,0,291.5,0,0,59,3.852,3.865,3.863,3.854,0,0,7.684,96.98,104.32237308897,26.574804,6,P-GPS,
825000,2023-05-16 19:18:15,52.208810045947,0.0699769459187477,26.574804,26.4435704,78.075653088972,104.32237308897,27.88714,0,5.5238518828,4.9874673512,27,5,15.433,104.32237308897,26.574804,1.11847,5.839731158,0,0,0,286.8, -0.1, 0.5,0,0,1024,1024,1024,1024,0,0,0,0,291.5,0,0,59,3.852,3.865,3.863,3.854,0,0,7.684,96.98,104.32237308897,26.574804,6,P-GPS,
825200,2023-05-16 19:18:15,52.2088100012931,0.0699768996934483,26.574804,26.4435704,78.075653088972,104.32237308897,27.559056,0,5.5046917772,5.0067586904,27,5,15.433,104.32237308897,26.574804,1.11847,5.839731158,0,0,0,286.8, -0.1, 0.6,0,0,1024,1024,1024,1024,0,0,0,0,291.5,0,0,59,3.852,3.865,3.863,3.854,0,0,7.684,96.98,104.32237308897,26.574804,6,P-GPS,
825400,2023-05-16 19:18:15,52.2088099771001,0.0699768553218442,26.574804,26.4435704,78.075653088972,104.32237308897,27.559056,0,5.4923886272,5.0200460924,27,5,15.433,104.32237308897,26.574804,1.11847,5.839731158,0,0,0,286.8, 0, 0.8,0,0,1024,1024,1024,1024,0,0,0,0,291.5,0,0,59,3.852,3.865,3.863,3.854,0,0,7.684,96.98,104.32237308897,26.574804,6,P-GPS,
825600,2023-05-16 19:18:15,52.2088099755035,0.0699768388782163,26.574804,26.4435704,78.075653088972,104.32237308897,27.559056,0,5.4902560812,5.0237534416,26,5,15.433,104.32237308897,26.574804,1.11847,5.839731158,0,0,0,286.7, -0.2, 0.5,0,0,1024,1024,1024,1024,0,0,0,0,291.5,0,0,59,3.852,3.865,3.863,3.854,0,0,7.684,96.98,104.32237308897,26.574804,6,P-GPS,
825800,2023-05-16 19:18:16,52.208809988855,0.0699768385190983,26.574804,26.4435704,78.075653088972,104.32237308897,27.559056,0,5.4946195984,5.0286418932,26,5,15.429,104.32237308897,26.574804,1.11847,5.839731158,0,0,0,286.7, -0.3, 0.3,0,0,1024,1024,1024,1024,0,0,0,0,291.5,0,0,59,3.852,3.863,3.862,3.854,0,0,7.683,96.98,104.32237308897,26.574804,6,P-GPS,
826000,2023-05-16 19:18:16,52.2088100049597,0.0699768434001758,26.574804,26.4435704,78.075653088972,104.32237308897,27.559056,0,5.5003938768,5.034613022,26,5,15.429,104.32237308897,26.574804,1.11847,5.839731158,0,0,0,286.7, -0.3, 0.4,0,0,1024,1024,1024,1024,0,0,0,0,291.5,0,0,59,3.852,3.863,3.862,3.854,0,0,7.683,96.98,104.32237308897,26.574804,6,P-GPS,
826200,2023-05-16 19:18:16,52.2088100372002,0.0699768343016465,26.574804,26.4435704,78.075653088972,104.32237308897,27.559056,0,5.5100723548,5.0465552796,26,5,15.429,104.32237308897,26.574804,1.11847,5.839731158,0,0,0,286.7, -0.5, 0.3,0,0,1024,1024,1024,1024,0,0,0,0,291.5,0,0,59,3.852,3.863,3.862,3.854,0,0,7.683,96.98,104.32237308897,26.574804,6,P-GPS,
826400,2023-05-16 19:18:16,52.2088100939817,0.0699768010360499,26.574804,26.4435704,78.075653088972,104.32237308897,27.559056,0,5.5255251112,5.068569716,26,5,15.429,104.32237308897,26.574804,1.11847,5.839731158,0,0,0,286.7, -0.4, 0.1,0,0,1024,1024,1024,1024,0,0,0,0,291.5,0,0,59,3.852,3.863,3.862,3.854,0,0,7.683,96.98,104.32237308897,26.574804,6,P-GPS,
826600,2023-05-16 19:18:16,52.2088101425913,0.0699767163785733,26.574804,26.4435704,78.075653088972,104.32237308897,27.230972,0,5.5333663188,5.094488352,26,5,15.429,104.32237308897,26.574804,1.11847,5.839731158,0,0,0,286.7, -0.2, 0.4,0,0,1024,1024,1024,1024,0,0,0,0,291.5,0,0,59,3.852,3.863,3.862,3.854,0,0,7.683,96.98,104.32237308897,26.574804,6,P-GPS,
826800,2023-05-16 19:18:17,52.2088101768193,0.0699766092672669,26.574804,26.4435704,78.075653088972,104.32237308897,27.230972,0,5.534448996,5.1214896652,26,5,15.424,104.32237308897,26.574804,1.11847,5.839731158,0,0,0,286.7, -0.2, 0.5,0,0,1024,1024,1024,1024,0,0,0,0,291.5,0,0,59,3.851,3.863,3.862,3.854,0,0,7.706,96.98,104.32237308897,26.574804,6,P-GPS,
827000,2023-05-16 19:18:17,52.2088102281576,0.069976492577515,26.574804,26.4435704,78.075653088972,104.32237308897,27.230972,0,5.5404201248,5.1536090888,26,5,15.424,104.32237308897,26.574804,1.11847,5.839731158,0,0,0,286.7, -0.4, 0.4,0,0,1024,1024,1024,1024,0,0,0,0,291.5,0.2,0,59,3.851,3.863,3.862,3.854,0,0,7.706,96.98,104.32237308897,26.574804,6,P-GPS,
827200,2023-05-16 19:18:17,52.2088102883294,0.0699763521881608,26.574804,26.4435704,78.075653088972,104.32237308897,27.559056,0,5.5473098888,5.1919293,26,5,15.424,104.32237308897,26.574804,1.11847,5.839731158,0,0,0,286.7, -0.3, 0.4,0,0,1024,1024,1024,1024,0,0,0,0,291.5,1.1,0,59,3.851,3.863,3.862,3.854,0,0,7.706,96.98,104.32237308897,26.574804,6,P-GPS,
827400,2023-05-16 19:18:17,52.2088103617788,0.0699761967141038,26.574804,26.4435704,78.075653088972,104.32237308897,27.559056,0,5.5575133012,5.2358269392,26,5,15.424,104.32237308897,26.574804,1.11847,5.839731158,0,0,0,286.7, -0.2, 0.6,0,0,1024,1024,1024,1024,0,0,0,0,291.5,2.9,0,59,3.851,3.863,3.862,3.854,0,0,7.706,96.98,104.32237308897,26.574804,6,P-GPS,
827600,2023-05-16 19:18:17,52.2088104350548,0.0699760408184547,26.574804,26.4435704,78.075653088972,104.32237308897,27.559056,0,5.5679463724,5.2797573868,26,5,15.424,104.32237308897,26.574804,1.11847,5.839731158,0,0,0,286.7, -0.2, 0.5,0,0,1024,1024,1024,1024,0,0,0,0,291.5,5.2,0,59,3.851,3.863,3.862,3.854,0,0,7.706,96.98,104.32237308897,26.574804,6,P-GPS,
827800,2023-05-16 19:18:18,52.2088105147506,0.0699758884790346,26.574804,26.410762,78.108461488972,104.32237308897,27.559056,0,5.581200966,5.3245408528,26,5,15.424,104.32237308897,26.574804,1.11847,5.839731158,0,0,0,286.7, -0.2, 0.4,0,0,1024,1024,1024,1024,0,0,0,0,291.5,7.6,0,59,3.85,3.861,3.86,3.852,0,0,7.679,96.98,104.32237308897,26.574804,6,P-GPS,
828000,2023-05-16 19:18:18,52.2088106039556,0.0699757450542161,26.574804,26.410762,78.108461488972,104.32237308897,27.230972,0,5.5987206516,5.3702101456,26,5,15.424,104.32237308897,26.574804,1.11847,5.839731158,0,0,0,286.7, -0.1, 0.6,0,0,1024,1024,1024,1024,0,0,0,0,291.5,10.4,0,59,3.85,3.861,3.86,3.852,0,0,7.679,96.98,104.32237308897,26.574804,6,P-GPS,
828200,2023-05-16 19:18:18,52.2088106878738,0.0699756075046026,26.574804,26.410762,78.108461488972,104.32237308897,27.230972,0,5.6152888936,5.4136156588,26,5,15.424,104.32237308897,26.574804,1.11847,5.839731158,0,0,0,286.7, -0.3, 0.4,0,0,1024,1024,1024,1024,0,0,0,0,291.5,13.2,0,59,3.85,3.861,3.86,3.852,0,0,7.679,96.98,104.32237308897,26.574804,6,P-GPS,
828400,2023-05-16 19:18:18,52.2088107736778,0.0699754735610229,26.574804,26.410762,78.108461488972,104.32237308897,27.230972,0,5.6330710464,5.4569227468,26,5,15.424,104.32237308897,26.574804,1.11847,5.839731158,0,0,0,286.7, -0.1, 0.4,0,0,1024,1024,1024,1024,0,0,0,0,291.5,16.1,0,59,3.85,3.861,3.86,3.852,0,0,7.679,96.98,104.32237308897,26.574804,6,P-GPS,
828600,2023-05-16 19:18:18,52.2088108625948,0.069975329213507,26.574804,26.410762,78.108461488972,104.32237308897,27.559056,0,5.6513453252,5.5026904648,26,5,15.424,104.32237308897,26.574804,1.11847,5.839731158,0,0,0,286.7, -0.2, 0.4,0,0,1024,1024,1024,1024,0,0,0,0,291.5,19,0,59,3.85,3.861,3.86,3.852,0,0,7.679,96.98,104.32237308897,26.574804,6,P-GPS,
828800,2023-05-16 19:18:19,52.2088109544031,0.069975178059788,26.574804,26.410762,78.108461488972,104.32237308897,27.559056,0,5.6703413888,5.5502626448,26,5,15.421,104.32237308897,26.574804,1.11847,5.839731158,0,0,0,286.7, -0.1, 0.2,0,0,1024,1024,1024,1024,0,0,0,0,291.5,22,0,59,3.85,3.859,3.858,3.851,0,0,7.701,96.98,104.32237308897,26.574804,6,P-GPS,
829000,2023-05-16 19:18:19,52.2088110399126,0.0699750184440785,26.574804,26.410762,78.108461488972,104.32237308897,27.559056,0,5.6868768224,5.5976707828,26,5,15.421,104.32237308897,26.574804,1.11847,5.839731158,0,0,0,286.7, 0, 0.4,0,0,1024,1024,1024,1024,0,0,0,0,291.5,24.9,0,59,3.85,3.859,3.858,3.851,0,0,7.701,96.98,104.32237308897,26.574804,6,P-GPS,
829200,2023-05-16 19:18:19,52.2088111218658,0.0699748854655738,26.574804,26.410762,78.108461488972,104.32237308897,27.559056,0,5.7045933584,5.6398295768,26,5,15.421,104.32237308897,26.574804,1.11847,5.839731158,0,0,0,286.7, -0.1, 0.3,0,0,1024,1024,1024,1024,0,0,0,0,291.5,27.8,0,59,3.85,3.859,3.858,3.851,0,0,7.701,96.98,104.32237308897,26.574804,6,P-GPS,
829400,2023-05-16 19:18:19,52.2088111977632,0.069974756799543,26.574804,26.410762,78.108461488972,104.32237308897,27.559056,0,5.720800708,5.6797573996,26,5,15.421,104.32237308897,26.574804,1.11847,5.839731158,0,0,0,286.7, 0, 0.5,0,0,1024,1024,1024,1024,0,0,0,0,291.5,30.7,0,59,3.85,3.859,3.858,3.851,0,0,7.701,96.98,104.32237308897,26.574804,6,P-GPS,
829600,2023-05-16 19:18:19,52.2088112781251,0.0699746426126949,26.574804,26.410762,78.108461488972,104.32237308897,27.559056,0,5.7398623884,5.7186353536,26,5,15.421,104.32237308897,26.574804,1.11847,5.839731158,0,0,0,286.7, -0.1, 0.5,0,0,1024,1024,1024,1024,0,0,0,0,291.5,33.6,0,59,3.85,3.859,3.858,3.851,0,0,7.701,96.98,104.32237308897,26.574804,6,P-GPS,
829800,2023-05-16 19:18:20,52.208811365938,0.0699745255319325,26.574804,26.410762,78.108461488972,104.32237308897,27.559056,0,5.761483124,5.760006746,26,5,15.417,104.32237308897,26.574804,1.11847,5.839731158,0,0,0,286.7, -0.1, 0.4,0,0,1024,1024,1024,1024,0,0,0,0,291.5,34,0,59,3.849,3.859,3.858,3.851,0,0,7.715,96.98,104.32237308897,26.574804,6,P-GPS,
830000,2023-05-16 19:18:20,52.2088114540679,0.0699744101576359,26.574804,26.410762,78.108461488972,104.32237308897,27.559056,0,5.7835303688,5.8012469048,26,5,15.417,104.32237308897,26.574804,1.11847,5.839731158,0,0,0,286.7, 0, 0.6,0,0,1024,1024,1024,1024,0,0,0,0,291.5,34,0,59,3.849,3.859,3.858,3.851,0,0,7.715,96.98,104.32237308897,26.574804,6,P-GPS,
830200,2023-05-16 19:18:20,52.2088115519512,0.0699743003994727,26.574804,26.3779536,78.141269888972,104.32237308897,27.559056,0,5.8095802384,5.8445868012,26,5,15.417,104.32237308897,26.574804,1.11847,5.839731158,0,0,0,286.7, -0.1, 0.4,0,0,1024,1024,1024,1024,0,0,0,0,291.5,34,0,59,3.849,3.859,3.858,3.851,0,0,7.715,96.98,104.32237308897,26.574804,6,P-GPS,
830400,2023-05-16 19:18:20,52.2088116333904,0.0699742003462325,26.574804,26.3779536,78.141269888972,104.32237308897,27.559056,0,5.8308072732,5.8817587184,26,5,15.417,104.32237308897,26.574804,1.11847,5.839731158,0,0,0,286.7, -0.1, 0.4,0,0,1024,1024,1024,1024,0,0,0,0,291.5,34,0,59,3.849,3.859,3.858,3.851,0,0,7.715,96.98,104.32237308897,26.574804,6,P-GPS,
830600,2023-05-16 19:18:20,52.2088117213532,0.0699740904002095,26.574804,26.3779536,78.141269888972,104.32237308897,27.559056,0,5.8537731532,5.9221786672,26,5,15.417,104.32237308897,26.574804,1.11847,5.8537731532,0,0,0,286.7, 0, 0.3,0,0,1024,1024,1024,1024,0,0,0,0,291.5,34,0,59,3.849,3.859,3.858,3.851,0,0,7.715,96.98,104.32237308897,26.574804,6,P-GPS,
830800,2023-05-16 19:18:20,52.2088118166879,0.0699739796389624,26.574804,26.3779536,78.141269888972,104.32237308897,27.559056,0,5.879429322,5.964895204,26,5,15.416,104.32237308897,26.574804,1.11847,5.879429322,0,0,0,286.7, -0.1, 0.1,0,0,1024,1024,1024,1024,0,0,0,0,291.5,34,0,59,3.849,3.859,3.858,3.85,0,0,7.704,97.16,104.32237308897,26.574804,6,P-GPS,
831000,2023-05-16 19:18:21,52.2088118808926,0.0699738707003921,26.574804,26.3779536,78.141269888972,104.32237308897,27.559056,0,5.8945539944,5.998687856,26,5,15.416,104.32237308897,26.574804,1.11847,5.8945539944,0,0,0,286.7, 0, 0.3,0,0,1024,1024,1024,1024,0,0,0,0,291.5,34,0,59,3.849,3.859,3.858,3.85,0,0,7.704,97.16,104.32237308897,26.574804,6,P-GPS,
831200,2023-05-16 19:18:21,52.2088119326067,0.0699737770741405,26.574804,26.3779536,78.141269888972,104.32237308897,27.559056,0,5.906496252,6.0268702716,26,5,15.416,104.32237308897,26.574804,1.11847,5.906496252,0,0,0,286.6, 0, 0.2,0,0,1024,1024,1024,1024,0,0,0,0,291.5,34,0,59,3.849,3.859,3.858,3.85,0,0,7.704,97.16,104.32237308897,26.574804,6,P-GPS,
