time(millisecond),datetime(utc),latitude,longitude,height_above_takeoff(feet),height_above_ground_at_drone_location(feet),ground_elevation_at_drone_location(feet),altitude_above_seaLevel(feet),height_sonar(feet),speed(mph),distance(feet),mileage(feet),satellites,gpslevel,voltage(v),max_altitude(feet),max_ascent(feet),max_speed(mph),max_distance(feet), xSpeed(mph), ySpeed(mph), zSpeed(mph), compass_heading(degrees), pitch(degrees), roll(degrees),isPhoto,isVideo,rc_elevator,rc_aileron,rc_throttle,rc_rudder,rc_elevator(percent),rc_aileron(percent),rc_throttle(percent),rc_rudder(percent),gimbal_heading(degrees),gimbal_pitch(degrees),gimbal_roll(degrees),battery_percent,voltageCell1,voltageCell2,voltageCell3,voltageCell4,voltageCell5,voltageCell6,current(A),battery_temperature(f),altitude(feet),ascent(feet),flycStateRaw,flycState,message
100,2023-05-19 17:22:49,52.2056796300037,0.0822702412337163,0,0,50.008370366672,50.008370366672,0.328084,0,0,0,24,5,0,50.008370366672,0,0,0,0,0,0,12.9, 3.5, -1.8,0,0,1024,1024,1024,1024,0,0,0,0,14.2,0,0,85,4.152,4.159,4.158,4.152,0,0,0,83.84,50.008370366672,0,41,Motors_Started,"Setting new Return-To-Home altitude to 26m (85 ft). Data Recorder File Index is 13. Setting new Maximum Flight Altitude to 120m (394 ft)"
300,2023-05-19 17:22:50,52.2056796451236,0.0822702895706855,0,0,50.008370366672,50.008370366672,0.328084,0,0.0121341539316,0.0121341539316,25,5,0,50.008370366672,0,0,0.0121341539316,0,0,0,12.9, 3.4, -1.8,0,0,1024,1024,1024,1024,0,0,0,0,14.2,0,0,85,4.152,4.159,4.158,4.152,0,0,0,83.84,50.008370366672,0,41,Motors_Started,
500,2023-05-19 17:22:50,52.2056796572265,0.0822703189132633,0,0,50.008370366672,50.008370366672,0,0,0.0200077434224,0.0200424547096,25,5,0,50.008370366672,0,0,0.0200077434224,0,0,0,12.8, 3.5, -1.8,0,0,1024,1024,1024,1024,0,0,0,0,14.2,0,0,85,4.152,4.159,4.158,4.152,0,0,0,83.84,50.008370366672,0,41,Motors_Started,
700,2023-05-19 17:22:50,52.2056796619958,0.0822703648964657,0,0,50.008370366672,50.008370366672,0,0,0.0300125337688,0.0304700797152,25,5,0,50.008370366672,0,0,0.0300125337688,0,0,0,12.9, 3.5, -1.8,0,0,1024,1024,1024,1024,0,0,0,0,14.2,0,0,85,4.152,4.159,4.158,4.152,0,0,0,83.84,50.008370366672,0,41,Motors_Started,
900,2023-05-19 17:22:50,52.2056796965283,0.0822703933251458,0,0,50.008370366672,50.008370366672,0,0,0.041779528896,0.044582022424,25,5,0,50.008370366672,0,0,0.041779528896,0,0,0,12.9, 3.5, -1.8,0,0,1024,1024,1024,1024,0,0,0,0,14.2,0,0,85,4.152,4.159,4.158,4.152,0,0,0,83.84,50.008370366672,0,41,Motors_Started,
1100,2023-05-19 17:22:50,52.2056797274898,0.0822704091042953,0,0,50.008370366672,50.008370366672,0,0,0.051709647324,0.056416340388,25,5,16.772,50.008370366672,0,0,0.051709647324,0,0,0,12.9, 3.5, -1.8,0,0,1024,1024,1024,1024,0,0,0,0,14.2,0,0,85,4.152,4.159,4.158,4.152,0,0,1.372,83.84,50.008370366672,0,41,Motors_Started,
1300,2023-05-19 17:22:51,52.205679751153,0.0822704487461318,0,0,50.008370366672,50.008370366672,0,0,0.064082023048,0.068789700364,25,5,16.772,50.008370366672,0,0,0.064082023048,0,0,0,12.9, 3.6, -1.8,0,0,1024,1024,1024,1024,0,0,0,0,14.2,0,0,85,4.152,4.159,4.158,4.152,0,0,1.372,83.84,50.008370366672,0,41,Motors_Started,
1500,2023-05-19 17:22:51,52.2056797688176,0.0822704743038106,0,0,50.008370366672,50.008370366672,0,0,0.072668637496,0.0774032177,25,5,16.772,50.008370366672,0,0,0.072668637496,0,0,0,12.9, 3.5, -1.8,0,0,1024,1024,1024,1024,0,0,0,0,14.2,0,0,85,4.152,4.159,4.158,4.152,0,0,1.372,83.84,50.008370366672,0,41,Motors_Started,
1700,2023-05-19 17:22:51,52.2056797786171,0.0822704887234719,0,0,50.008370366672,50.008370366672,0,0,0.077473099592,0.082217522316,25,5,16.772,50.008370366672,0,0,0.077473099592,0,0,0,13, 3.5, -1.7,0,0,1024,1024,1024,1024,0,0,0,0,14.2,0,0,85,4.152,4.159,4.158,4.152,0,0,1.372,83.84,50.008370366672,0,11,AutoTakeoff,
1900,2023-05-19 17:22:51,52.2056797850631,0.0822705177060823,0,0,50.008370366672,50.008370366672,0,0,0.083796262524,0.089111223324,25,5,16.772,50.008370366672,0,0,0.083796262524,0,0,0,13, 3, -1.7,0,0,1024,1024,1024,1024,0,0,0,0,14.2,0,0,85,4.152,4.159,4.158,4.152,0,0,1.372,83.84,50.008370366672,0,11,AutoTakeoff,
2100,2023-05-19 17:22:51,52.2056798056353,0.0822705077475693,0,0,50.008370366672,50.008370366672,0,0,0.08750492406,0.096940291816,25,5,16.66,50.008370366672,0,0,0.08750492406,0,0,-0.223694,13.5, -2.2, -0.7,0,0,1024,1024,1024,1024,0,0,0,0,14.2,0,0,85,4.155,4.159,4.156,4.148,0,0,2.873,83.66,50.008370366672,0,11,AutoTakeoff,
2300,2023-05-19 17:22:52,52.2056799236689,0.0822704415415434,0,0,50.008370366672,50.008370366672,0.328084,0,0.116127628388,0.142478022932,25,5,16.66,50.008370366672,0,0,0.116127628388,0,0,-0.894776,13.6, 0.3, 0.1,0,0,1024,1024,1024,1024,0,0,0,0,14.2,0,0,85,4.155,4.159,4.156,4.148,0,0,2.873,83.66,50.008370366672,0,11,AutoTakeoff,
2500,2023-05-19 17:22:52,52.2056800655523,0.0822703760711789,0.328084,0.328084,50.008370366672,50.336454366672,0.328084,0,0.161744099664,0.196273956412,25,5,16.66,50.336454366672,0.328084,0,0.161744099664,0,0,-1.11847,13.5, 2, 1.4,0,0,1024,1024,1024,1024,0,0,0,0,14.2,0,0,85,4.155,4.159,4.156,4.148,0,0,2.873,83.66,50.336454366672,0.328084,11,AutoTakeoff,
2700,2023-05-19 17:22:52,52.2056800835796,0.0822703213945913,0.984252,0.984252,50.008370366672,50.992622366672,0.984252,0,0.166454729736,0.210156174704,26,5,16.66,50.992622366672,0.984252,0,0.166454729736,0,0,-0.894776,13.3, 0.7, 0.9,0,0,1024,1024,1024,1024,0,0,0,0,14.2,0,0,85,4.155,4.159,4.156,4.148,0,0,2.873,83.66,50.992622366672,0.984252,11,AutoTakeoff,
2900,2023-05-19 17:22:52,52.2056800212947,0.0822702617815589,0.984252,0.984252,50.008370366672,50.992622366672,1.312336,0,0.14283629066,0.236501319904,25,5,16.66,50.992622366672,0.984252,0,0.166454729736,0,0,-0.894776,13.2, -0.5, 0.7,0,0,1024,1024,1024,1024,0,0,0,0,14.2,0,0,85,4.155,4.159,4.156,4.148,0,0,2.873,83.66,50.992622366672,0.984252,11,AutoTakeoff,"Home Point updated (Code: 3000001)"
3100,2023-05-19 17:22:53,52.2056799464239,0.0822701110548598,1.312336,1.312336,50.008370366672,51.320706366672,1.64042,0,0.11905840276,0.279882882972,25,5,16.698,51.320706366672,1.312336,0,0.166454729736,0,0,-0.894776,13.3, -1.6, 0.9,0,0,1024,1024,1024,1024,0,0,0,0,14.2,0,0,85,4.124,4.134,4.133,4.125,0,0,4.09,83.84,51.320706366672,1.312336,11,AutoTakeoff,
3300,2023-05-19 17:22:53,52.2056799370666,0.0822700628297252,1.64042,1.64042,50.008370366672,51.648790366672,1.968504,0,0.118921263648,0.291192922704,24,5,16.698,51.648790366672,1.64042,0,0.166454729736,0,0,-1.11847,12.8, -1.9, 0.6,0,0,1024,1024,1024,1024,0,0,0,0,14.2,0,0,85,4.124,4.134,4.133,4.125,0,0,4.09,83.84,51.648790366672,1.64042,11,AutoTakeoff,
3500,2023-05-19 17:22:53,52.2056799390715,0.0822700985433748,2.296588,2.296588,50.008370366672,52.304958366672,2.296588,0,0.117189636296,0.299211623748,24,5,16.698,52.304958366672,2.296588,0,0.166454729736,0,0,-1.11847,12.8, -2, 0.1,0,0,1024,1024,1024,1024,0,0,0,0,14.2,0,0,85,4.124,4.134,4.133,4.125,0,0,4.09,83.84,52.304958366672,2.296588,11,AutoTakeoff,
3700,2023-05-19 17:22:53,52.2056799280241,0.082270206491629,2.624672,2.624672,50.008370366672,52.633042366672,2.624672,0,0.109009846008,0.323682096972,24,5,16.698,52.633042366672,2.624672,0,0.166454729736,0,0,-1.11847,12.8, -2.3, 0,0,0,1024,1024,1024,1024,0,0,0,0,14.2,0,0,85,4.124,4.134,4.133,4.125,0,0,4.09,83.84,52.633042366672,2.624672,11,AutoTakeoff,
3900,2023-05-19 17:22:53,52.2056799806481,0.0822702777529239,2.952756,2.952756,50.008370366672,52.961126366672,2.952756,0,0.128192589404,0.34863190092,25,5,16.698,52.961126366672,2.952756,0,0.166454729736,0,0,-1.11847,12.7, -2.1, 0.4,0,0,1024,1024,1024,1024,0,0,0,0,14.2,0,0,85,4.124,4.134,4.133,4.125,0,0,4.09,83.84,52.961126366672,2.952756,11,AutoTakeoff,
4100,2023-05-19 17:22:54,52.2056801040178,0.0822703131974717,3.28084,3.28084,50.008370366672,53.289210366672,3.28084,0,0.173690622356,0.39433728296,26,5,16.535,53.289210366672,3.28084,0,0.173690622356,0,0,-1.11847,12.8, -1.7, 0.3,0,0,1024,1024,1024,1024,0,0,0,0,14.2,0,0,85,4.123,4.132,4.132,4.124,0,0,6.207,83.66,53.289210366672,3.28084,11,AutoTakeoff,
4300,2023-05-19 17:22:54,52.2056802074962,0.0822703526016599,3.608924,3.608924,50.008370366672,53.617294366672,3.608924,0,0.212164048784,0.4331036884,26,5,16.535,53.617294366672,3.608924,0,0.212164048784,0,0,-1.11847,12.8, -1.4, 0.1,0,0,1024,1024,1024,1024,0,0,0,0,14.2,0,0,85,4.123,4.132,4.132,4.124,0,0,6.207,83.66,53.617294366672,3.608924,11,AutoTakeoff,
4500,2023-05-19 17:22:54,52.2056802962537,0.0822703460960372,3.608924,3.608924,50.008370366672,53.617294366672,3.937008,0,0.244208997316,0.4655183876,26,5,16.535,53.617294366672,3.608924,0,0.244208997316,0,0,-0.447388,12.7, -1.5, 0.1,0,0,1024,1024,1024,1024,0,0,0,0,14.2,0,0,85,4.123,4.132,4.132,4.124,0,0,6.207,83.66,53.617294366672,3.608924,6,P-GPS,
4700,2023-05-19 17:22:54,52.2056803986425,0.0822703563690848,3.937008,3.937008,50.008370366672,53.945378366672,3.937008,0,0.281616478828,0.50294621032,26,5,16.535,53.945378366672,3.937008,0,0.281616478828,0,0,0,12.7, -1, 0.2,0,0,1024,1024,1024,1024,0,0,0,0,14.2,0,0,85,4.123,4.132,4.132,4.124,0,0,6.207,83.66,53.945378366672,3.937008,6,P-GPS,
4900,2023-05-19 17:22:54,52.2056805004888,0.0822704252958344,3.937008,3.937008,50.008370366672,53.945378366672,3.937008,0,0.320251322584,0.5431758704,26,5,16.535,53.945378366672,3.937008,0,0.320251322584,0,0,0,12.6, -1, 0.4,0,0,1024,1024,1024,1024,0,0,0,0,14.2,0,0,85,4.123,4.132,4.132,4.124,0,0,6.207,83.66,53.945378366672,3.937008,6,P-GPS,
5100,2023-05-19 17:22:55,52.2056806054675,0.0822704714363041,3.937008,3.937008,50.008370366672,53.945378366672,3.937008,0,0.35959974904,0.582841226,25,5,16.514,53.945378366672,3.937008,0,0.35959974904,0,0,0,12.6, -0.8, 0.1,0,0,1024,1024,1024,1024,0,0,0,0,14.2,0,0,85,4.121,4.131,4.131,4.123,0,0,7.262,83.66,53.945378366672,3.937008,6,P-GPS,
5300,2023-05-19 17:22:55,52.2056807144763,0.0822705188436489,3.937008,3.937008,50.008370366672,53.945378366672,3.937008,0,0.400508543,0.62400264464,25,5,16.514,53.945378366672,3.937008,0,0.400508543,0,0,0,12.7, -0.5, 0.2,0,0,1024,1024,1024,1024,0,0,0,0,14.2,0,0,85,4.121,4.131,4.131,4.123,0,0,7.262,83.66,53.945378366672,3.937008,6,P-GPS,
5500,2023-05-19 17:22:55,52.2056808181591,0.0822705941432178,3.937008,3.937008,50.008370366672,53.945378366672,3.937008,0,0.44062009284,0.66540684544,25,5,16.514,53.945378366672,3.937008,0,0.44062009284,0,0,0,12.6, -0.4, 0.1,0,0,1024,1024,1024,1024,0,0,0,0,14.2,0,0,85,4.121,4.131,4.131,4.123,0,0,7.262,83.66,53.945378366672,3.937008,6,P-GPS,
5700,2023-05-19 17:22:55,52.2056809064324,0.0822706429607259,3.937008,3.937008,50.008370366672,53.945378366672,3.937008,0,0.47428807292,0.69941275204,25,5,16.514,53.945378366672,3.937008,0,0.47428807292,0,0,0,12.7, -0.3, 0.3,0,0,1024,1024,1024,1024,0,0,0,0,14.2,0,0,85,4.121,4.131,4.131,4.123,0,0,7.262,83.66,53.945378366672,3.937008,6,P-GPS,
5900,2023-05-19 17:22:55,52.2056809680378,0.0822706733919426,3.937008,3.937008,50.008370366672,53.945378366672,3.937008,0,0.49765093456,0.72289700476,25,5,16.514,53.945378366672,3.937008,0,0.49765093456,0,0,0,12.6, -0.3, 0.1,0,0,1024,1024,1024,1024,0,0,0,0,14.2,0,0,85,4.121,4.131,4.131,4.123,0,0,7.262,83.66,53.945378366672,3.937008,6,P-GPS,
6100,2023-05-19 17:22:55,52.2056810024471,0.0822706808236949,3.937008,3.937008,50.008370366672,53.945378366672,3.937008,0,0.51029201108,0.73556104716,25,5,16.546,53.945378366672,3.937008,0,0.51029201108,0,0,0,12.6, -0.5, 0.2,0,0,1024,1024,1024,1024,0,0,0,0,14.2,0,0,85,4.121,4.128,4.13,4.121,0,0,6.762,83.66,53.945378366672,3.937008,6,P-GPS,
6300,2023-05-19 17:22:56,52.205680986633,0.0822706677303209,3.937008,3.937008,50.008370366672,53.945378366672,3.937008,0,0.5040682576,0.74203086364,25,5,16.546,53.945378366672,3.937008,0,0.51029201108,0,0,0,12.7, -0.9, 0.2,0,0,1024,1024,1024,1024,0,0,0,0,14.2,0,0,85,4.121,4.128,4.13,4.121,0,0,6.762,83.66,53.945378366672,3.937008,6,P-GPS,
6500,2023-05-19 17:22:56,52.2056809800808,0.0822706532896907,3.937008,3.937008,50.008370366672,53.945378366672,3.937008,0,0.5011155016,0.74604989264,25,5,16.546,53.945378366672,3.937008,0,0.51029201108,0,0,0,12.5, -1.5, 0,0,0,1024,1024,1024,1024,0,0,0,0,14.2,0,0,85,4.121,4.128,4.13,4.121,0,0,6.762,83.66,53.945378366672,3.937008,6,P-GPS,
6700,2023-05-19 17:22:56,52.205680993195,0.0822706260440099,3.937008,3.937008,50.008370366672,53.945378366672,3.937008,0,0.50474739148,0.75379595588,25,5,16.546,53.945378366672,3.937008,0,0.51029201108,0,0,0,12.5, -1.4, 0.1,0,0,1024,1024,1024,1024,0,0,0,0,14.2,0,0,85,4.121,4.128,4.13,4.121,0,0,6.762,83.66,53.945378366672,3.937008,6,P-GPS,
6900,2023-05-19 17:22:56,52.2056810280225,0.082270594485711,3.937008,3.937008,50.008370366672,53.945378366672,3.937008,0,0.51614502964,0.76833007708,25,5,16.546,53.945378366672,3.937008,0,0.51614502964,0,0,0,12.5, -1.3, 0.9,0,0,1024,1024,1024,1024,0,0,0,0,14.2,0,0,85,4.121,4.128,4.13,4.121,0,0,6.762,83.66,53.945378366672,3.937008,6,P-GPS,
7100,2023-05-19 17:22:56,52.2056810462272,0.0822706347950597,3.937008,3.937008,50.008370366672,53.945378366672,3.937008,0,0.5241469984,0.77952430316,25,5,16.5,53.945378366672,3.937008,0,0.5241469984,0,0,0,12.4, -1.3, 0.3,0,0,1101,1024,1024,1024,12,0,0,0,14.2,0,0,85,4.117,4.125,4.125,4.118,0,0,6.978,83.84,53.945378366672,3.937008,6,P-GPS,
7300,2023-05-19 17:22:57,52.2056810721663,0.0822706232953275,3.937008,3.937008,50.008370366672,53.945378366672,3.937008,0,0.53306104068,0.78933073392,25,5,16.5,53.945378366672,3.937008,0,0.53306104068,0,0,0,12.6, -0.2, 0.4,0,0,1049,1024,1024,1024,4,0,0,0,14.2,0,0,85,4.117,4.125,4.125,4.118,0,0,6.978,83.84,53.945378366672,3.937008,6,P-GPS,
7500,2023-05-19 17:22:57,52.20568104295,0.0822705892766695,3.937008,3.937008,50.008370366672,53.945378366672,3.937008,0,0.52135172272,0.8024278472,25,5,16.5,53.945378366672,3.937008,0,0.53306104068,0,0,0,12.6, -1, 0.3,0,0,1030,1024,1024,1024,1,0,0,0,14.2,0,0,85,4.117,4.125,4.125,4.118,0,0,6.978,83.84,53.945378366672,3.937008,6,P-GPS,
7700,2023-05-19 17:22:57,52.2056809855287,0.0822705378153239,3.937008,3.937008,50.008370366672,53.945378366672,3.937008,0,0.49898951728,0.8263287666,25,5,16.5,53.945378366672,3.937008,0,0.53306104068,0,0,0,12.6, -1.1, 0.6,0,0,1024,1024,1024,1024,0,0,0,0,14.2,0,0,85,4.117,4.125,4.125,4.118,0,0,6.978,83.84,53.945378366672,3.937008,6,P-GPS,
7900,2023-05-19 17:22:57,52.2056809198908,0.0822704636131311,3.937008,3.937008,50.008370366672,53.945378366672,3.937008,0,0.47323492328,0.8554626258,25,5,16.5,53.945378366672,3.937008,0,0.53306104068,0,0,0,12.6, -1.5, 1.1,0,0,1024,1024,1024,1024,0,0,0,0,14.2,0,0,85,4.117,4.125,4.125,4.118,0,0,6.978,83.84,53.945378366672,3.937008,6,P-GPS,
8100,2023-05-19 17:22:57,52.2056808652677,0.0822704643522872,3.937008,3.937008,50.008370366672,53.945378366672,3.937008,0,0.45343833472,0.8753937288,25,5,16.493,53.945378366672,3.937008,0,0.53306104068,0,0,0,12.7, -1.8, 0.6,0,0,1310,1024,1024,1024,43,0,0,0,14.2,0,0,85,4.111,4.123,4.117,4.118,0,0,6.932,83.84,53.945378366672,3.937008,6,P-GPS,
8300,2023-05-19 17:22:58,52.2056808259421,0.082270497560145,3.937008,3.937008,50.008370366672,53.945378366672,3.937008,0,0.44008531592,0.89154858496,25,5,16.493,53.945378366672,3.937008,0,0.53306104068,0,0,0,12.4, -0.9, 0,0,0,1057,1024,1024,1024,5,0,0,0,14.2,0,0,85,4.111,4.123,4.117,4.118,0,0,6.932,83.84,53.945378366672,3.937008,6,P-GPS,
8500,2023-05-19 17:22:58,52.2056808030146,0.0822704839477891,3.937008,3.937008,50.008370366672,53.945378366672,3.937008,0,0.43140093244,0.90044950388,25,5,16.493,53.945378366672,3.937008,0,0.53306104068,0,0,0,12.5, -2.5, 0,0,0,1024,1024,1024,1024,0,0,0,0,14.2,0,0,85,4.111,4.123,4.117,4.118,0,0,6.932,83.84,53.945378366672,3.937008,6,P-GPS,
8700,2023-05-19 17:22:58,52.2056808455114,0.082270413748922,3.937008,3.937008,50.008370366672,53.945378366672,3.937008,0,0.44515093288,0.92251315288,25,5,16.493,53.945378366672,3.937008,0,0.53306104068,0,0,0,12.7, 0, 0.8,0,0,1024,1024,1024,1024,0,0,0,0,14.2,0,0,85,4.111,4.123,4.117,4.118,0,0,6.932,83.84,53.945378366672,3.937008,6,P-GPS,
8900,2023-05-19 17:22:58,52.2056808210003,0.0822703233761589,3.937008,3.937008,50.008370366672,53.945378366672,3.937008,0,0.43492127376,0.94460961028,25,5,16.493,53.945378366672,3.937008,0,0.53306104068,0,0,0,12.6, -0.8, 1,0,0,1024,1024,1043,1024,0,0,3,0,14.2,0,0,85,4.111,4.123,4.117,4.118,0,0,6.932,83.84,53.945378366672,3.937008,6,P-GPS,
9100,2023-05-19 17:22:58,52.2056807597025,0.082270297475987,3.937008,3.937008,50.008370366672,53.945378366672,3.937008,0,0.41236221792,0.96771000472,25,5,16.478,53.945378366672,3.937008,0,0.53306104068,0,0,0,12.7, -1.2, 0.6,0,0,1024,1024,1267,1024,0,0,37,0,14.2,0,0,85,4.114,4.119,4.121,4.111,0,0,6.981,83.84,53.945378366672,3.937008,6,P-GPS,
9300,2023-05-19 17:22:59,52.205680714011,0.0822702895392321,4.265092,4.265092,50.008370366672,54.273462366672,3.937008,0,0.39564633812,0.98447509712,25,5,16.478,54.273462366672,4.265092,0,0.53306104068,0,0,-0.223694,12.6, -1.1, 0.1,0,0,1024,1024,1071,1024,0,0,7,0,14.2,0,0,85,4.114,4.119,4.121,4.111,0,0,6.981,83.84,54.273462366672,4.265092,6,P-GPS,
9500,2023-05-19 17:22:59,52.2056806685918,0.0822702739278344,4.265092,4.265092,50.008370366672,54.273462366672,4.265092,0,0.37899935596,1.0014107932,24,5,16.478,54.273462366672,4.265092,0,0.53306104068,0,0,-1.11847,12.5, -1.7, 0.6,0,0,1024,1024,1024,1024,0,0,0,0,14.2,0,0,85,4.114,4.119,4.121,4.111,0,0,6.981,83.84,54.273462366672,4.265092,6,P-GPS,
9700,2023-05-19 17:22:59,52.2056806367613,0.0822702344188013,4.593176,4.593176,50.008370366672,54.601546366672,4.265092,0,0.36731956556,1.01600068868,25,5,16.478,54.601546366672,4.593176,0,0.53306104068,0,0,-0.447388,12.5, -2, 0.1,0,0,1024,1024,1195,1024,0,0,26,0,14.2,0,0,85,4.114,4.119,4.121,4.111,0,0,6.981,83.84,54.601546366672,4.593176,6,P-GPS,
9900,2023-05-19 17:22:59,52.2056806518545,0.0822702204709419,4.593176,4.593176,50.008370366672,54.601546366672,4.593176,0,0.3728510618,1.02232942904,25,5,16.478,54.601546366672,4.593176,0,0.53306104068,0,0,0,12.6, -1, 0.3,0,0,1024,1024,1420,1024,0,0,60,0,14.2,0,0,85,4.114,4.119,4.121,4.111,0,0,6.981,83.84,54.601546366672,4.593176,6,P-GPS,
10100,2023-05-19 17:23:00,52.2056806818068,0.0822701594879368,4.92126,4.92126,50.008370366672,54.929630366672,4.593176,0,0.384186364,1.03980318288,25,5,16.474,54.929630366672,4.92126,0,0.53306104068,0,0,-0.894776,12.8, -0.2, 0.4,0,0,1024,1024,1172,1024,0,0,22,0,14.2,0,0,85,4.115,4.123,4.122,4.112,0,0,6.981,83.84,54.929630366672,4.92126,6,P-GPS,
10300,2023-05-19 17:23:00,52.2056806317504,0.0822701259812712,5.577428,5.577428,50.008370366672,55.585798366672,5.249344,0,0.36639436868,1.05954399716,25,5,16.474,55.585798366672,5.577428,0,0.53306104068,0,0,-2.684328,12.6, -1.6, 0.3,0,0,1024,1024,1024,1024,0,0,0,0,14.2,0,0,85,4.115,4.123,4.122,4.112,0,0,6.981,83.84,55.585798366672,5.577428,6,P-GPS,
10500,2023-05-19 17:23:00,52.2056805999659,0.0822700708555982,6.233596,6.233596,50.008370366672,56.241966366672,5.905512,0,0.35593505076,1.07646656988,25,5,16.474,56.241966366672,6.233596,0,0.53306104068,0,0,-1.565858,12.4, -2.8, 0.1,0,0,1024,1024,1024,1024,0,0,0,0,14.2,0,0,85,4.115,4.123,4.122,4.112,0,0,6.981,83.84,56.241966366672,6.233596,6,P-GPS,
10700,2023-05-19 17:23:00,52.2056806110944,0.0822700692706936,6.233596,6.233596,50.008370366672,56.241966366672,6.233596,0,0.36000985404,1.08054137316,25,5,16.474,56.241966366672,6.233596,0,0.53306104068,0,0,-0.223694,12.6, -1.2, 0.1,0,0,1024,1024,1024,1024,0,0,0,0,14.2,0,0,85,4.115,4.123,4.122,4.112,0,0,6.981,83.84,56.241966366672,6.233596,6,P-GPS,
10900,2023-05-19 17:23:00,52.205680654558,0.0822700813662941,6.56168,6.56168,50.008370366672,56.570050366672,6.233596,0,0.37551182304,1.09663061252,25,5,16.474,56.570050366672,6.56168,0,0.53306104068,0,0,0,12.5, -0.6, 0,0,0,1024,1024,1024,1024,0,0,0,0,14.2,0,0,85,4.115,4.123,4.122,4.112,0,0,6.981,83.84,56.570050366672,6.56168,6,P-GPS,
11100,2023-05-19 17:23:01,52.2056807261658,0.082270071652419,6.56168,6.56168,50.008370366672,56.570050366672,6.233596,0,0.40172901548,1.12284452412,25,5,16.405,56.570050366672,6.56168,0,0.53306104068,0,0,0,12.6, -0.5, -0.3,0,0,1024,1024,1024,1024,0,0,0,0,14.2,0,0,85,4.111,4.121,4.119,4.111,0,0,7.491,84.02,56.570050366672,6.56168,6,P-GPS,
11300,2023-05-19 17:23:01,52.2056807838491,0.0822699991050273,6.56168,6.56168,50.008370366672,56.570050366672,6.233596,0,0.42444555164,1.14941604728,25,5,16.405,56.570050366672,6.56168,0,0.53306104068,0,0,0,12.5, -0.6, 0.3,0,0,1024,1024,1024,1024,0,0,0,0,14.2,0,0,85,4.111,4.121,4.119,4.111,0,0,7.491,84.02,56.570050366672,6.56168,6,P-GPS,
11500,2023-05-19 17:23:01,52.2056808437624,0.0822699077065322,6.56168,6.56168,50.008370366672,56.570050366672,6.233596,0,0.44907481752,1.17934058892,25,5,16.405,56.570050366672,6.56168,0,0.53306104068,0,0,0,12.5, -0.9, 0.4,0,0,1024,1024,1024,1024,0,0,0,0,14.2,0,0,85,4.111,4.121,4.119,4.111,0,0,7.491,84.02,56.570050366672,6.56168,6,P-GPS,
11700,2023-05-19 17:23:01,52.205680891243,0.0822698640159372,6.56168,6.56168,50.008370366672,56.570050366672,6.233596,0,0.46782809896,1.199229041,25,5,16.405,56.570050366672,6.56168,0,0.53306104068,0,0,0,12.5, -0.6, 0.4,0,0,1024,1024,1024,1024,0,0,0,0,14.2,0,0,85,4.111,4.121,4.119,4.111,0,0,7.491,84.02,56.570050366672,6.56168,6,P-GPS,
11900,2023-05-19 17:23:01,52.205680927064,0.0822698730360888,6.56168,6.56168,50.008370366672,56.570050366672,6.233596,0,0.48033794188,1.21245410704,25,5,16.405,56.570050366672,6.56168,0,0.53306104068,0,0,0,12.4, -0.6, 0.4,0,0,1024,1024,1024,1024,0,0,0,0,14.2,0,0,85,4.111,4.121,4.119,4.111,0,0,7.491,84.02,56.570050366672,6.56168,6,P-GPS,
12100,2023-05-19 17:23:02,52.2056809735091,0.0822698907461308,6.56168,6.56168,50.008370366672,56.570050366672,6.233596,0,0.49640093452,1.2298556824,25,5,16.537,56.570050366672,6.56168,0,0.53306104068,0,0,0,12.5, -0.5, 0.2,0,0,1024,1024,1024,1024,0,0,0,0,14.2,0,0,85,4.105,4.116,4.115,4.107,0,0,7.355,83.84,56.570050366672,6.56168,6,P-GPS,
12300,2023-05-19 17:23:02,52.2056809974995,0.0822699355463338,6.56168,6.56168,50.008370366672,56.570050366672,6.233596,0,0.50358925496,1.24315620776,25,5,16.537,56.570050366672,6.56168,0,0.53306104068,0,0,0,12.4, -0.6, 0.2,0,0,1024,1024,1024,1024,0,0,0,0,14.2,0,0,85,4.105,4.116,4.115,4.107,0,0,7.355,83.84,56.570050366672,6.56168,6,P-GPS,
12500,2023-05-19 17:23:02,52.2056810082096,0.0822699391617336,6.56168,6.56168,50.008370366672,56.570050366672,6.233596,0,0.50735237844,1.24714899004,25,5,16.537,56.570050366672,6.56168,0,0.53306104068,0,0,0,12.4, -1, 0.1,0,0,1024,1024,1024,1024,0,0,0,0,14.2,0,0,85,4.105,4.116,4.115,4.107,0,0,7.355,83.84,56.570050366672,6.56168,6,P-GPS,
12700,2023-05-19 17:23:02,52.2056810264439,0.0822699229212669,6.56168,6.56168,50.008370366672,56.570050366672,6.233596,0,0.51443899284,1.25472773044,25,5,16.537,56.570050366672,6.56168,0,0.53306104068,0,0,0,12.6, -0.7, 0.2,0,0,1024,1024,1024,1024,0,0,0,0,14.2,0,0,85,4.105,4.116,4.115,4.107,0,0,7.355,83.84,56.570050366672,6.56168,6,P-GPS,
12900,2023-05-19 17:23:02,52.20568105545,0.0822698949504092,6.56168,6.56168,50.008370366672,56.570050366672,6.233596,0,0.5258038226,1.26702103792,25,5,16.537,56.570050366672,6.56168,0,0.53306104068,0,0,0,12.5, -0.9, 0.8,0,0,1024,1024,1299,1024,0,0,42,0,14.2,0,0,85,4.105,4.116,4.115,4.107,0,0,7.355,83.84,56.570050366672,6.56168,6,P-GPS,
13100,2023-05-19 17:23:02,52.2056811131444,0.0822698971766148,6.56168,6.56168,50.008370366672,56.570050366672,6.233596,0,0.54656497812,1.2880741882,25,5,16.448,56.570050366672,6.56168,0,0.54656497812,0,0,-0.223694,12.5, -0.8, 0.5,0,0,1024,1024,1024,1024,0,0,0,0,14.2,0,0,85,4.103,4.115,4.111,4.104,0,0,6.978,84.02,56.570050366672,6.56168,6,P-GPS,
13300,2023-05-19 17:23:03,52.2056811561826,0.0822699228234117,6.889764,6.889764,50.008370366672,56.898134366672,6.56168,0,0.56135828568,1.30479334884,25,5,16.448,56.898134366672,6.889764,0,0.56135828568,0,0,-1.11847,12.5, -1.3, 0.2,0,0,1024,1024,1024,1024,0,0,0,0,14.2,0,0,85,4.103,4.115,4.111,4.104,0,0,6.978,84.02,56.898134366672,6.889764,6,P-GPS,
13500,2023-05-19 17:23:03,52.205681196405,0.0822699451990494,6.889764,6.889764,50.008370366672,56.898134366672,6.56168,0,0.57532154072,1.32029531784,25,5,16.448,56.898134366672,6.889764,0,0.57532154072,0,0,-0.223694,12.6, -1.1, 0.2,0,0,1024,1024,1231,1024,0,0,31,0,14.2,0,0,85,4.103,4.115,4.111,4.104,0,0,6.978,84.02,56.898134366672,6.889764,6,P-GPS,
13700,2023-05-19 17:23:03,52.2056812456031,0.0822699355760399,7.217848,7.217848,50.008370366672,57.226218366672,6.56168,0,0.59339896912,1.33837602708,25,5,16.448,57.226218366672,7.217848,0,0.59339896912,0,0,0,12.6, -0.5, 0.5,0,0,1024,1024,1125,1024,0,0,15,0,14.2,0,0,85,4.103,4.115,4.111,4.104,0,0,6.978,84.02,57.226218366672,7.217848,6,P-GPS,
13900,2023-05-19 17:23:03,52.2056812704948,0.0822699780504347,7.217848,7.217848,50.008370366672,57.226218366672,6.889764,0,0.60141734208,1.35151579128,25,5,16.448,57.226218366672,7.217848,0,0.60141734208,0,0,-0.894776,12.6, -0.3, 0.3,0,0,1024,1024,1024,1024,0,0,0,0,14.2,0,0,85,4.103,4.115,4.111,4.104,0,0,6.978,84.02,57.226218366672,7.217848,6,P-GPS,
14100,2023-05-19 17:23:03,52.2056812675848,0.0822700231861412,7.545932,7.545932,50.008370366672,57.554302366672,7.217848,0,0.59945539976,1.3616634294,25,5,16.44,57.554302366672,7.545932,0,0.60141734208,0,0,-0.671082,12.6, -1.4, -0.2,0,0,1024,1024,1024,1024,0,0,0,0,14.2,0,0,85,4.066,4.085,4.101,4.115,0,0,7.106,84.2,57.554302366672,7.545932,6,P-GPS,
14300,2023-05-19 17:23:04,52.205681285204,0.0822700816126795,7.545932,7.545932,50.008370366672,57.554302366672,7.217848,0,0.6049540876,1.37622379732,25,5,16.44,57.554302366672,7.545932,0,0.6049540876,0,0,0,12.5, -0.3, -0.4,0,0,1024,1024,1024,1024,0,0,0,0,14.2,0,0,85,4.066,4.085,4.101,4.115,0,0,7.106,84.2,57.554302366672,7.545932,6,P-GPS,
14500,2023-05-19 17:23:04,52.2056813007275,0.0822701637481324,7.545932,7.545932,50.008370366672,57.554302366672,7.217848,0,0.6098097308,1.3954396772,25,5,16.44,57.554302366672,7.545932,0,0.6098097308,0,0,0,12.6, -0.3, -0.3,0,0,1024,1024,1024,1024,0,0,0,0,14.2,0,0,85,4.066,4.085,4.101,4.115,0,0,7.106,84.2,57.554302366672,7.545932,6,P-GPS,
14700,2023-05-19 17:23:04,52.2056813036114,0.0822701112785288,7.545932,7.545932,50.008370366672,57.554302366672,7.217848,0,0.61130579384,1.4072178928,25,5,16.44,57.554302366672,7.545932,0,0.61130579384,0,0,0,12.6, -0.4, 0,0,0,1024,1024,1159,1024,0,0,20,0,14.2,0,0,85,4.066,4.085,4.101,4.115,0,0,7.106,84.2,57.554302366672,7.545932,6,P-GPS,
14900,2023-05-19 17:23:04,52.2056812931975,0.0822700564691378,7.545932,7.545932,50.008370366672,57.554302366672,7.217848,0,0.6082185234,1.42004925804,25,5,16.44,57.554302366672,7.545932,0,0.61130579384,0,0,0,12.6, -0.3, 0.2,0,0,1024,1024,1305,1024,0,0,43,0,14.2,0,0,85,4.066,4.085,4.101,4.115,0,0,7.106,84.2,57.554302366672,7.545932,6,P-GPS,
15100,2023-05-19 17:23:04,52.2056812595163,0.0822700153350096,7.874016,7.874016,50.008370366672,57.882386366672,7.545932,0,0.5966699666,1.4354003084,25,5,16.428,57.882386366672,7.874016,0,0.61130579384,0,0,-1.789552,12.7, -0.4, 0.6,0,0,1024,1024,1024,1024,0,0,0,0,14.2,0,0,85,4.09,4.099,4.082,4.06,0,0,7.378,84.38,57.882386366672,7.874016,6,P-GPS,
15300,2023-05-19 17:23:05,52.2056811780055,0.0822700198450854,8.530184,8.530184,50.008370366672,58.538554366672,8.2021,0,0.56695211788,1.46515424636,25,5,16.428,58.538554366672,8.530184,0,0.61130579384,0,0,-1.789552,12.6, -1.6, 0,0,0,1024,1024,1024,1024,0,0,0,0,14.2,0,0,85,4.09,4.099,4.082,4.06,0,0,7.378,84.38,58.538554366672,8.530184,6,P-GPS,
15500,2023-05-19 17:23:05,52.2056811343427,0.0822700619140802,8.858268,8.858268,50.008370366672,58.866638366672,8.530184,0,0.55031825908,1.48365490312,25,5,16.428,58.866638366672,8.858268,0,0.61130579384,0,0,-0.447388,12.6, -0.3, 0,0,0,1024,1024,1024,1024,0,0,0,0,14.2,0,0,85,4.09,4.099,4.082,4.06,0,0,7.378,84.38,58.866638366672,8.858268,6,P-GPS,
15700,2023-05-19 17:23:05,52.2056811028514,0.0822700817699467,8.858268,8.858268,50.008370366672,58.866638366672,8.530184,0,0.538549886,1.49597117648,26,5,16.428,58.866638366672,8.858268,0,0.61130579384,0,0,0,12.7, 0, 0,0,0,1024,1024,1024,1024,0,0,0,0,14.2,0,0,85,4.09,4.099,4.082,4.06,0,0,7.378,84.38,58.866638366672,8.858268,6,P-GPS,
15900,2023-05-19 17:23:05,52.2056810296038,0.0822700852001206,8.858268,8.858268,50.008370366672,58.866638366672,8.530184,0,0.51183400588,1.52270674164,26,5,16.428,58.866638366672,8.858268,0,0.61130579384,0,0,0,12.7, -0.3, -0.3,0,0,1024,1024,1024,1024,0,0,0,0,14.2,0,0,85,4.09,4.099,4.082,4.06,0,0,7.378,84.38,58.866638366672,8.858268,6,P-GPS,
16100,2023-05-19 17:23:05,52.2056809551136,0.0822701380821139,8.858268,8.858268,50.008370366672,58.866638366672,8.530184,0,0.48401576352,1.5523458502,26,5,16.429,58.866638366672,8.858268,0,0.61130579384,0,0,0,12.7, -0.5, 0,0,0,1024,1024,1082,1024,0,0,9,0,14.2,0,0,85,4.1,4.11,4.106,4.1,0,0,7.223,84.38,58.866638366672,8.858268,6,P-GPS,
16300,2023-05-19 17:23:06,52.2056808589832,0.0822701918780048,8.858268,8.858268,50.008370366672,58.866638366672,8.530184,0,0.44852691724,1.58942590388,26,5,16.429,58.866638366672,8.858268,0,0.61130579384,0,0,0,12.6, -0.5, 0,0,0,1024,1024,1366,1024,0,0,52,0,14.2,0,0,85,4.1,4.11,4.106,4.1,0,0,7.223,84.38,58.866638366672,8.858268,6,P-GPS,
16500,2023-05-19 17:23:06,52.2056807755219,0.082270243886291,8.858268,8.858268,50.008370366672,58.866638366672,8.530184,0,0.41794292676,1.62202104928,26,5,16.429,58.866638366672,8.858268,0,0.61130579384,0,0,-0.223694,12.6, -0.4, 0.1,0,0,1024,1024,1322,1024,0,0,45,0,14.2,0,0,85,4.1,4.11,4.106,4.1,0,0,7.223,84.38,58.866638366672,8.858268,6,P-GPS,
16700,2023-05-19 17:23:06,52.2056806895358,0.0822703074362474,9.186352,9.186352,50.008370366672,59.194722366672,8.858268,0,0.38685368692,1.65646002676,26,5,16.429,59.194722366672,9.186352,0,0.61130579384,0,0,-2.013246,12.6, -0.8, -0.3,0,0,1024,1024,1256,1024,0,0,35,0,14.2,0,0,85,4.1,4.11,4.106,4.1,0,0,7.223,84.38,59.194722366672,9.186352,6,P-GPS,
16900,2023-05-19 17:23:06,52.205680617083,0.082270368104718,10.170604,10.170604,50.008370366672,60.178974366672,9.514436,0,0.36125001156,1.6861713138,26,5,16.429,60.178974366672,10.170604,0,0.61130579384,0,0,-2.23694,12.6, -1.6, -0.4,0,0,1024,1024,1024,1024,0,0,0,0,14.2,0,0,85,4.1,4.11,4.106,4.1,0,0,7.223,84.38,60.178974366672,10.170604,6,P-GPS,
17100,2023-05-19 17:23:07,52.2056805644472,0.082270442873073,10.498688,10.498688,50.008370366672,60.507058366672,9.84252,0,0.3438976488,1.71163391304,26,5,16.44,60.507058366672,10.498688,0,0.61130579384,0,0,-0.671082,12.6, -1.4, -0.5,0,0,1024,1024,1024,1024,0,0,0,0,14.2,0,0,85,4.101,4.128,4.134,4.127,0,0,7.572,84.38,60.507058366672,10.498688,6,P-GPS,
17300,2023-05-19 17:23:07,52.205680540618,0.0822704983412391,10.498688,10.498688,50.008370366672,60.507058366672,10.170604,0,0.33717520764,1.72677827048,26,5,16.44,60.507058366672,10.498688,0,0.61130579384,0,0,0,12.6, -0.5, -0.6,0,0,1024,1024,1024,1024,0,0,0,0,14.2,0,0,85,4.101,4.128,4.134,4.127,0,0,7.572,84.38,60.507058366672,10.498688,6,P-GPS,
17500,2023-05-19 17:23:07,52.2056805698793,0.0822705524044844,10.498688,10.498688,50.008370366672,60.507058366672,9.84252,0,0.349901586,1.74290687992,26,5,16.44,60.507058366672,10.498688,0,0.61130579384,0,0,0,12.6, -0.2, -0.4,0,0,1024,1024,1024,1024,0,0,0,0,14.2,0,0,85,4.101,4.128,4.134,4.127,0,0,7.572,84.38,60.507058366672,10.498688,6,P-GPS,
17700,2023-05-19 17:23:07,52.2056805945223,0.082270518190116,10.498688,10.498688,50.008370366672,60.507058366672,10.170604,0,0.35730972272,1.75471134224,26,5,16.44,60.507058366672,10.498688,0,0.61130579384,0,0,0,12.6, -0.5, 0.2,0,0,1024,1024,1344,1024,0,0,48,0,14.2,0,0,85,4.101,4.128,4.134,4.127,0,0,7.572,84.38,60.507058366672,10.498688,6,P-GPS,
17900,2023-05-19 17:23:07,52.2056806067802,0.0822705101065784,10.498688,10.498688,50.008370366672,60.507058366672,10.170604,0,0.36141077272,1.75953417704,26,5,16.44,60.507058366672,10.498688,0,0.61130579384,0,0,0,12.6, -0.4, 0.3,0,0,1024,1024,1510,1024,0,0,74,0,14.2,0,0,85,4.101,4.128,4.134,4.127,0,0,7.572,84.38,60.507058366672,10.498688,6,P-GPS,
18100,2023-05-19 17:23:08,52.2056805922774,0.0822705320488574,10.826772,10.826772,50.008370366672,60.835142366672,10.170604,0,0.35705709804,1.76675202504,26,5,16.375,60.835142366672,10.826772,0,0.61130579384,0,0,-1.565858,12.6, 0, 0.5,0,0,1024,1024,1516,1024,0,0,75,0,14.2,0,0,85,4.094,4.092,4.07,4.054,0,0,7.836,84.38,60.835142366672,10.826772,6,P-GPS,
18300,2023-05-19 17:23:08,52.205680538052,0.0822705770989406,11.48294,11.48294,50.008370366672,61.491310366672,11.154856,0,0.33970473528,1.78895018848,26,5,16.375,61.491310366672,11.48294,0,0.61130579384,0,0,-3.802798,12.6, -1, 0.4,0,0,1024,1024,1524,1024,0,0,76,0,14.2,0,0,85,4.094,4.092,4.07,4.054,0,0,7.836,84.38,61.491310366672,11.48294,6,P-GPS,
18500,2023-05-19 17:23:08,52.2056804665563,0.0822706802662698,13.12336,13.12336,50.008370366672,63.131730366672,12.467192,0,0.320612871152,1.82377302424,26,5,16.375,63.131730366672,13.12336,0,0.61130579384,0,0,-6.039738,12.8, -1.1, -0.9,0,0,1024,1024,1458,1024,0,0,66,0,14.2,0,0,85,4.094,4.092,4.07,4.054,0,0,7.836,84.38,63.131730366672,13.12336,6,P-GPS,
18700,2023-05-19 17:23:08,52.2056803955275,0.082270640294172,15.091864,15.091864,50.008370366672,65.100234366672,14.435696,0,0.29320703038,1.85118444244,26,5,16.375,65.100234366672,15.091864,0,0.61130579384,0,0,-7.158208,12.4, -1.5, 0,0,0,1024,1024,1327,1024,0,0,46,0,14.2,0,0,85,4.094,4.092,4.07,4.054,0,0,7.836,84.38,65.100234366672,15.091864,6,P-GPS,
18900,2023-05-19 17:23:08,52.2056802978432,0.0822706236465577,17.060368,17.060368,50.008370366672,67.068738366672,16.732284,0,0.258227698552,1.88702105776,26,5,16.375,67.068738366672,17.060368,0,0.61130579384,0,0,-5.816044,12.6, -3.9, 0.1,0,0,1024,1024,1440,1024,0,0,63,0,14.2,0,0,85,4.094,4.092,4.07,4.054,0,0,7.836,84.38,67.068738366672,17.060368,6,P-GPS,
19100,2023-05-19 17:23:09,52.2056802042116,0.0822706645570169,18.372704,18.372704,50.008370366672,68.381074366672,18.04462,0,0.229888786884,1.92238523212,26,5,16.421,68.381074366672,18.372704,0,0.61130579384,0,0,-4.026492,12.9, -3.5, -0.2,0,0,1024,1024,1302,1024,0,0,42,0,14.2,0,0,84,4.064,4.079,4.081,4.086,0,0,6.639,84.56,68.381074366672,18.372704,6,P-GPS,
19300,2023-05-19 17:23:09,52.2056801393023,0.0822707950783666,19.68504,19.68504,50.008370366672,69.693410366672,19.356956,0,0.223300203996,1.95996725432,26,5,16.421,69.693410366672,19.68504,0,0.61130579384,0,0,-4.47388,13, -1.9, -1.4,0,0,1024,1024,1024,1024,0,0,0,0,14.2,0,0,84,4.064,4.079,4.081,4.086,0,0,6.639,84.56,69.693410366672,19.68504,6,P-GPS,
19500,2023-05-19 17:23:09,52.2056801160637,0.0822709325456874,20.997376,20.997376,50.008370366672,71.005746366672,20.669292,0,0.235246726688,1.99185373828,26,5,16.421,71.005746366672,20.997376,0,0.61130579384,0,0,-2.908022,12.9, -3.5, -2.5,0,0,1024,1024,1024,1024,0,0,0,0,14.2,0,0,84,4.064,4.079,4.081,4.086,0,0,6.639,84.56,71.005746366672,20.997376,6,P-GPS,
19700,2023-05-19 17:23:09,52.2056800819529,0.082271048795906,21.32546,21.32546,50.008370366672,71.333830366672,20.997376,0,0.244525598376,2.020669356,26,5,16.421,71.333830366672,21.32546,0,0.61130579384,0,0,-0.894776,13.1, -3.5, -2,0,0,1024,1024,1024,1024,0,0,0,0,14.2,0,0,84,4.064,4.079,4.081,4.086,0,0,6.639,84.56,71.333830366672,21.32546,6,P-GPS,
19900,2023-05-19 17:23:09,52.2056800948447,0.0822711715849482,21.653544,21.653544,50.008370366672,71.661914366672,21.32546,0,0.268392068956,2.0485236876,26,5,16.421,71.661914366672,21.653544,0,0.61130579384,0,0,0,13.2, -1.7, -1.8,0,0,1024,1024,1024,1024,0,0,0,0,14.2,0,0,84,4.064,4.079,4.081,4.086,0,0,6.639,84.56,71.661914366672,21.653544,6,P-GPS,
20100,2023-05-19 17:23:10,52.2056801718506,0.0822712156652166,21.653544,21.653544,50.008370366672,71.661914366672,21.32546,0,0.294195875556,2.07830059144,26,5,16.15,71.661914366672,21.653544,0,0.61130579384,0,0,0,13.1, -1.8, -1.7,0,0,1024,1024,1024,1024,0,0,0,0,14.2,0,0,84,4.12,4.118,4.115,4.106,0,0,11.288,84.38,71.661914366672,21.653544,6,P-GPS,
20300,2023-05-19 17:23:10,52.2056802223936,0.0822711955315112,21.653544,21.653544,50.008370366672,71.661914366672,21.32546,0,0.303711951976,2.09728025084,26,5,16.15,71.661914366672,21.653544,0,0.61130579384,0,0,0,13.1, -1.6, -2.2,0,0,1024,1024,1024,1024,0,0,0,0,14.2,0,0,84,4.12,4.118,4.115,4.106,0,0,11.288,84.38,71.661914366672,21.653544,6,P-GPS,
20500,2023-05-19 17:23:10,52.2056802794684,0.0822710816804922,21.653544,21.653544,50.008370366672,71.661914366672,21.32546,0,0.302424878444,2.13017067184,26,5,16.15,71.661914366672,21.653544,0,0.61130579384,0,0,0,13.2, -2.3, -0.8,0,0,1024,1024,1024,1024,0,0,0,0,14.2,0,0,84,4.12,4.118,4.115,4.106,0,0,11.288,84.38,71.661914366672,21.653544,6,P-GPS,
20700,2023-05-19 17:23:10,52.205680372839,0.0822710229953366,21.32546,21.32546,50.008370366672,71.333830366672,21.32546,0,0.322500338404,2.16667657852,26,5,16.15,71.661914366672,21.653544,0,0.61130579384,0,0,0,13.1, -1.8, -1,0,0,1024,1024,1024,1024,0,0,0,0,14.2,0,0,84,4.12,4.118,4.115,4.106,0,0,11.288,84.38,71.333830366672,21.32546,6,P-GPS,
20900,2023-05-19 17:23:10,52.2056804556392,0.0822709648151838,21.32546,21.32546,50.008370366672,71.333830366672,21.32546,0,0.3419291448,2.19956699952,26,5,16.15,71.661914366672,21.653544,0,0.61130579384,0,0,0,13.2, -1.6, -1,0,0,1024,1024,1024,1024,0,0,0,0,14.2,0,0,84,4.12,4.118,4.115,4.106,0,0,11.288,84.38,71.333830366672,21.32546,6,P-GPS,
21100,2023-05-19 17:23:10,52.2056805409031,0.0822708975816784,21.32546,21.32546,50.008370366672,71.333830366672,21.32546,0,0.36330053656,2.23411752556,26,5,16.48,71.661914366672,21.653544,0,0.61130579384,0,0,0,13.1, -1.7, -1.2,0,0,1024,1024,1024,1024,0,0,0,0,14.2,0,0,84,4.097,4.102,4.102,4.094,0,0,5.789,84.74,71.333830366672,21.32546,6,P-GPS,
21300,2023-05-19 17:23:11,52.2056805983567,0.0822707750390215,21.32546,21.32546,50.008370366672,71.333830366672,21.32546,0,0.37291995944,2.26861555816,26,5,16.48,71.661914366672,21.653544,0,0.61130579384,0,0,0,13.2, -1.1, -0.7,0,0,1024,1024,1024,1024,0,0,0,0,14.2,0,0,84,4.097,4.102,4.102,4.094,0,0,5.789,84.74,71.333830366672,21.32546,6,P-GPS,
21500,2023-05-19 17:23:11,52.2056806371619,0.0822706610936421,21.32546,21.32546,50.008370366672,71.333830366672,21.32546,0,0.37926182316,2.29776254072,26,5,16.48,71.661914366672,21.653544,0,0.61130579384,0,0,0,13, -1.5, 0,0,0,1024,1024,1024,1083,0,0,0,9,14.2,0,0,84,4.097,4.102,4.102,4.094,0,0,5.789,84.74,71.333830366672,21.32546,6,P-GPS,
21700,2023-05-19 17:23:11,52.2056806485064,0.0822705990883998,21.32546,21.32546,50.008370366672,71.333830366672,21.32546,0,0.3801181224,2.31223104512,26,5,16.48,71.661914366672,21.653544,0,0.61130579384,0,0,0,13.3, -1.4, -0.2,0,0,1024,1024,1024,1242,0,0,0,33,14.3,0,0,84,4.097,4.102,4.102,4.094,0,0,5.789,84.74,71.333830366672,21.32546,6,P-GPS,
21900,2023-05-19 17:23:11,52.2056806308087,0.0822705645717288,21.32546,21.32546,50.008370366672,71.333830366672,21.32546,0,0.37223098304,2.3222933814,26,5,16.48,71.661914366672,21.653544,0,0.61130579384,0,0,0,13.2, -1.5, 0,0,0,1024,1024,1024,1024,0,0,0,0,14.5,0,0,84,4.097,4.102,4.102,4.094,0,0,5.789,84.74,71.333830366672,21.32546,6,P-GPS,
22100,2023-05-19 17:23:11,52.2056806128689,0.082270623242905,21.32546,21.32546,50.008370366672,71.333830366672,21.32546,0,0.36862862072,2.33695217452,26,5,16.393,71.661914366672,21.653544,0,0.61130579384,0,0,0,13.6, -1.1, -1.4,0,0,1024,1024,1024,1024,0,0,0,0,14.9,0,0,84,4.093,4.101,4.099,4.092,0,0,6.759,84.74,71.333830366672,21.32546,6,P-GPS,
22300,2023-05-19 17:23:12,52.2056805596324,0.0822706952066604,21.32546,21.32546,50.008370366672,71.333830366672,21.32546,0,0.35403872524,2.36217527244,26,5,16.393,71.661914366672,21.653544,0,0.61130579384,0,0,0,14, -1.1, -1.6,0,0,1024,1024,1024,1024,0,0,0,0,14.9,0,0,84,4.093,4.101,4.099,4.092,0,0,6.759,84.74,71.333830366672,21.32546,6,P-GPS,
22500,2023-05-19 17:23:12,52.205680469531,0.0822707696901869,21.32546,21.32546,50.008370366672,71.333830366672,21.32546,0,0.32830053544,2.39902566732,26,5,16.393,71.661914366672,21.653544,0,0.61130579384,0,0,0,13.9, -1.8, -2.2,0,0,1024,1024,1024,1024,0,0,0,0,14.9,0,0,84,4.093,4.101,4.099,4.092,0,0,6.759,84.74,71.333830366672,21.32546,6,P-GPS,
22700,2023-05-19 17:23:12,52.2056803779106,0.0822707994801027,21.32546,21.32546,50.008370366672,71.333830366672,21.32546,0,0.300065954484,2.43311031408,26,5,16.393,71.661914366672,21.653544,0,0.61130579384,0,0,0,13.9, -2.1, -2.4,0,0,1024,1024,1024,1024,0,0,0,0,14.9,0,0,84,4.093,4.101,4.099,4.092,0,0,6.759,84.74,71.333830366672,21.32546,6,P-GPS,
22900,2023-05-19 17:23:12,52.2056802905609,0.0822708017587307,21.32546,21.32546,50.008370366672,71.333830366672,21.32546,0,0.271643053312,2.46498367468,26,5,16.393,71.661914366672,21.653544,0,0.61130579384,0,0,0,14, -2.2, -2.4,0,0,1024,1024,1024,1024,0,0,0,0,14.9,0,0,84,4.093,4.101,4.099,4.092,0,0,6.759,84.74,71.333830366672,21.32546,6,P-GPS,
23100,2023-05-19 17:23:12,52.205680255445,0.082270761521026,21.32546,21.32546,50.008370366672,71.333830366672,21.32546,0,0.256133866464,2.48063984316,26,5,16.389,71.661914366672,21.653544,0,0.61130579384,0,0,0,14, -2.1, -2.2,0,0,1024,1024,1024,1024,0,0,0,0,14.9,0,0,84,4.091,4.1,4.098,4.091,0,0,6.961,84.56,71.333830366672,21.32546,6,P-GPS,
23300,2023-05-19 17:23:13,52.2056802332385,0.0822706393418313,21.32546,21.32546,50.008370366672,71.333830366672,21.32546,0,0.237408800248,2.50913393856,26,5,16.389,71.661914366672,21.653544,0,0.61130579384,0,0,0,13.9, -2.4, -2.1,0,0,1024,1024,1024,1330,0,0,0,46,14.9,0,0,84,4.091,4.1,4.098,4.091,0,0,6.961,84.56,71.333830366672,21.32546,6,P-GPS,
23500,2023-05-19 17:23:13,52.2056802333172,0.0822704666588739,21.653544,21.653544,50.008370366672,71.661914366672,21.32546,0,0.225815624024,2.54774614452,26,5,16.389,71.661914366672,21.653544,0,0.61130579384,0,0,0,13.9, -2.2, -1.7,0,0,1024,1024,1024,1149,0,0,0,19,15.7,0,0,84,4.091,4.1,4.098,4.091,0,0,6.961,84.56,71.661914366672,21.653544,6,P-GPS,
23700,2023-05-19 17:23:13,52.2056802702893,0.0822702783697611,21.653544,21.653544,50.008370366672,71.661914366672,21.32546,0,0.233755256824,2.59195218268,26,5,16.389,71.661914366672,21.653544,0,0.61130579384,0,0,0,14.8, -1.6, -1.5,0,0,1024,1024,1024,1499,0,0,0,72,16.5,0,0,84,4.091,4.1,4.098,4.091,0,0,6.961,84.56,71.661914366672,21.653544,6,P-GPS,
23900,2023-05-19 17:23:13,52.2056802799948,0.0822700542499219,21.653544,21.653544,50.008370366672,71.661914366672,21.32546,0,0.240805781984,2.64218840476,26,5,16.389,71.661914366672,21.653544,0,0.61130579384,0,0,0,15.6, -1.5, -1.2,0,0,1024,1024,1024,1497,0,0,0,72,19.3,0,0,84,4.091,4.1,4.098,4.091,0,0,6.961,84.56,71.661914366672,21.653544,6,P-GPS,
24100,2023-05-19 17:23:13,52.2056802703657,0.0822698502061234,21.653544,21.653544,50.008370366672,71.661914366672,21.32546,0,0.2494586694,2.68794628024,26,5,16.387,71.661914366672,21.653544,0,0.61130579384,0,0,0,19.2, -1.9, -0.9,0,0,1024,1024,1024,1460,0,0,0,66,24.3,0,0,84,4.09,4.1,4.099,4.09,0,0,7.01,84.92,71.661914366672,21.653544,6,P-GPS,
24300,2023-05-19 17:23:14,52.2056802501603,0.0822697493453809,21.653544,21.653544,50.008370366672,71.661914366672,21.653544,0,0.251577435872,2.71167331512,26,5,16.387,71.661914366672,21.653544,0,0.61130579384,0,0,0,24.5, -1.8, -1.5,0,0,1024,1024,1024,1398,0,0,0,57,29.4,0,0,84,4.09,4.1,4.099,4.09,0,0,7.01,84.92,71.661914366672,21.653544,6,P-GPS,
24500,2023-05-19 17:23:14,52.2056802331104,0.0822697008878401,21.653544,21.653544,50.008370366672,71.661914366672,21.32546,0,0.251028879424,2.72416675384,26,5,16.387,71.661914366672,21.653544,0,0.61130579384,0,0,0,29.7, -1.6, -1.9,0,0,1024,1024,1024,1413,0,0,0,59,33.1,0,0,84,4.09,4.1,4.099,4.09,0,0,7.01,84.92,71.661914366672,21.653544,6,P-GPS,
24700,2023-05-19 17:23:14,52.2056802236853,0.0822697299910222,21.653544,21.653544,50.008370366672,71.661914366672,21.32546,0,0.24491634642,2.73152567796,26,5,16.387,71.661914366672,21.653544,0,0.61130579384,0,0,0,33, -1, -2.8,0,0,1024,1024,1024,1275,0,0,0,38,36.3,0,0,84,4.09,4.1,4.099,4.09,0,0,7.01,84.92,71.661914366672,21.653544,6,P-GPS,
24900,2023-05-19 17:23:14,52.2056802300963,0.0822696825609609,21.653544,21.653544,50.008370366672,71.661914366672,21.32546,0,0.252070874208,2.74238525836,26,5,16.387,71.661914366672,21.653544,0,0.61130579384,0,0,0,36, -0.7, -2.6,0,0,1024,1024,1024,1024,0,0,0,0,39.3,0,0,84,4.09,4.1,4.099,4.09,0,0,7.01,84.92,71.661914366672,21.653544,6,P-GPS,
25100,2023-05-19 17:23:15,52.2056802512835,0.0822695723218469,21.981628,21.981628,50.008370366672,71.989998366672,21.32546,0,0.271568906328,2.76821859252,26,5,16.38,71.989998366672,21.981628,0,0.61130579384,0,0,0,38.4, -0.5, -2.9,0,0,1024,1024,1024,1557,0,0,0,81,39.8,0,0,84,4.085,4.096,4.095,4.087,0,0,7.099,84.74,71.989998366672,21.981628,6,P-GPS,
25300,2023-05-19 17:23:15,52.2056803150751,0.0822693158294138,21.981628,21.981628,50.008370366672,71.989998366672,21.653544,0,0.32447835684,2.83010835828,26,5,16.38,71.989998366672,21.981628,0,0.61130579384,0,0,0,38.6, -1, -1.2,0,0,1024,1024,1024,1566,0,0,0,82,42.4,0,0,84,4.085,4.096,4.095,4.087,0,0,7.099,84.74,71.989998366672,21.981628,6,P-GPS,
25500,2023-05-19 17:23:15,52.2056803746054,0.082269020951535,21.981628,21.981628,50.008370366672,71.989998366672,21.653544,0,0.38502953988,2.89952765184,26,5,16.38,71.989998366672,21.981628,0,0.61130579384,0,0,0,42.4, -0.9, -0.6,0,0,1024,1024,1024,1553,0,0,0,80,49.6,0,0,84,4.085,4.096,4.095,4.087,0,0,7.099,84.74,71.989998366672,21.981628,6,P-GPS,
25700,2023-05-19 17:23:15,52.2056804306198,0.0822687540305346,21.981628,21.981628,50.008370366672,71.989998366672,21.653544,0,0.4426017202,2.96260836252,26,5,16.38,71.989998366672,21.981628,0,0.61130579384,0,0,0,50.4, -1.3, 0.1,0,0,1024,1024,1024,1550,0,0,0,80,57,0,0,84,4.085,4.096,4.095,4.087,0,0,7.099,84.74,71.989998366672,21.981628,6,P-GPS,
25900,2023-05-19 17:23:15,52.2056804222403,0.0822686089672046,21.981628,21.981628,50.008370366672,71.989998366672,21.653544,0,0.46555775768,2.99518710372,26,5,16.38,71.989998366672,21.981628,0,0.61130579384,0,0,0,57.8, -1.4, -0.3,0,0,1024,1024,1024,1515,0,0,0,74,64.1,0,0,84,4.085,4.096,4.095,4.087,0,0,7.099,84.74,71.989998366672,21.981628,6,P-GPS,
26100,2023-05-19 17:23:16,52.2056803591291,0.0822686013047938,21.981628,21.981628,50.008370366672,71.989998366672,21.32546,0,0.45300854468,3.01827765564,26,5,16.372,71.989998366672,21.981628,0,0.61130579384,0,0,0,64.8, -1, -1.6,0,0,1024,1024,1005,1491,0,0,-3,71,70.4,0,0,84,4.088,4.097,4.094,4.087,0,0,7.082,84.92,71.989998366672,21.981628,6,P-GPS,
26300,2023-05-19 17:23:16,52.2056802773317,0.0822686521964824,21.981628,21.981628,50.008370366672,71.989998366672,21.32546,0,0.42663059108,3.05021663304,26,5,16.372,71.989998366672,21.981628,0,0.61130579384,0,0,0,70.6, -0.3, -2,0,0,1024,1024,990,1509,0,0,-5,73,75.6,0,0,84,4.088,4.097,4.094,4.087,0,0,7.082,84.92,71.989998366672,21.981628,6,P-GPS,
26500,2023-05-19 17:23:16,52.2056802034647,0.0822686768297791,21.981628,21.981628,50.008370366672,71.989998366672,21.653544,0,0.40758531488,3.0777231956,26,5,16.372,71.989998366672,21.981628,0,0.61130579384,0,0,0,75.7, 0, -1.8,0,0,1024,1024,975,1534,0,0,-7,77,81,0,0,84,4.088,4.097,4.094,4.087,0,0,7.082,84.92,71.989998366672,21.981628,6,P-GPS,
26700,2023-05-19 17:23:16,52.2056801005505,0.0822686738277216,21.981628,21.981628,50.008370366672,71.989998366672,21.653544,0,0.39024935632,3.11527897108,26,5,16.372,71.989998366672,21.981628,0,0.61130579384,0,0,0,81.4, -0.2, -1.8,0,0,1024,1024,965,1558,0,0,-9,81,87.3,0,0,84,4.088,4.097,4.094,4.087,0,0,7.082,84.92,71.989998366672,21.981628,6,P-GPS,
26900,2023-05-19 17:23:16,52.205679976542,0.0822686705670469,21.981628,21.981628,50.008370366672,71.989998366672,21.653544,0,0.37325132428,3.16052831636,26,5,16.372,71.989998366672,21.981628,0,0.61130579384,0,0,0,87.7, 0.4, -2.1,0,0,1024,1024,956,1581,0,0,-10,84,94.3,0,0,84,4.088,4.097,4.094,4.087,0,0,7.082,84.92,71.989998366672,21.981628,6,P-GPS,
27100,2023-05-19 17:23:17,52.205679854727,0.0822686674444179,22.309712,22.309712,50.008370366672,72.318082366672,21.653544,0,0.36130906668,3.20497713668,26,5,16.379,72.318082366672,22.309712,0,0.61130579384,0,0,0,95, 0, -2.1,0,0,1024,1024,962,1588,0,0,-9,85,101.8,0,0,84,4.085,4.098,4.092,4.085,0,0,7.069,84.92,72.318082366672,22.309712,6,P-GPS,
27300,2023-05-19 17:23:17,52.2056797191667,0.082268776054942,22.309712,22.309712,50.008370366672,72.318082366672,21.32546,0,0.32920932812,3.26007884448,26,5,16.379,72.318082366672,22.309712,0,0.61130579384,0,0,0,102.4, 0.8, -2.1,0,0,1024,1024,958,1597,0,0,-10,87,109.9,0,0,84,4.085,4.098,4.092,4.085,0,0,7.069,84.92,72.318082366672,22.309712,6,P-GPS,
27500,2023-05-19 17:23:17,52.2056795563331,0.0822688906014319,21.981628,21.981628,50.008370366672,71.989998366672,21.32546,0,0.303182096316,3.3247704476,26,5,16.379,72.318082366672,22.309712,0,0.61130579384,0,0,0,111.1, 2, -2.7,0,0,1024,1024,959,1595,0,0,-10,87,118.3,0,0,84,4.085,4.098,4.092,4.085,0,0,7.069,84.92,71.989998366672,21.981628,6,P-GPS,
27700,2023-05-19 17:23:17,52.2056794172088,0.0822689634493788,21.981628,22.0144364,49.975561966672,71.989998366672,21.32546,0,0.296061033096,3.3780840976,26,5,16.379,72.318082366672,22.309712,0,0.61130579384,0,0,0,119.1, 1.5, -2.8,0,0,1024,1024,967,1593,0,0,-9,86,126.9,0,0,84,4.085,4.098,4.092,4.085,0,0,7.069,84.92,71.989998366672,21.981628,6,P-GPS,
27900,2023-05-19 17:23:17,52.2056793279983,0.0822690151728365,21.981628,22.0144364,49.975561966672,71.989998366672,21.32546,0,0.295450796856,3.4126313428,26,5,16.379,72.318082366672,22.309712,0,0.61130579384,0,0,0,127.6, 1.6, -1.6,0,0,1024,1024,967,1590,0,0,-9,86,135.4,0,0,84,4.085,4.098,4.092,4.085,0,0,7.069,84.92,71.989998366672,21.981628,6,P-GPS,
28100,2023-05-19 17:23:18,52.2056791985465,0.0822689848220008,21.981628,22.0144364,49.975561966672,71.989998366672,21.32546,0,0.322020023428,3.4603347564,26,5,16.364,72.318082366672,22.309712,0,0.61130579384,0,0,0,136.6, 1.5, -2.5,0,0,1024,1024,977,1576,0,0,-7,84,143.8,0,0,84,4.087,4.097,4.092,4.084,0,0,7.186,84.92,71.989998366672,21.981628,6,P-GPS,
28300,2023-05-19 17:23:18,52.2056790590415,0.0822690074300446,22.309712,22.3425204,49.975561966672,72.318082366672,21.32546,0,0.3456857066,3.511483052,26,5,16.364,72.318082366672,22.309712,0,0.61130579384,0,0,0,144.5, 2.2, -3.5,0,0,1024,1024,1024,1093,0,0,0,10,151.9,0,0,84,4.087,4.097,4.092,4.084,0,0,7.186,84.92,72.318082366672,22.309712,6,P-GPS,
28500,2023-05-19 17:23:18,52.2056789580698,0.0822692004284385,22.309712,22.3425204,49.975561966672,72.318082366672,21.32546,0,0.33801838352,3.568241584,26,5,16.364,72.318082366672,22.309712,0,0.61130579384,0,0,0,152.2, 3.8, -2.5,0,0,1024,1024,1024,1024,0,0,0,0,157.5,0,0,84,4.087,4.097,4.092,4.084,0,0,7.186,84.92,72.318082366672,22.309712,6,P-GPS,
28700,2023-05-19 17:23:18,52.2056789121558,0.082269426625953,22.309712,22.3425204,49.975561966672,72.318082366672,21.32546,0,0.319013133568,3.6214896172,26,5,16.364,72.318082366672,22.309712,0,0.61130579384,0,0,0,156.9, 3.1, -0.5,0,0,1024,1024,1024,1383,0,0,0,54,157.9,0,0,84,4.087,4.097,4.092,4.084,0,0,7.186,84.92,72.318082366672,22.309712,6,P-GPS,
28900,2023-05-19 17:23:18,52.2056788832157,0.0822695487195244,22.309712,22.3425204,49.975561966672,72.318082366672,21.32546,0,0.313388789556,3.6507875184,26,5,16.364,72.318082366672,22.309712,0,0.61130579384,0,0,0,156.3, 3.2, -0.8,0,0,1024,1024,1024,1550,0,0,0,80,158.8,0,0,84,4.087,4.097,4.092,4.084,0,0,7.186,84.92,72.318082366672,22.309712,6,P-GPS,
29100,2023-05-19 17:23:18,52.2056788419225,0.0822696009182788,22.309712,22.3425204,49.975561966672,72.318082366672,20.997376,0,0.321202766184,3.6698163904,26,5,16.353,72.318082366672,22.309712,0,0.61130579384,0,0,0,157.9, 3.3, -1.1,0,0,1024,1024,1024,1024,0,0,0,0,165.5,0,0,84,4.083,4.092,4.09,4.085,0,0,7.371,84.92,72.318082366672,22.309712,6,P-GPS,
29300,2023-05-19 17:23:19,52.205678817556,0.0822695858206209,22.309712,22.3425204,49.975561966672,72.318082366672,20.997376,0,0.33066602108,3.6793308264,26,5,16.353,72.318082366672,22.309712,0,0.61130579384,0,0,0,165.7, 2.6, -0.8,0,0,1024,1024,1024,1024,0,0,0,0,168.5,0,0,84,4.083,4.092,4.09,4.085,0,0,7.371,84.92,72.318082366672,22.309712,6,P-GPS,
29500,2023-05-19 17:23:19,52.2056787290309,0.0822695496508962,22.309712,22.3425204,49.975561966672,72.318082366672,20.997376,0,0.36327428984,3.7126313524,26,5,16.353,72.318082366672,22.309712,0,0.61130579384,0,0,0,167.3, 3.6, -2,0,0,1024,1024,1024,1024,0,0,0,0,168.6,0,0,84,4.083,4.092,4.09,4.085,0,0,7.371,84.92,72.318082366672,22.309712,6,P-GPS,
29700,2023-05-19 17:23:19,52.2056786517991,0.0822695438424916,22.309712,22.3425204,49.975561966672,72.318082366672,20.997376,0,0.38947507808,3.7408465764,26,5,16.353,72.318082366672,22.309712,0,0.61130579384,0,0,0,166.9, 3.9, -1.8,0,0,1024,1024,1024,1598,0,0,0,87,168.6,0,0,84,4.083,4.092,4.09,4.085,0,0,7.371,84.92,72.318082366672,22.309712,6,P-GPS,
29900,2023-05-19 17:23:19,52.2056785696948,0.0822695627198063,22.309712,22.3425204,49.975561966672,72.318082366672,20.997376,0,0.41553807104,3.7710959212,26,5,16.353,72.318082366672,22.309712,0,0.61130579384,0,0,0,167.1, 3.5, -1.3,0,0,1024,1024,1024,1024,0,0,0,0,173.2,0,0,84,4.083,4.092,4.09,4.085,0,0,7.371,84.92,72.318082366672,22.309712,6,P-GPS,
30100,2023-05-19 17:23:19,52.2056785134164,0.0822695845415137,22.309712,22.3425204,49.975561966672,72.318082366672,21.32546,0,0.4330380716,3.7921917224,26,5,16.356,72.318082366672,22.309712,0,0.61130579384,0,0,0,173.1, 3.3, -1.5,0,0,1024,1024,1006,1633,0,0,-3,92,176.3,0,0,84,4.081,4.091,4.088,4.083,0,0,7.171,85.1,72.318082366672,22.309712,6,P-GPS,
30300,2023-05-19 17:23:20,52.2056784915494,0.08226977835595,22.309712,22.3425204,49.975561966672,72.318082366672,20.997376,0,0.42806431816,3.8362534036,26,5,16.356,72.318082366672,22.309712,0,0.61130579384,0,0,0,175.1, 3, -0.4,0,0,1024,1024,1024,1024,0,0,0,0,181.9,0,0,84,4.081,4.091,4.088,4.083,0,0,7.171,85.1,72.318082366672,22.309712,6,P-GPS,
30500,2023-05-19 17:23:20,52.2056785176544,0.08227008734944,22.309712,22.3425204,49.975561966672,72.318082366672,20.997376,0,0.40729660096,3.906004062,26,5,16.356,72.318082366672,22.309712,0,0.61130579384,0,0,0,181.5, 2.1, 1.4,0,0,1024,1024,1024,1024,0,0,0,0,184.5,0,0,84,4.081,4.091,4.088,4.083,0,0,7.171,85.1,72.318082366672,22.309712,6,P-GPS,
30700,2023-05-19 17:23:20,52.2056785129147,0.0822703164459146,22.309712,22.3425204,49.975561966672,72.318082366672,20.997376,0,0.40791667972,3.9572507828,26,5,16.356,72.318082366672,22.309712,0,0.61130579384,0,0,0,183.2, 1.9, 1.6,0,0,1024,1024,1024,1024,0,0,0,0,184.5,0,0,84,4.081,4.091,4.088,4.083,0,0,7.171,85.1,72.318082366672,22.309712,6,P-GPS,
30900,2023-05-19 17:23:20,52.2056784971527,0.0822703947370564,22.309712,22.3425204,49.975561966672,72.318082366672,21.32546,0,0.41474410776,3.9756891036,26,5,16.356,72.318082366672,22.309712,0,0.61130579384,0,0,0,183.2, 1.6, 1,0,0,1024,1024,1024,1024,0,0,0,0,184.5,0,0,84,4.081,4.091,4.088,4.083,0,0,7.171,85.1,72.318082366672,22.309712,6,P-GPS,
31100,2023-05-19 17:23:20,52.205678434862,0.0822703850249288,22.309712,22.3425204,49.975561966672,72.318082366672,20.997376,0,0.43723098512,3.99852375,26,5,16.346,72.318082366672,22.309712,0,0.61130579384,0,0,0,183.2, 1.5, 0,0,0,1024,1024,1024,1024,0,0,0,0,184.5,0,0,84,4.084,4.092,4.09,4.083,0,0,7.336,85.1,72.318082366672,22.309712,6,P-GPS,
31300,2023-05-19 17:23:21,52.2056783635484,0.0822703620639074,22.309712,22.3425204,49.975561966672,72.318082366672,20.997376,0,0.46285434552,4.0250329372,26,5,16.346,72.318082366672,22.309712,0,0.61130579384,0,0,0,183.1, 1.9, 0.7,0,0,1024,1024,1024,1024,0,0,0,0,184.5,0,0,84,4.084,4.092,4.09,4.083,0,0,7.336,85.1,72.318082366672,22.309712,6,P-GPS,
31500,2023-05-19 17:23:21,52.2056782509626,0.0822703354804965,22.309712,22.3425204,49.975561966672,72.318082366672,20.997376,0,0.50358269328,4.0665355632,26,5,16.346,72.318082366672,22.309712,0,0.61130579384,0,0,0,183.3, 2.5, 0.4,0,0,1024,1024,1024,1024,0,0,0,0,184.5,0,0,84,4.084,4.092,4.09,4.083,0,0,7.336,85.1,72.318082366672,22.309712,6,P-GPS,
31700,2023-05-19 17:23:21,52.205678148501,0.0822702873095316,22.309712,22.3425204,49.975561966672,72.318082366672,20.997376,0,0.54062337688,4.1054463256,26,5,16.346,72.318082366672,22.309712,0,0.61130579384,0,0,0,183.3, 2.6, 0.2,0,0,1024,1024,1024,1024,0,0,0,0,184.5,0,0,84,4.084,4.092,4.09,4.083,0,0,7.336,85.1,72.318082366672,22.309712,6,P-GPS,
31900,2023-05-19 17:23:21,52.205678062665,0.0822702705605674,21.981628,22.0144364,49.975561966672,71.989998366672,20.997376,0,0.57187993956,4.136975198,26,5,16.346,72.318082366672,22.309712,0,0.61130579384,0,0,0,183.3, 2.5, 0.6,0,0,1024,1024,1024,1024,0,0,0,0,184.5,0,0,84,4.084,4.092,4.09,4.083,0,0,7.336,85.1,71.989998366672,21.981628,6,P-GPS,
32100,2023-05-19 17:23:21,52.205678006057,0.08227027366048,21.981628,22.0144364,49.975561966672,71.989998366672,20.997376,0,0.59253938904,4.15764449,26,5,16.344,72.318082366672,22.309712,0,0.61130579384,0,0,0,183.3, 2.2, 0.9,0,0,1024,1024,1024,1024,0,0,0,0,184.5,0,0,84,4.08,4.087,4.086,4.08,0,0,7.327,84.92,71.989998366672,21.981628,6,P-GPS,
32300,2023-05-19 17:23:22,52.2056779583346,0.0822703031935259,21.981628,22.0144364,49.975561966672,71.989998366672,20.997376,0,0.61006563632,4.1762796612,26,5,16.344,72.318082366672,22.309712,0,0.61130579384,0,0,0,183.2, 2.1, 1.1,0,0,1024,1024,1024,1024,0,0,0,0,184.5,0,0,84,4.08,4.087,4.086,4.08,0,0,7.327,84.92,71.989998366672,21.981628,6,P-GPS,
32500,2023-05-19 17:23:22,52.2056778984669,0.0822702736447533,21.981628,22.0144364,49.975561966672,71.989998366672,20.997376,0,0.6317913588,4.1990814992,26,5,16.344,72.318082366672,22.309712,0,0.6317913588,0,0,0,183.2, 2, 1.1,0,0,1024,1024,1024,1024,0,0,0,0,184.5,0,0,84,4.08,4.087,4.086,4.08,0,0,7.327,84.92,71.989998366672,21.981628,6,P-GPS,
32700,2023-05-19 17:23:22,52.2056778105275,0.0822701449249876,21.981628,22.0144364,49.975561966672,71.989998366672,20.997376,0,0.66418309212,4.2421917368,26,5,16.344,72.318082366672,22.309712,0,0.66418309212,0,0,0,183.1, 2.4, 0.2,0,0,1024,1263,1024,1024,0,36,0,0,184.5,0,0,84,4.08,4.087,4.086,4.08,0,0,7.327,84.92,71.989998366672,21.981628,6,P-GPS,
32900,2023-05-19 17:23:22,52.2056777272198,0.0822700058657725,21.981628,22.0144364,49.975561966672,71.989998366672,20.997376,0,0.69622049472,4.2856628668,26,5,16.344,72.318082366672,22.309712,0,0.69622049472,0,0,0,183.4, 1.5, 0.1,0,0,1024,1176,1024,1024,0,23,0,0,184.5,0,0,84,4.08,4.087,4.086,4.08,0,0,7.327,84.92,71.989998366672,21.981628,6,P-GPS,
33100,2023-05-19 17:23:23,52.2056775935106,0.0822698725765189,21.981628,22.0144364,49.975561966672,71.989998366672,20.997376,0,0.7475722024,4.342847908,26,5,16.339,72.318082366672,22.309712,0,0.7475722024,0,0,0,183.2, 1.1, 2.4,0,0,1024,1128,1024,1024,0,16,0,0,184.5,0,0,84,4.082,4.088,4.089,4.081,0,0,7.195,85.1,71.989998366672,21.981628,6,P-GPS,
33300,2023-05-19 17:23:23,52.2056774067983,0.0822695901856613,21.981628,22.0144364,49.975561966672,71.989998366672,20.997376,0.223694,0.82409451456,4.4357284884,26,5,16.339,72.318082366672,22.309712,0.223694,0.82409451456,0,-0.223694,0,183.3, 2.1, 2.5,0,0,1024,1024,1024,1024,0,0,0,0,184.5,0,0,84,4.082,4.088,4.089,4.081,0,0,7.195,85.1,71.989998366672,21.981628,6,P-GPS,
33500,2023-05-19 17:23:23,52.2056772038394,0.0822691313252,21.981628,22.0144364,49.975561966672,71.989998366672,20.997376,0.3131716,0.91931433388,4.5622376788,26,5,16.339,72.318082366672,22.309712,0.3131716,0.91931433388,-0.223694,-0.223694,0,183.6, 2.4, -2.7,0,0,1024,1024,1024,1024,0,0,0,0,184.5,0,0,84,4.082,4.088,4.089,4.081,0,0,7.195,85.1,71.989998366672,21.981628,6,P-GPS,
33700,2023-05-19 17:23:23,52.2056769641252,0.0822688858991405,21.981628,22.0144364,49.975561966672,71.989998366672,20.997376,0.223694,1.01875987512,4.6654857136,26,5,16.339,72.318082366672,22.309712,0.3131716,1.01875987512,-0.223694,0,0,183.1, 4.3, -1.2,0,0,1024,1607,1024,1024,0,88,0,0,184.5,0,0,84,4.082,4.088,4.089,4.081,0,0,7.195,85.1,71.989998366672,21.981628,6,P-GPS,
33900,2023-05-19 17:23:23,52.2056767955634,0.0822688846654662,21.981628,22.0144364,49.975561966672,71.989998366672,20.997376,0,1.0777067274,4.7270014636,26,5,16.339,72.318082366672,22.309712,0.3131716,1.0777067274,0,0,0,183.3, 1.7, 1.8,0,0,1024,1024,1024,1024,0,0,0,0,184.5,0,0,84,4.082,4.088,4.089,4.081,0,0,7.195,85.1,71.989998366672,21.981628,6,P-GPS,
