time(millisecond),datetime(utc),latitude,longitude,height_above_takeoff(feet),height_above_ground_at_drone_location(feet),ground_elevation_at_drone_location(feet),altitude_above_seaLevel(feet),height_sonar(feet),speed(mph),distance(feet),mileage(feet),satellites,gpslevel,voltage(v),max_altitude(feet),max_ascent(feet),max_speed(mph),max_distance(feet), xSpeed(mph), ySpeed(mph), zSpeed(mph), compass_heading(degrees), pitch(degrees), roll(degrees),isPhoto,isVideo,rc_elevator,rc_aileron,rc_throttle,rc_rudder,rc_elevator(percent),rc_aileron(percent),rc_throttle(percent),rc_rudder(percent),gimbal_heading(degrees),gimbal_pitch(degrees),gimbal_roll(degrees),battery_percent,voltageCell1,voltageCell2,voltageCell3,voltageCell4,voltageCell5,voltageCell6,current(A),battery_temperature(f),altitude(feet),ascent(feet),flycStateRaw,flycState,message
526600,2023-05-16 19:07:40,52.2087966092897,0.0699661875743537,0,0,77.74709402334,77.77990242334,0,0,0,0,27,5,0,77.77990242334,0,0,0,0,0,0,186.1, 2.8, 0.3,0,0,1024,1024,1024,1024,0,0,0,0,190.4,15.6,0,75,4.073,4.077,4.078,4.07,0,0,0,92.66,77.77990242334,0,41,Motors_Started,
526800,2023-05-16 19:07:40,52.2087965690761,0.0699662048827919,0,0,77.74709402334,77.77990242334,0,0,0.0151736553412,0.0151736553412,27,5,0,77.77990242334,0,0,0.0151736553412,0,0,0,186.2, 2.8, 0.3,0,0,1024,1024,1024,1024,0,0,0,0,190.4,15.6,0,75,4.073,4.077,4.078,4.07,0,0,0,92.66,77.77990242334,0,41,Motors_Started,
527000,2023-05-16 19:07:40,52.2087965430803,0.0699661973185964,0,0,77.74709402334,77.77990242334,0,0,0.0242544627184,0.0248077763844,27,5,0,77.77990242334,0,0,0.0242544627184,0,0,0,186.2, 2.7, 0.2,0,0,1024,1024,1024,1024,0,0,0,0,190.4,15.6,0,75,4.073,4.077,4.078,4.07,0,0,0,92.66,77.77990242334,0,41,Motors_Started,
527200,2023-05-16 19:07:40,52.2087965116181,0.0699661753669637,0,0,77.74709402334,77.77990242334,0,0,0.03573983054,0.037291995944,27,5,0,77.77990242334,0,0,0.03573983054,0,0,0,186, 3.3, 0,0,0,1024,1024,1024,1024,0,0,0,0,190.4,15.6,0,75,4.073,4.077,4.078,4.07,0,0,0,92.66,77.77990242334,0,41,Motors_Started,
527400,2023-05-16 19:07:40,52.2087964975253,0.06996616042818,0,0.032808400000005,77.71428562334,77.77990242334,0,0,0.041226379272,0.043423229736,27,5,0,77.77990242334,0,0,0.041226379272,0,0,0,186, 3.3, 0,0,0,1024,1024,1024,1024,0,0,0,0,190.4,15.6,0,75,4.073,4.077,4.078,4.07,0,0,0,92.66,77.77990242334,0,41,Motors_Started,"Setting new Return-To-Home altitude to 26m (85 ft). Data Recorder File Index is 11. Setting new Maximum Flight Altitude to 120m (394 ft)"
527600,2023-05-16 19:07:41,52.2087964811237,0.0699661477987608,0,0.032808400000005,77.71428562334,77.77990242334,0,0,4.0447507856,0.050040027848,27,5,0,77.77990242334,0,0,4.0447507856,0,0,0,185.9, 3.3, 0,0,0,1024,1024,1024,1024,0,0,0,0,190.4,15.6,0,75,4.073,4.077,4.078,4.07,0,0,0,92.66,77.77990242334,0,41,Motors_Started,
527800,2023-05-16 19:07:41,52.2087964629094,0.0699661375459862,0,0.032808400000005,77.71428562334,77.77990242334,0,0,4.047900392,0.057069883716,27,5,0,77.77990242334,0,0,4.047900392,0,0,0,186, 3.3, 0,0,0,1024,1024,1024,1024,0,0,0,0,190.4,15.6,0,75,4.073,4.077,4.078,4.07,0,0,0,92.66,77.77990242334,0,41,Motors_Started,
528000,2023-05-16 19:07:41,52.2087964482439,0.0699661352654559,0,0.032808400000005,77.71428562334,77.77990242334,0,0,4.0491143028,0.062444555804,27,5,16.219,77.77990242334,0,0,4.0491143028,0,0,0,186.1, 3.3, 0,0,0,1024,1024,1024,1024,0,0,0,0,190.4,15.6,0,75,4.045,4.053,4.052,4.045,0,0,2.567,92.66,77.77990242334,0,41,Motors_Started,
528200,2023-05-16 19:07:41,52.2087964409347,0.0699661367674603,0,0.032808400000005,77.71428562334,77.77990242334,0,0,4.0491143028,0.065132548016,27,5,16.219,77.77990242334,0,0,4.0491143028,0,0,0,186.1, 3.3, 0,0,0,1024,1024,1024,1024,0,0,0,0,190.4,15.6,0,75,4.045,4.053,4.052,4.045,0,0,2.567,92.66,77.77990242334,0,11,AutoTakeoff,
528400,2023-05-16 19:07:42,52.2087964282407,0.0699661300106249,0,0.032808400000005,77.71428562334,77.77990242334,0,0,4.0512468488,0.070003939248,27,5,16.219,77.77990242334,0,0,4.0512468488,0,0,0,185.8, 3.2, 0,0,0,1024,1024,1024,1024,0,0,0,0,190.4,15.6,0,75,4.045,4.053,4.052,4.045,0,0,2.567,92.66,77.77990242334,0,11,AutoTakeoff,
528600,2023-05-16 19:07:42,52.2087964238373,0.0699661116405607,0,0.032808400000005,77.71428562334,77.77990242334,0,0,4.0555447492,0.074414044376,27,5,16.219,77.77990242334,0,0,4.0555447492,0,0,0,185, 1.8, 0,0,0,1024,1024,1024,1024,0,0,0,0,190.4,15.6,0,75,4.045,4.053,4.052,4.045,0,0,2.567,92.66,77.77990242334,0,11,AutoTakeoff,
528800,2023-05-16 19:07:42,52.2087964746176,0.0699660872126741,0,0.032808400000005,77.71428562334,77.77990242334,0,0,4.0584975052,0.093729661792,27,5,16.219,77.77990242334,0,0,4.0584975052,0,0,-0.671082,184.9, -1.4, -0.1,0,0,1024,1024,1024,1024,0,0,0,0,190.3,15.6,0,75,4.045,4.053,4.052,4.045,0,0,2.567,92.66,77.77990242334,0,11,AutoTakeoff,
529000,2023-05-16 19:07:42,52.2087964491635,0.0699660892258318,0.328084,0.36089240000001,77.71428562334,78.10798642334,0.328084,0,4.0592520984,0.103027234268,27,5,16.226,78.10798642334,0.328084,0,4.0592520984,0,0,-0.894776,184.8, 0.3, 0.2,0,0,1024,1024,1024,1024,0,0,0,0,190.2,15.6,0,75,4.06,4.068,4.067,4.061,0,0,4.472,92.84,78.10798642334,0.328084,11,AutoTakeoff,
529200,2023-05-16 19:07:42,52.2087963998738,0.0699660819001745,0.656168,0.68897640000001,77.71428562334,78.43607042334,0.328084,0,4.06332034,0.121084977628,27,5,16.226,78.43607042334,0.656168,0,4.06332034,0,0,-0.894776,184.9, 1, 0.1,0,0,1024,1024,1024,1024,0,0,0,0,190.2,15.6,0,75,4.06,4.068,4.067,4.061,0,0,4.472,92.84,78.43607042334,0.656168,11,AutoTakeoff,
529400,2023-05-16 19:07:43,52.2087964029905,0.0699660702851981,0.984252,1.0170604,77.71428562334,78.76415442334,0.984252,0,4.0657153532,0.123919951472,27,5,16.226,78.76415442334,0.984252,0,4.0657153532,0,0,-0.894776,184.9, 0.9, 0,0,0,1024,1024,1024,1024,0,0,0,0,190.1,15.6,0,75,4.06,4.068,4.067,4.061,0,0,4.472,92.84,78.76415442334,0.984252,11,AutoTakeoff,
529600,2023-05-16 19:07:43,52.2087964484712,0.0699660720091392,1.312336,1.3451444,77.71428562334,79.09223842334,1.312336,0,4.0631234896,0.140518049116,26,5,16.226,79.09223842334,1.312336,0,4.0657153532,0,0,-0.894776,184.9, 0.9, 0.2,0,0,1024,1024,1024,1024,0,0,0,0,190.1,15.6,0,75,4.06,4.068,4.067,4.061,0,0,4.472,92.84,79.09223842334,1.312336,11,AutoTakeoff,
529800,2023-05-16 19:07:43,52.2087965244832,0.0699660833261612,1.64042,1.64042,77.74709402334,79.42032242334,1.64042,0,4.0570211272,0.16836614712,25,5,16.226,79.42032242334,1.64042,0,4.0657153532,0,0,-0.894776,184.9, 1, 0.4,0,0,1024,1024,1024,1024,0,0,0,0,190.1,15.6,0,75,4.06,4.068,4.067,4.061,0,0,4.472,92.84,79.42032242334,1.64042,11,AutoTakeoff,
530000,2023-05-16 19:07:43,52.2087966605058,0.0699660943959075,1.64042,1.64042,77.74709402334,79.42032242334,1.968504,0,4.0485893684,0.218055781256,27,5,16.107,79.42032242334,1.64042,0,4.0657153532,0,0,-1.11847,184.8, 0.3, 0.6,0,0,1024,1024,1024,1024,0,0,0,0,190,15.6,0,75,4.026,4.036,4.037,4.029,0,0,5.257,92.66,79.42032242334,1.64042,11,AutoTakeoff,
530200,2023-05-16 19:07:43,52.2087968358327,0.0699660602604765,2.296588,2.296588,77.74709402334,80.07649042334,2.296588,0,4.04937677,0.28247704316,27,5,16.107,80.07649042334,2.296588,0,4.0657153532,0,0,-1.11847,184.9, -1.1, -0.1,0,0,1024,1024,1024,1024,0,0,0,0,190,15.6,0,75,4.026,4.036,4.037,4.029,0,0,5.257,92.66,80.07649042334,2.296588,11,AutoTakeoff,
530400,2023-05-16 19:07:44,52.2087969477055,0.069966013197672,2.624672,2.624672,77.74709402334,80.40457442334,2.624672,0,4.0560696836,0.324628291228,27,5,16.107,80.40457442334,2.624672,0,4.0657153532,0,0,-1.11847,184.8, -0.2, 0,0,0,1024,1024,1024,1024,0,0,0,0,189.9,15.6,0,75,4.026,4.036,4.037,4.029,0,0,5.257,92.66,80.40457442334,2.624672,11,AutoTakeoff,"Home Point updated (Code: 3000001)"
530600,2023-05-16 19:07:44,52.2087969991647,0.0699660102032746,2.952756,2.952756,77.74709402334,80.73265842334,2.952756,0,4.05511824,0.34341536532,27,5,16.107,80.73265842334,2.952756,0,4.0657153532,0,0,-1.11847,184.8, 0.4, 1.1,0,0,1024,1024,1024,1024,0,0,0,0,189.9,15.6,0,75,4.026,4.036,4.037,4.029,0,0,5.257,92.66,80.73265842334,2.952756,11,AutoTakeoff,
530800,2023-05-16 19:07:44,52.2087970253409,0.0699659652890616,3.28084,3.28084,77.74709402334,81.06074242334,3.28084,0,4.0643374004,0.35727363348,27,5,16.107,81.06074242334,3.28084,0,4.0657153532,0,0,-1.11847,184.9, 1, 0.9,0,0,1024,1024,1024,1024,0,0,0,0,189.9,15.6,0,75,4.026,4.036,4.037,4.029,0,0,5.257,92.66,81.06074242334,3.28084,11,AutoTakeoff,
531000,2023-05-16 19:07:44,52.2087970740609,0.0699658506570295,3.608924,3.608924,77.74709402334,81.38882642334,3.608924,0,4.0884843828,0.38846129852,27,5,16.073,81.38882642334,3.608924,0,4.0884843828,0,0,-0.894776,184.9, 1.1, -0.1,0,0,1024,1024,1024,1024,0,0,0,0,189.9,15.6,0,75,4.015,4.025,4.022,4.014,0,0,7.776,92.66,81.38882642334,3.608924,6,P-GPS,
531200,2023-05-16 19:07:44,52.2087971783932,0.0699657719717461,3.608924,3.608924,77.74709402334,81.38882642334,3.937008,0,4.1033137796,0.4303969954,27,5,16.073,81.38882642334,3.608924,0,4.1033137796,0,0,-0.223694,184.5, -0.7, 0.2,0,0,1024,1024,1024,1024,0,0,0,0,189.9,15.6,0,75,4.015,4.025,4.022,4.014,0,0,7.776,92.66,81.38882642334,3.608924,6,P-GPS,
531400,2023-05-16 19:07:45,52.208797234597,0.0699657042600946,3.608924,3.608924,77.74709402334,81.38882642334,3.937008,0,4.117126116,0.45588584136,27,5,16.073,81.38882642334,3.608924,0,4.117126116,0,0,0,184.9, 0.1, 0.1,0,0,1024,1024,1024,1024,0,0,0,0,189.9,15.6,0,75,4.015,4.025,4.022,4.014,0,0,7.776,92.66,81.38882642334,3.608924,6,P-GPS,
531600,2023-05-16 19:07:45,52.2087972787693,0.069965632969496,3.608924,3.608924,77.74709402334,81.38882642334,3.937008,0,4.132053938,0.47855316492,27,5,16.073,81.38882642334,3.608924,0,4.132053938,0,0,0,185, -0.3, 0.5,0,0,1024,1024,1024,1024,0,0,0,0,189.9,15.6,0,75,4.015,4.025,4.022,4.014,0,0,7.776,92.66,81.38882642334,3.608924,6,P-GPS,
531800,2023-05-16 19:07:45,52.2087973053799,0.0699655437439688,3.608924,3.608924,77.74709402334,81.38882642334,3.937008,0,4.1514437024,0.500738205,27,5,16.073,81.38882642334,3.608924,0,4.1514437024,0,0,0,185, -0.5, 0.6,0,0,1024,1024,1024,1024,0,0,0,0,189.9,15.6,0,75,4.015,4.025,4.022,4.014,0,0,7.776,92.66,81.38882642334,3.608924,6,P-GPS,
532000,2023-05-16 19:07:45,52.2087973001233,0.0699654155676841,3.608924,3.608924,77.74709402334,81.38882642334,3.937008,0,4.1801510524,0.52945867836,27,5,16.068,81.38882642334,3.608924,0,4.1801510524,0,0,0,185, 0.1, 0.4,0,0,1024,1024,1024,1024,0,0,0,0,189.9,15.6,0,75,4.022,4.041,4.035,4.022,0,0,7.762,92.48,81.38882642334,3.608924,6,P-GPS,
532200,2023-05-16 19:07:45,52.2087972830324,0.0699652769149406,3.608924,3.608924,77.74709402334,81.38882642334,3.937008,0,4.211450266,0.56107941428,26,5,16.068,81.38882642334,3.608924,0,4.211450266,0,0,0,185.1, 0.4, 0.1,0,0,1024,1024,1024,1024,0,0,0,0,189.9,15.6,0,75,4.022,4.041,4.035,4.022,0,0,7.762,92.48,81.38882642334,3.608924,6,P-GPS,
532400,2023-05-16 19:07:45,52.2087972787502,0.069965181052284,3.608924,3.608924,77.74709402334,81.38882642334,3.937008,0,4.232939768,0.58256891628,26,5,16.068,81.38882642334,3.608924,0,4.232939768,0,0,0,185.1, 0.7, 0.2,0,0,1024,1024,1024,1024,0,0,0,0,189.9,15.6,0,75,4.022,4.041,4.035,4.022,0,0,7.762,92.48,81.38882642334,3.608924,6,P-GPS,
532600,2023-05-16 19:07:46,52.2087973067485,0.0699651164425031,3.608924,3.608924,77.74709402334,81.38882642334,3.937008,0,4.2468177212,0.60025920556,26,5,16.068,81.38882642334,3.608924,0,4.2468177212,0,0,0,185.1, 0.7, 0.4,0,0,1024,1024,1024,1024,0,0,0,0,189.9,15.6,0,75,4.022,4.041,4.035,4.022,0,0,7.762,92.48,81.38882642334,3.608924,6,P-GPS,
532800,2023-05-16 19:07:46,52.2087973640228,0.0699650639046785,3.608924,3.608924,77.74709402334,81.38882642334,3.937008,0,4.2574804512,0.62423230344,26,5,16.068,81.38882642334,3.608924,0,4.2574804512,0,0,0,185.1, 0.5, 0.5,0,0,1024,1024,1024,1024,0,0,0,0,189.9,15.6,0,75,4.022,4.041,4.035,4.022,0,0,7.762,92.48,81.38882642334,3.608924,6,P-GPS,
533000,2023-05-16 19:07:46,52.2087974364298,0.0699650380691543,3.608924,3.608924,77.74709402334,81.38882642334,3.937008,0,4.2620736272,0.65127298672,26,5,16.064,81.38882642334,3.608924,0,4.2620736272,0,0,0,185.1, 0.5, 0.6,0,0,1024,1024,1024,1024,0,0,0,0,189.9,15.6,0,75,4.011,4.023,4.019,4.011,0,0,7.133,92.66,81.38882642334,3.608924,6,P-GPS,
533200,2023-05-16 19:07:46,52.2087975137643,0.0699650107255094,3.608924,3.5761156,77.77990242334,81.38882642334,3.937008,0,4.267060504,0.68014437872,26,5,16.064,81.38882642334,3.608924,0,4.267060504,0,0,0,185.1, 0.6, 0.7,0,0,1024,1024,1024,1024,0,0,0,0,189.9,15.6,0,75,4.011,4.023,4.019,4.011,0,0,7.133,92.66,81.38882642334,3.608924,6,P-GPS,
533400,2023-05-16 19:07:46,52.2087976097388,0.0699649820869427,3.608924,3.5761156,77.77990242334,81.38882642334,3.937008,0,4.2723754648,0.71574149272,26,5,16.064,81.38882642334,3.608924,0,4.2723754648,0,0,0,185.2, 0.4, 0.4,0,0,1024,1024,1024,1024,0,0,0,0,189.9,15.6,0,75,4.011,4.023,4.019,4.011,0,0,7.133,92.66,81.38882642334,3.608924,6,P-GPS,
533600,2023-05-16 19:07:47,52.2087977219198,0.0699649411107947,3.608924,3.5761156,77.77990242334,81.38882642334,3.937008,0,4.2806431816,0.75768375128,26,5,16.064,81.38882642334,3.608924,0,4.2806431816,0,0,0,185.2, 0.5, 0.3,0,0,1024,1024,1024,1024,0,0,0,0,189.9,15.6,0,75,4.011,4.023,4.019,4.011,0,0,7.133,92.66,81.38882642334,3.608924,6,P-GPS,
533800,2023-05-16 19:07:47,52.2087978238654,0.0699649066459538,3.608924,3.5761156,77.77990242334,81.38882642334,3.937008,0,4.2878610296,0.79566603596,26,5,16.064,81.38882642334,3.608924,0,4.2878610296,0,0,0,185.2, 0.5, 0.4,0,0,1024,1024,1024,1024,0,0,0,0,189.9,15.6,0,75,4.011,4.023,4.019,4.011,0,0,7.133,92.66,81.38882642334,3.608924,6,P-GPS,
534000,2023-05-16 19:07:47,52.208797926505,0.0699648819585586,3.608924,3.5761156,77.77990242334,81.38882642334,3.937008,0,4.2932087988,0.83352036788,26,5,16.053,81.38882642334,3.608924,0,4.2932087988,0,0,0,185.2, 0.5, 0.3,0,0,1024,1024,1024,1024,0,0,0,0,189.9,15.6,0,75,4.009,4.021,4.017,4.01,0,0,7.561,92.66,81.38882642334,3.608924,6,P-GPS,
534200,2023-05-16 19:07:47,52.2087980404764,0.0699648794316263,3.937008,3.9041996,77.77990242334,81.71691042334,3.937008,0,4.293963392,0.87510501488,26,5,16.053,81.71691042334,3.937008,0,4.293963392,0,0,0,185.2, 0.4, 0.1,0,0,1024,1024,1024,1024,0,0,0,0,189.9,15.6,0,75,4.009,4.021,4.017,4.01,0,0,7.561,92.66,81.71691042334,3.937008,6,P-GPS,
534400,2023-05-16 19:07:47,52.2087981360831,0.0699648875978468,3.937008,3.9041996,77.77990242334,81.71691042334,3.937008,0,4.2926182476,0.91003611836,26,5,16.053,81.71691042334,3.937008,0,4.293963392,0,0,0,185.2, 0.5, 0.3,0,0,1024,1024,1024,1024,0,0,0,0,189.9,15.6,0,75,4.009,4.021,4.017,4.01,0,0,7.561,92.66,81.71691042334,3.937008,6,P-GPS,
534600,2023-05-16 19:07:48,52.2087982307849,0.0699649084861058,3.937008,3.9041996,77.77990242334,81.71691042334,3.937008,0,4.288714048,0.94490160504,26,5,16.053,81.71691042334,3.937008,0,4.293963392,0,0,0,185.2, 0.4, 0.2,0,0,1024,1024,1024,1024,0,0,0,0,189.9,15.6,0,75,4.009,4.021,4.017,4.01,0,0,7.561,92.66,81.71691042334,3.937008,6,P-GPS,
534800,2023-05-16 19:07:48,52.2087983156352,0.0699649475137547,3.937008,3.9041996,77.77990242334,81.71691042334,3.937008,0,4.2809056488,0.9770669604,26,5,16.053,81.71691042334,3.937008,0,4.293963392,0,0,0,185.2, 0.4, 0.2,0,0,1024,1024,1024,1024,0,0,0,0,189.9,15.6,0,75,4.009,4.021,4.017,4.01,0,0,7.561,92.66,81.71691042334,3.937008,6,P-GPS,
535000,2023-05-16 19:07:48,52.2087983974208,0.0699650047699178,3.937008,3.9041996,77.77990242334,81.71691042334,3.937008,0,4.26919305,1.00953415304,26,5,16.045,81.71691042334,3.937008,0,4.293963392,0,0,0,185.2, 0.5, 0.4,0,0,1024,1024,1024,1024,0,0,0,0,189.9,15.6,0,75,4.007,4.017,4.015,4.009,0,0,7.557,92.66,81.71691042334,3.937008,6,P-GPS,
535200,2023-05-16 19:07:48,52.2087984869536,0.0699650529319204,3.937008,3.9041996,77.77990242334,81.71691042334,3.937008,0,4.2598754644,1.0439304796,26,5,16.045,81.71691042334,3.937008,0,4.293963392,0,0,0,185.2, 0.5, 0.4,0,0,1024,1024,1024,1024,0,0,0,0,189.9,15.6,0,75,4.007,4.017,4.015,4.009,0,0,7.557,92.66,81.71691042334,3.937008,6,P-GPS,
535400,2023-05-16 19:07:49,52.2087985640878,0.0699650905213498,3.937008,3.9041996,77.77990242334,81.71691042334,3.937008,0,4.2529200836,1.07330055928,26,5,16.045,81.71691042334,3.937008,0,4.293963392,0,0,0,185.2, 0.7, 0.4,0,0,1024,1024,1024,1024,0,0,0,0,189.9,15.6,0,75,4.007,4.017,4.015,4.009,0,0,7.557,92.66,81.71691042334,3.937008,6,P-GPS,
535600,2023-05-16 19:07:49,52.2087986522059,0.0699651383286033,3.937008,3.9041996,77.77990242334,81.71691042334,3.937008,0,4.2441274324,1.10718179396,26,5,16.045,81.71691042334,3.937008,0,4.293963392,0,0,0,185.2, 0.6, 0.5,0,0,1024,1024,1024,1024,0,0,0,0,189.9,15.6,0,75,4.007,4.017,4.015,4.009,0,0,7.557,92.66,81.71691042334,3.937008,6,P-GPS,
535800,2023-05-16 19:07:49,52.208798741321,0.0699651721800602,3.937008,3.9041996,77.77990242334,81.71691042334,3.937008,0,4.2387468548,1.14056434096,26,5,16.045,81.71691042334,3.937008,0,4.293963392,0,0,0,185.2, 0.4, 0.3,0,0,1024,1024,1024,1024,0,0,0,0,189.9,15.6,0,75,4.007,4.017,4.015,4.009,0,0,7.557,92.66,81.71691042334,3.937008,6,P-GPS,
536000,2023-05-16 19:07:49,52.2087988267631,0.0699652118473062,3.937008,3.9041996,77.77990242334,81.71691042334,3.937008,0,4.2321851748,1.17297247848,26,5,16.05,81.71691042334,3.937008,0,4.293963392,0,0,0,185.2, 0.4, 0.2,0,0,1024,1024,1024,1024,0,0,0,0,189.9,15.6,0,75,4.009,4.017,4.016,4.009,0,0,7.216,92.84,81.71691042334,3.937008,6,P-GPS,
536200,2023-05-16 19:07:49,52.2087989098514,0.0699652490889766,3.937008,3.9041996,77.77990242334,81.71691042334,3.937008,0,4.2263452796,1.2044127682,26,5,16.05,81.71691042334,3.937008,0,4.293963392,0,0,0,185.2, 0.6, 0.4,0,0,1024,1024,1024,1024,0,0,0,0,189.9,15.6,0,75,4.009,4.017,4.016,4.009,0,0,7.216,92.84,81.71691042334,3.937008,6,P-GPS,
536400,2023-05-16 19:07:50,52.2087990019108,0.0699652743198545,3.937008,3.9041996,77.77990242334,81.71691042334,3.937008,0,4.2237206076,1.2384678874,26,5,16.05,81.71691042334,3.937008,0,4.293963392,0,0,0,185.2, 0.6, 0.4,0,0,1024,1024,1024,1024,0,0,0,0,189.9,15.6,0,75,4.009,4.017,4.016,4.009,0,0,7.216,92.84,81.71691042334,3.937008,6,P-GPS,
536600,2023-05-16 19:07:50,52.2087990831368,0.0699652882529331,3.937008,3.9041996,77.77990242334,81.71691042334,3.937008,0,4.2234581404,1.26826775712,26,5,16.05,81.71691042334,3.937008,0,4.293963392,0,0,0,185.2, 0.5, 0.4,0,0,1024,1024,1024,1024,0,0,0,0,189.9,15.6,0,75,4.009,4.017,4.016,4.009,0,0,7.216,92.84,81.71691042334,3.937008,6,P-GPS,
536800,2023-05-16 19:07:50,52.2087991618174,0.0699653160946249,3.937008,3.9041996,77.77990242334,81.71691042334,3.937008,0,4.2202429172,1.29764111764,26,5,16.05,81.71691042334,3.937008,0,4.293963392,0,0,0,185.2, 0.7, 0.6,0,0,1024,1024,1024,1024,0,0,0,0,189.9,15.6,0,75,4.009,4.017,4.016,4.009,0,0,7.216,92.84,81.71691042334,3.937008,6,P-GPS,
537000,2023-05-16 19:07:50,52.2087992537136,0.0699653108083383,3.937008,3.9041996,77.77990242334,81.71691042334,3.937008,0,4.2251313688,1.33119098748,26,5,16.028,81.71691042334,3.937008,0,4.293963392,0,0,0,185.2, 0.6, 0.5,0,0,1024,1024,1024,1024,0,0,0,0,189.9,15.6,0,75,4.005,4.012,4.011,4.003,0,0,7.455,92.84,81.71691042334,3.937008,6,P-GPS,
537200,2023-05-16 19:07:50,52.2087993344502,0.0699652753718692,3.937008,3.9041996,77.77990242334,81.71691042334,3.937008,0,4.2364830752,1.36169295696,26,5,16.028,81.71691042334,3.937008,0,4.293963392,0,0,0,185.2, 0.5, 0.3,0,0,1024,1024,1024,1024,0,0,0,0,189.9,15.6,0,75,4.005,4.012,4.011,4.003,0,0,7.455,92.84,81.71691042334,3.937008,6,P-GPS,
537400,2023-05-16 19:07:51,52.2087994079345,0.069965221366117,3.937008,3.9041996,77.77990242334,81.71691042334,3.937008,0,4.2517717896,1.39109912588,26,5,16.028,81.71691042334,3.937008,0,4.293963392,0,0,0,185.2, 0.5, 0.3,0,0,1024,1024,1024,1024,0,0,0,0,189.9,15.6,0,75,4.005,4.012,4.011,4.003,0,0,7.455,92.84,81.71691042334,3.937008,6,P-GPS,
537600,2023-05-16 19:07:51,52.2087994842752,0.0699651696129346,3.937008,3.9041996,77.77990242334,81.71691042334,3.937008,0,4.2668636536,1.421259888,26,5,16.028,81.71691042334,3.937008,0,4.293963392,0,0,0,185.2, 0.6, 0.4,0,0,1024,1024,1024,1024,0,0,0,0,189.9,15.6,0,75,4.005,4.012,4.011,4.003,0,0,7.455,92.84,81.71691042334,3.937008,6,P-GPS,
537800,2023-05-16 19:07:51,52.2087995467478,0.0699651327697016,3.937008,3.8713912,77.81271082334,81.71691042334,3.937008,0,4.2781169348,1.44549545308,26,5,16.028,81.71691042334,3.937008,0,4.293963392,0,0,0,185.2, 0.5, 0.3,0,0,1024,1024,1024,1024,0,0,0,0,189.9,15.6,0,75,4.005,4.012,4.011,4.003,0,0,7.455,92.84,81.71691042334,3.937008,6,P-GPS,
538000,2023-05-16 19:07:51,52.2087996030559,0.0699650969557654,3.937008,3.8713912,77.81271082334,81.71691042334,3.937008,0,4.2889437068,1.46754269788,26,5,16.022,81.71691042334,3.937008,0,4.293963392,0,0,0,185.2, 0.7, 0.5,0,0,1024,1024,1024,1024,0,0,0,0,189.9,15.6,0,75,4.003,4.009,4.008,4.001,0,0,7.628,92.84,81.71691042334,3.937008,6,P-GPS,
538200,2023-05-16 19:07:51,52.2087996704475,0.0699650848890518,3.937008,3.8713912,77.81271082334,81.71691042334,3.937008,0,4.2951773028,1.49228023148,26,5,16.022,81.71691042334,3.937008,0,4.2951773028,0,0,0,185.2, 0.6, 0.4,0,0,1024,1024,1024,1024,0,0,0,0,189.9,15.6,0,75,4.003,4.009,4.008,4.001,0,0,7.628,92.84,81.71691042334,3.937008,6,P-GPS,
538400,2023-05-16 19:07:52,52.2087997240196,0.0699650785350227,3.937008,3.8713912,77.81271082334,81.71691042334,3.937008,0,4.29954082,1.5118766888,26,5,16.022,81.71691042334,3.937008,0,4.29954082,0,0,0,185.2, 0.6, 0.5,0,0,1024,1024,1024,1024,0,0,0,0,189.9,15.6,0,75,4.003,4.009,4.008,4.001,0,0,7.628,92.84,81.71691042334,3.937008,6,P-GPS,
538600,2023-05-16 19:07:52,52.2087997776971,0.0699650783427941,3.937008,3.8713912,77.81271082334,81.71691042334,3.937008,0,4.3025920012,1.53146002276,26,5,16.022,81.71691042334,3.937008,0,4.3025920012,0,0,0,185.2, 0.6, 0.6,0,0,1024,1024,1024,1024,0,0,0,0,189.9,15.6,0,75,4.003,4.009,4.008,4.001,0,0,7.628,92.84,81.71691042334,3.937008,6,P-GPS,
538800,2023-05-16 19:07:52,52.208799825411,0.069965079405294,3.937008,3.8713912,77.81271082334,81.71691042334,3.937008,0,4.305118248,1.54887144064,26,5,16.022,81.71691042334,3.937008,0,4.305118248,0,0,0,185.2, 0.6, 0.7,0,0,1024,1024,1024,1024,0,0,0,0,189.9,15.6,0,75,4.003,4.009,4.008,4.001,0,0,7.628,92.84,81.71691042334,3.937008,6,P-GPS,
539000,2023-05-16 19:07:52,52.2087998806349,0.0699650668265533,3.937008,3.8713912,77.81271082334,81.71691042334,3.937008,0,4.311187802,1.56921592948,27,5,16.013,81.71691042334,3.937008,0,4.311187802,0,0,0,185.2, 0.5, 0.5,0,0,1024,1024,1024,1024,0,0,0,0,189.9,15.6,0,75,4.002,4.008,4.008,4,0,0,7.637,92.84,81.71691042334,3.937008,6,P-GPS,
539200,2023-05-16 19:07:52,52.2087999266012,0.0699650468574965,3.937008,3.8713912,77.81271082334,81.71691042334,3.937008,0,4.31840565,1.58656829224,27,5,16.013,81.71691042334,3.937008,0,4.31840565,0,0,0,185.2, 0.5, 0.5,0,0,1024,1024,1024,1024,0,0,0,0,189.9,15.6,0,75,4.002,4.008,4.008,4,0,0,7.637,92.84,81.71691042334,3.937008,6,P-GPS,
539400,2023-05-16 19:07:53,52.208799970732,0.069965051470983,3.937008,3.8713912,77.81271082334,81.71691042334,3.937008,0,4.3201116868,1.60270346336,26,5,16.013,81.71691042334,3.937008,0,4.3201116868,0,0,0,185.2, 0.5, 0.5,0,0,1024,1024,1024,1024,0,0,0,0,189.9,15.6,0,75,4.002,4.008,4.008,4,0,0,7.637,92.84,81.71691042334,3.937008,6,P-GPS,
539600,2023-05-16 19:07:53,52.2088000027246,0.0699650563396092,3.937008,3.8713912,77.81271082334,81.71691042334,3.937008,0,4.3210959388,1.61442590468,26,5,16.013,81.71691042334,3.937008,0,4.3210959388,0,0,0,185.2, 0.5, 0.4,0,0,1024,1024,1024,1024,0,0,0,0,189.9,15.6,0,75,4.002,4.008,4.008,4,0,0,7.637,92.84,81.71691042334,3.937008,6,P-GPS,
539800,2023-05-16 19:07:53,52.208800033415,0.0699650668929595,3.937008,3.8713912,77.81271082334,81.71691042334,3.937008,0,4.3207350464,1.6258694746,26,5,16.013,81.71691042334,3.937008,0,4.3210959388,0,0,0,185.2, 0.5, 0.5,0,0,1024,1024,1024,1024,0,0,0,0,189.9,15.6,0,75,4.002,4.008,4.008,4,0,0,7.637,92.84,81.71691042334,3.937008,6,P-GPS,
540000,2023-05-16 19:07:53,52.2088000753917,0.0699650906349395,3.937008,3.8713912,77.81271082334,81.71691042334,3.937008,0,4.3182744164,1.64208010504,26,5,16.01,81.71691042334,3.937008,0,4.3210959388,0,0,0,185.2, 0.5, 0.5,0,0,1024,1024,1024,1024,0,0,0,0,189.9,15.6,0,75,4,4.007,4.007,3.999,0,0,7.515,93.02,81.71691042334,3.937008,6,P-GPS,
540200,2023-05-16 19:07:53,52.2088001296567,0.0699651212831689,3.937008,3.8713912,77.81271082334,81.71691042334,3.937008,0,4.3151904268,1.66302826844,26,5,16.01,81.71691042334,3.937008,0,4.3210959388,0,0,0,185.2, 0.6, 0.5,0,0,1024,1024,1024,1024,0,0,0,0,189.9,15.6,0,75,4,4.007,4.007,3.999,0,0,7.515,93.02,81.71691042334,3.937008,6,P-GPS,
540400,2023-05-16 19:07:53,52.2088001766927,0.0699651576178698,3.937008,3.8713912,77.81271082334,81.71691042334,3.937008,0,4.3104332088,1.68201777036,26,5,16.01,81.71691042334,3.937008,0,4.3210959388,0,0,0,185.2, 0.6, 0.6,0,0,1024,1024,1024,1024,0,0,0,0,189.9,15.6,0,75,4,4.007,4.007,3.999,0,0,7.515,93.02,81.71691042334,3.937008,6,P-GPS,
540600,2023-05-16 19:07:54,52.2088002285568,0.0699651913697174,3.937008,3.8713912,77.81271082334,81.71691042334,3.937008,0,4.3066602428,1.70238850592,26,5,16.01,81.71691042334,3.937008,0,4.3210959388,0,0,0,185.2, 0.5, 0.5,0,0,1024,1024,1024,1024,0,0,0,0,189.9,15.6,0,75,4,4.007,4.007,3.999,0,0,7.515,93.02,81.71691042334,3.937008,6,P-GPS,
540800,2023-05-16 19:07:54,52.208800282184,0.0699652352555074,3.937008,3.8713912,77.81271082334,81.71691042334,3.937008,0,4.3009187728,1.72427498956,26,5,16.01,81.71691042334,3.937008,0,4.3210959388,0,0,0,185.2, 0.5, 0.6,0,0,1024,1024,1024,1024,0,0,0,0,189.9,15.6,0,75,4,4.007,4.007,3.999,0,0,7.515,93.02,81.71691042334,3.937008,6,P-GPS,
541000,2023-05-16 19:07:54,52.2088003196589,0.0699652931075791,3.937008,3.8713912,77.81271082334,81.71691042334,3.937008,0,4.291010636,1.74309716864,26,5,16.005,81.71691042334,3.937008,0,4.3210959388,0,0,0,185.2, 0.5, 0.7,0,0,1024,1024,1024,1024,0,0,0,0,189.9,15.6,0,75,3.997,4.006,4.005,3.997,0,0,7.602,93.02,81.71691042334,3.937008,6,P-GPS,
541200,2023-05-16 19:07:54,52.2088003632237,0.0699653516062379,3.937008,3.8713912,77.81271082334,81.71691042334,3.937008,0,4.2814633916,1.7636811588,26,5,16.005,81.71691042334,3.937008,0,4.3210959388,0,0,0,185.2, 0.5, 0.5,0,0,1024,1024,1024,1024,0,0,0,0,189.9,15.6,0,75,3.997,4.006,4.005,3.997,0,0,7.602,93.02,81.71691042334,3.937008,6,P-GPS,
541400,2023-05-16 19:07:54,52.2088004040605,0.0699654124308628,3.937008,3.8713912,77.81271082334,81.71691042334,3.937008,0,4.2712927876,1.78385504396,26,5,16.005,81.71691042334,3.937008,0,4.3210959388,0,0,0,185.2, 0.8, 0.7,0,0,1024,1024,1024,1024,0,0,0,0,189.9,15.6,0,75,3.997,4.006,4.005,3.997,0,0,7.602,93.02,81.71691042334,3.937008,6,P-GPS,
541600,2023-05-16 19:07:55,52.2088004634137,0.069965476205323,3.937008,3.8713912,77.81271082334,81.71691042334,3.937008,0,4.2620080104,1.80978024164,26,5,16.005,81.71691042334,3.937008,0,4.3210959388,0,0,0,185.2, 0.6, 0.6,0,0,1024,1024,1024,1024,0,0,0,0,189.9,15.6,0,75,3.997,4.006,4.005,3.997,0,0,7.602,93.02,81.71691042334,3.937008,6,P-GPS,
541800,2023-05-16 19:07:55,52.2088005272093,0.0699655439047418,3.937008,3.8385828,77.84551922334,81.71691042334,3.937008,0,4.2523623408,1.83754599056,26,5,16.005,81.71691042334,3.937008,0,4.3210959388,0,0,0,185.2, 0.7, 0.8,0,0,1024,1024,1024,1024,0,0,0,0,189.9,15.6,0,75,3.997,4.006,4.005,3.997,0,0,7.602,93.02,81.71691042334,3.937008,6,P-GPS,
542000,2023-05-16 19:07:55,52.2088005834933,0.0699656085267554,3.937008,3.8385828,77.84551922334,81.71691042334,3.937008,0,4.2429135216,1.86265425908,26,5,15.999,81.71691042334,3.937008,0,4.3210959388,0,0,0,185.2, 0.5, 0.7,0,0,1024,1024,1024,1024,0,0,0,0,189.9,15.6,0,75,3.995,4.004,4.003,3.995,0,0,7.593,93.02,81.71691042334,3.937008,6,P-GPS,
542200,2023-05-16 19:07:55,52.2088006468092,0.0699656759745295,3.937008,3.8385828,77.84551922334,81.71691042334,3.937008,0,4.233595936,1.8902395618,26,5,15.999,81.71691042334,3.937008,0,4.3210959388,0,0,0,185.2, 0.4, 0.5,0,0,1024,1024,1024,1024,0,0,0,0,189.9,15.6,0,75,3.995,4.004,4.003,3.995,0,0,7.593,93.02,81.71691042334,3.937008,6,P-GPS,
542400,2023-05-16 19:07:55,52.2088006974428,0.0699657346033795,3.937008,3.8385828,77.84551922334,81.71691042334,3.937008,0,4.225229794,1.912893762,26,5,15.999,81.71691042334,3.937008,0,4.3210959388,0,0,0,185.2, 0.6, 0.7,0,0,1024,1024,1024,1024,0,0,0,0,189.9,15.6,0,75,3.995,4.004,4.003,3.995,0,0,7.593,93.02,81.71691042334,3.937008,6,P-GPS,
542600,2023-05-16 19:07:56,52.2088007509319,0.0699657717244702,3.937008,3.8385828,77.84551922334,81.71691042334,3.937008,0,4.2219161456,1.93409783092,26,5,15.999,81.71691042334,3.937008,0,4.3210959388,0,0,0,185.2, 0.5, 0.5,0,0,1024,1024,1024,1024,0,0,0,0,189.9,15.6,0,75,3.995,4.004,4.003,3.995,0,0,7.593,93.02,81.71691042334,3.937008,6,P-GPS,
542800,2023-05-16 19:07:56,52.2088008147992,0.0699658168239217,3.937008,3.8385828,77.84551922334,81.71691042334,3.937008,0,4.2178807124,1.95948825168,26,5,15.999,81.71691042334,3.937008,0,4.3210959388,0,0,0,185.2, 0.4, 0.5,0,0,1024,1024,1024,1024,0,0,0,0,189.9,15.6,0,75,3.995,4.004,4.003,3.995,0,0,7.593,93.02,81.71691042334,3.937008,6,P-GPS,
543000,2023-05-16 19:07:56,52.208800863841,0.0699658662904575,3.937008,3.8385828,77.84551922334,81.71691042334,3.937008,0,4.2116799248,1.98052499776,26,5,15.992,81.71691042334,3.937008,0,4.3210959388,0,0,0,185.2, 0.5, 0.4,0,0,1024,1024,1024,1024,0,0,0,0,189.9,15.6,0,75,3.993,4.003,4.002,3.994,0,0,7.604,93.02,81.71691042334,3.937008,6,P-GPS,
543200,2023-05-16 19:07:56,52.2088009137293,0.0699659053582997,3.937008,3.8385828,77.84551922334,81.71691042334,3.937008,0,4.2079397672,2.00071200628,26,5,15.992,81.71691042334,3.937008,0,4.3210959388,0,0,0,185.2, 0.4, 0.2,0,0,1024,1024,1024,1024,0,0,0,0,189.9,15.6,0,75,3.993,4.003,4.002,3.994,0,0,7.604,93.02,81.71691042334,3.937008,6,P-GPS,
543400,2023-05-16 19:07:56,52.2088009499523,0.0699659568213916,3.937008,3.8385828,77.84551922334,81.71691042334,3.937008,0,4.2002626016,2.01823497272,26,5,15.992,81.71691042334,3.937008,0,4.3210959388,0,0,0,185.2, 0.6, 0.2,0,0,1024,1024,1024,1024,0,0,0,0,189.9,15.6,0,75,3.993,4.003,4.002,3.994,0,0,7.604,93.02,81.71691042334,3.937008,6,P-GPS,
543600,2023-05-16 19:07:57,52.2088009875852,0.0699660454501364,3.937008,3.8385828,77.84551922334,81.71691042334,3.937008,0,4.1847770368,2.04234258504,26,5,15.992,81.71691042334,3.937008,0,4.3210959388,0,0,0,185.2, 0.6, 0.4,0,0,1024,1024,1024,1024,0,0,0,0,189.9,15.6,0,75,3.993,4.003,4.002,3.994,0,0,7.604,93.02,81.71691042334,3.937008,6,P-GPS,
543800,2023-05-16 19:07:57,52.2088010211733,0.0699661404800936,3.937008,3.8385828,77.84551922334,81.71691042334,3.937008,0,4.1676182436,2.06687014488,26,5,15.992,81.71691042334,3.937008,0,4.3210959388,0,0,0,185.2, 0.5, 0.4,0,0,1024,1024,1024,1024,0,0,0,0,189.9,15.6,0,75,3.993,4.003,4.002,3.994,0,0,7.604,93.02,81.71691042334,3.937008,6,P-GPS,
544000,2023-05-16 19:07:57,52.2088010576598,0.0699662431694869,3.937008,3.8385828,77.84551922334,81.71691042334,3.937008,0,4.1491799228,2.09340885964,27,5,15.988,81.71691042334,3.937008,0,4.3210959388,0,0,0,185.2, 0.5, 0.6,0,0,1024,1024,1024,1024,0,0,0,0,189.9,15.6,0,75,3.993,4.002,4.001,3.993,0,0,7.57,93.02,81.71691042334,3.937008,6,P-GPS,
544200,2023-05-16 19:07:57,52.2088010964181,0.0699663745350189,3.937008,3.8385828,77.84551922334,81.71691042334,3.937008,0,4.1248688984,2.12600728588,27,5,15.988,81.71691042334,3.937008,0,4.3210959388,0,0,0,185.2, 0.5, 0.7,0,0,1024,1024,1024,1024,0,0,0,0,189.9,15.6,0,75,3.993,4.002,4.001,3.993,0,0,7.57,93.02,81.71691042334,3.937008,6,P-GPS,
544400,2023-05-16 19:07:58,52.2088011471995,0.0699664829598146,3.937008,3.8385828,77.84551922334,81.71691042334,3.937008,0,4.1068898952,2.15651581704,27,5,15.988,81.71691042334,3.937008,0,4.3210959388,0,0,0,185.2, 0.3, 0.6,0,0,1024,1024,1024,1024,0,0,0,0,189.9,15.6,0,75,3.993,4.002,4.001,3.993,0,0,7.57,93.02,81.71691042334,3.937008,6,P-GPS,
544600,2023-05-16 19:07:58,52.2088011895778,0.0699665938163022,3.937008,3.8385828,77.84551922334,81.71691042334,3.937008,0,4.087598556,2.1857284164,27,5,15.988,81.71691042334,3.937008,0,4.3210959388,0,0,0,185.2, 0.6, 0.8,0,0,1024,1024,1024,1024,0,0,0,0,189.9,15.6,0,75,3.993,4.002,4.001,3.993,0,0,7.57,93.02,81.71691042334,3.937008,6,P-GPS,
544800,2023-05-16 19:07:58,52.2088012400894,0.0699666920040511,3.937008,3.8385828,77.84551922334,81.71691042334,3.937008,0,4.0720473744,2.21438983464,27,5,15.988,81.71691042334,3.937008,0,4.3210959388,0,0,0,185.2, 0.4, 0.6,0,0,1024,1024,1024,1024,0,0,0,0,189.9,15.6,0,75,3.993,4.002,4.001,3.993,0,0,7.57,93.02,81.71691042334,3.937008,6,P-GPS,
545000,2023-05-16 19:07:58,52.2088012828746,0.0699667556404563,3.937008,3.8385828,77.84551922334,81.71691042334,3.937008,0,4.063156298,2.23551188256,27,5,15.985,81.71691042334,3.937008,0,4.3210959388,0,0,0,185.2, 0.4, 0.3,0,0,1024,1024,1024,1024,0,0,0,0,189.9,15.6,0,75,3.992,4.002,3.999,3.991,0,0,7.546,93.02,81.71691042334,3.937008,6,P-GPS,
545200,2023-05-16 19:07:58,52.2088013044975,0.0699668091193273,3.937008,3.8385828,77.84551922334,81.71691042334,3.937008,0,4.054133988,2.24983603,27,5,15.985,81.71691042334,3.937008,0,4.3210959388,0,0,0,185.2, 0.5, 0.5,0,0,1024,1024,1024,1024,0,0,0,0,189.9,15.6,0,75,3.992,4.002,3.999,3.991,0,0,7.546,93.02,81.71691042334,3.937008,6,P-GPS,
545400,2023-05-16 19:07:59,52.2088013328973,0.069966872921748,3.937008,3.8385828,77.84551922334,81.71691042334,3.937008,0,4.0437337252,2.26746726416,27,5,15.985,81.71691042334,3.937008,0,4.3210959388,0,0,0,185.2, 0.5, 0.2,0,0,1024,1024,1024,1024,0,0,0,0,189.9,15.6,0,75,3.992,4.002,3.999,3.991,0,0,7.546,93.02,81.71691042334,3.937008,6,P-GPS,
545600,2023-05-16 19:07:59,52.2088013567942,0.069966950501717,3.937008,3.8385828,77.84551922334,81.71691042334,3.937008,0,4.0299213888,2.28687999444,27,5,15.985,81.71691042334,3.937008,0,4.3210959388,0,0,0,185.2, 0.4, 0.2,0,0,1024,1024,1024,1024,0,0,0,0,189.9,15.6,0,75,3.992,4.002,3.999,3.991,0,0,7.546,93.02,81.71691042334,3.937008,6,P-GPS,
545800,2023-05-16 19:07:59,52.2088013841526,0.0699670341762064,3.937008,3.8385828,77.84551922334,81.71691042334,3.937008,0,4.015256034,2.30808406336,27,5,15.985,81.71691042334,3.937008,0,4.3210959388,0,0,0,185.2, 0.6, 0.3,0,0,1024,1024,1024,1024,0,0,0,0,189.9,15.6,0,75,3.992,4.002,3.999,3.991,0,0,7.546,93.02,81.71691042334,3.937008,6,P-GPS,
546000,2023-05-16 19:07:59,52.2088014135387,0.0699671428176962,3.937008,3.8385828,77.84551922334,81.71691042334,3.937008,0,3.9956038024,2.33463590148,27,5,15.98,81.71691042334,3.937008,0,4.3210959388,0,0,0,185.2, 0.5, 0.4,0,0,1024,1024,1024,1024,0,0,0,0,189.9,15.6,0,74,3.99,4,3.998,3.991,0,0,7.539,93.2,81.71691042334,3.937008,6,P-GPS,
546200,2023-05-16 19:07:59,52.2088014320491,0.0699672690952866,3.937008,3.8385828,77.84551922334,81.71691042334,3.937008,0,3.9710303108,2.3636647738,27,5,15.98,81.71691042334,3.937008,0,4.3210959388,0,0,0,185.1, 0.5, 0.6,0,0,1024,1024,1024,1024,0,0,0,0,189.9,15.6,0,74,3.99,4,3.998,3.991,0,0,7.539,93.2,81.71691042334,3.937008,6,P-GPS,
546400,2023-05-16 19:08:00,52.2088014589229,0.0699673900988231,3.937008,3.8385828,77.84551922334,81.71691042334,3.937008,0,3.9486221736,2.3924377406,27,5,15.98,81.71691042334,3.937008,0,4.3210959388,0,0,0,185.2, 0.7, 0.7,0,0,1024,1024,1024,1024,0,0,0,0,189.9,15.6,0,74,3.99,4,3.998,3.991,0,0,7.539,93.2,81.71691042334,3.937008,6,P-GPS,
546600,2023-05-16 19:08:00,52.2088014936226,0.0699674913063086,3.937008,3.8385828,77.84551922334,81.71691042334,3.937008,0,3.9313977636,2.41836621912,27,5,15.98,81.71691042334,3.937008,0,4.3210959388,0,0,0,185.2, 0.7, 0.6,0,0,1024,1024,1024,1024,0,0,0,0,189.9,15.6,0,74,3.99,4,3.998,3.991,0,0,7.539,93.2,81.71691042334,3.937008,6,P-GPS,
546800,2023-05-16 19:08:00,52.2088015268189,0.069967558588067,3.937008,3.8385828,77.84551922334,81.71691042334,3.937008,0,3.921259968,2.4376805242,27,5,15.98,81.71691042334,3.937008,0,4.3210959388,0,0,0,185.2, 0.6, 0.4,0,0,1024,1024,1024,1024,0,0,0,0,189.9,15.6,0,74,3.99,4,3.998,3.991,0,0,7.539,93.2,81.71691042334,3.937008,6,P-GPS,
547000,2023-05-16 19:08:00,52.2088015509711,0.069967595644499,3.937008,3.8385828,77.84551922334,81.71691042334,3.937008,0,3.9164043248,2.44977370044,27,5,15.975,81.71691042334,3.937008,0,4.3210959388,0,0,0,185.2, 0.6, 0.1,0,0,1024,1024,1024,1024,0,0,0,0,189.9,15.6,0,74,3.989,3.999,3.998,3.992,0,0,7.561,93.2,81.71691042334,3.937008,6,P-GPS,
547200,2023-05-16 19:08:00,52.208801583353,0.0699676574136654,3.937008,3.8385828,77.84551922334,81.71691042334,3.937008,0,3.9074476316,2.46794955404,27,5,15.975,81.71691042334,3.937008,0,4.3210959388,0,0,0,185.2, 0.6, 0.1,0,0,1024,1024,1024,1024,0,0,0,0,189.9,15.6,0,74,3.989,3.999,3.998,3.992,0,0,7.561,93.2,81.71691042334,3.937008,6,P-GPS,
547400,2023-05-16 19:08:00,52.2088016119712,0.0699677599763625,3.937008,3.8385828,77.84551922334,81.71691042334,3.937008,0,3.8894686284,2.49314640524,27,5,15.975,81.71691042334,3.937008,0,4.3210959388,0,0,0,185.2, 0.6, 0.3,0,0,1024,1024,1024,1024,0,0,0,0,189.9,15.6,0,74,3.989,3.999,3.998,3.992,0,0,7.561,93.2,81.71691042334,3.937008,6,P-GPS,
547600,2023-05-16 19:08:01,52.2088016500447,0.0699678713125479,3.937008,3.8385828,77.84551922334,81.71691042334,3.937008,0,3.8709974992,2.52165034316,27,5,15.975,81.71691042334,3.937008,0,4.3210959388,0,0,0,185.2, 0.7, 0.6,0,0,1024,1024,1024,1024,0,0,0,0,189.9,15.6,0,74,3.989,3.999,3.998,3.992,0,0,7.561,93.2,81.71691042334,3.937008,6,P-GPS,
547800,2023-05-16 19:08:01,52.2088016903814,0.0699679620479434,3.937008,3.8385828,77.84551922334,81.71691042334,3.937008,0,3.8572179712,2.54671267992,27,5,15.975,81.71691042334,3.937008,0,4.3210959388,0,0,0,185.2, 0.7, 0.7,0,0,1024,1024,1024,1024,0,0,0,0,189.9,15.6,0,74,3.989,3.999,3.998,3.992,0,0,7.561,93.2,81.71691042334,3.937008,6,P-GPS,
548000,2023-05-16 19:08:01,52.2088017215553,0.0699680309330631,3.937008,3.8385828,77.84551922334,81.71691042334,3.937008,0,3.8469161336,2.56585966216,27,5,15.971,81.71691042334,3.937008,0,4.3210959388,0,0,0,185.2, 0.6, 0.5,0,0,1024,1024,1024,1024,0,0,0,0,189.9,15.6,0,74,3.988,3.997,3.996,3.989,0,0,7.528,93.2,81.71691042334,3.937008,6,P-GPS,
548200,2023-05-16 19:08:01,52.2088017643235,0.0699680914256568,3.937008,3.8385828,77.84551922334,81.71691042334,3.937008,0,3.8399607528,2.58650926912,27,5,15.971,81.71691042334,3.937008,0,4.3210959388,0,0,0,185.2, 0.6, 0.3,0,0,1024,1024,1024,1024,0,0,0,0,189.9,15.6,0,74,3.988,3.997,3.996,3.989,0,0,7.528,93.2,81.71691042334,3.937008,6,P-GPS,
548400,2023-05-16 19:08:01,52.2088018054586,0.0699681335586714,3.937008,3.8385828,77.84551922334,81.71691042334,3.937008,0,3.8366799128,2.60422580512,27,5,15.971,81.71691042334,3.937008,0,4.3210959388,0,0,0,185.2, 0.5, 0.3,0,0,1024,1024,1024,1024,0,0,0,0,189.9,15.6,0,74,3.988,3.997,3.996,3.989,0,0,7.528,93.2,81.71691042334,3.937008,6,P-GPS,
548600,2023-05-16 19:08:02,52.2088018489436,0.0699681783741488,3.937008,3.8385828,77.84551922334,81.71691042334,3.937008,0,3.8332678392,2.62299220992,27,5,15.971,81.71691042334,3.937008,0,4.3210959388,0,0,0,185.2, 0.5, 0.2,0,0,1024,1024,1024,1024,0,0,0,0,189.9,15.6,0,74,3.988,3.997,3.996,3.989,0,0,7.528,93.2,81.71691042334,3.937008,6,P-GPS,
548800,2023-05-16 19:08:02,52.2088018809737,0.0699682271530305,3.937008,3.8385828,77.84551922334,81.71691042334,3.937008,0,3.8275591776,2.6389764624,27,5,15.971,81.71691042334,3.937008,0,4.3210959388,0,0,0,185.2, 0.7, 0.2,0,0,1024,1024,1024,1024,0,0,0,0,189.9,15.6,0,74,3.988,3.997,3.996,3.989,0,0,7.528,93.2,81.71691042334,3.937008,6,P-GPS,
549000,2023-05-16 19:08:02,52.2088019015375,0.0699683000321364,3.937008,3.8385828,77.84551922334,81.71691042334,3.937008,0,3.815288836,2.65691281468,27,5,15.966,81.71691042334,3.937008,0,4.3210959388,0,0,0,185.2, 0.6, 0.4,0,0,1024,1024,1024,1024,0,0,0,0,189.9,15.6,0,74,3.987,3.996,3.995,3.988,0,0,7.57,93.2,81.71691042334,3.937008,6,P-GPS,
549200,2023-05-16 19:08:02,52.2088019333469,0.0699683628419585,3.937008,3.8385828,77.84551922334,81.71691042334,3.937008,0,3.806758652,2.6751313192,27,5,15.966,81.71691042334,3.937008,0,4.3210959388,0,0,0,185.2, 0.7, 0.5,0,0,1024,1024,1024,1024,0,0,0,0,189.9,15.6,0,74,3.987,3.996,3.995,3.988,0,0,7.57,93.2,81.71691042334,3.937008,6,P-GPS,
549400,2023-05-16 19:08:02,52.2088019718268,0.0699684125505276,3.937008,3.8385828,77.84551922334,81.71691042334,3.937008,0,3.8019358172,2.69303814392,27,5,15.966,81.71691042334,3.937008,0,4.3210959388,0,0,0,185.2, 0.7, 0.6,0,0,1024,1024,1024,1024,0,0,0,0,189.9,15.6,0,74,3.987,3.996,3.995,3.988,0,0,7.57,93.2,81.71691042334,3.937008,6,P-GPS,
549600,2023-05-16 19:08:03,52.2088020105712,0.0699684523794203,3.937008,3.8385828,77.84551922334,81.71691042334,3.937008,0,3.7992455284,2.7097441812,27,5,15.966,81.71691042334,3.937008,0,4.3210959388,0,0,0,185.2, 0.5, 0.4,0,0,1024,1024,1024,1024,0,0,0,0,189.9,15.6,0,74,3.987,3.996,3.995,3.988,0,0,7.57,93.2,81.71691042334,3.937008,6,P-GPS,
549800,2023-05-16 19:08:03,52.208802058661,0.0699684925316065,3.937008,3.8385828,77.84551922334,81.71691042334,3.937008,0,3.797900384,2.72945218708,27,5,15.966,81.71691042334,3.937008,0,4.3210959388,0,0,0,185.2, 0.4, 0.3,0,0,1024,1024,1024,1024,0,0,0,0,189.9,15.6,0,74,3.987,3.996,3.995,3.988,0,0,7.57,93.2,81.71691042334,3.937008,6,P-GPS,
550000,2023-05-16 19:08:03,52.2088020984532,0.0699685210731852,3.937008,3.8385828,77.84551922334,81.71691042334,3.937008,0,3.7978675756,2.74531176764,27,5,15.962,81.71691042334,3.937008,0,4.3210959388,0,0,0,185.2, 0.6, 0.4,0,0,1024,1024,1024,1024,0,0,0,0,189.9,15.6,0,74,3.987,3.995,3.994,3.987,0,0,7.551,93.2,81.71691042334,3.937008,6,P-GPS,
550200,2023-05-16 19:08:03,52.2088021274757,0.0699685488344905,3.937008,3.8385828,77.84551922334,81.71691042334,3.937008,0,3.796424006,2.75758539008,27,5,15.962,81.71691042334,3.937008,0,4.3210959388,0,0,0,185.2, 0.6, 0.4,0,0,1024,1024,1024,1024,0,0,0,0,189.9,15.6,0,74,3.987,3.995,3.994,3.987,0,0,7.551,93.2,81.71691042334,3.937008,6,P-GPS,
550400,2023-05-16 19:08:03,52.2088021732583,0.0699685758609582,3.937008,3.8385828,77.84551922334,81.71691042334,3.937008,0,3.7976707252,2.77534785784,27,5,15.962,81.71691042334,3.937008,0,4.3210959388,0,0,0,185.2, 0.5, 0.3,0,0,1024,1024,1024,1024,0,0,0,0,189.9,15.6,0,74,3.987,3.995,3.994,3.987,0,0,7.551,93.2,81.71691042334,3.937008,6,P-GPS,
550600,2023-05-16 19:08:04,52.2088022195389,0.0699686199319867,3.937008,3.8385828,77.84551922334,81.71691042334,3.937008,0,3.7956366044,2.7948983834,27,5,15.962,81.71691042334,3.937008,0,4.3210959388,0,0,0,185.2, 0.4, 0.2,0,0,1024,1024,1024,1024,0,0,0,0,189.9,15.6,0,74,3.987,3.995,3.994,3.987,0,0,7.551,93.2,81.71691042334,3.937008,6,P-GPS,
550800,2023-05-16 19:08:04,52.2088022503969,0.0699686802035175,3.937008,3.8385828,77.84551922334,81.71691042334,3.937008,0,3.7880250556,2.81245743908,27,5,15.962,81.71691042334,3.937008,0,4.3210959388,0,0,0,185.2, 0.6, 0.5,0,0,1024,1024,1024,1024,0,0,0,0,189.9,15.6,0,74,3.987,3.995,3.994,3.987,0,0,7.551,93.2,81.71691042334,3.937008,6,P-GPS,
551000,2023-05-16 19:08:04,52.2088022720786,0.0699687162210413,3.937008,3.8385828,77.84551922334,81.71691042334,3.937008,0,3.7840224308,2.82374680952,27,5,15.957,81.71691042334,3.937008,0,4.3210959388,0,0,0,185.2, 0.4, 0.4,0,0,1024,1024,1024,1024,0,0,0,0,189.9,14.9,0,74,3.986,3.994,3.993,3.986,0,0,7.583,93.38,81.71691042334,3.937008,6,P-GPS,
551200,2023-05-16 19:08:04,52.2088022754379,0.0699687575099976,3.937008,3.8385828,77.84551922334,81.71691042334,3.937008,0,3.7761484148,2.83305783344,27,5,15.957,81.71691042334,3.937008,0,4.3210959388,0,0,0,185.2, 0.6, 0.3,0,0,1024,1024,1024,1024,0,0,0,0,189.9,12.5,0,74,3.986,3.994,3.993,3.986,0,0,7.583,93.38,81.71691042334,3.937008,6,P-GPS,
551400,2023-05-16 19:08:05,52.2088022890079,0.0699688235737257,3.937008,3.8385828,77.84551922334,81.71691042334,3.937008,0,3.7648295168,2.84863526176,27,5,15.957,81.71691042334,3.937008,0,4.3210959388,0,0,0,185.2, 0.7, 0.5,0,0,1024,1024,1024,1024,0,0,0,0,189.9,9.7,0,74,3.986,3.994,3.993,3.986,0,0,7.583,93.38,81.71691042334,3.937008,6,P-GPS,
551600,2023-05-16 19:08:05,52.2088023149881,0.0699688774449178,3.937008,3.8385828,77.84551922334,81.71691042334,3.937008,0,3.7579725612,2.86396334624,27,5,15.957,81.71691042334,3.937008,0,4.3210959388,0,0,0,185.2, 0.6, 0.5,0,0,1024,1024,1024,1024,0,0,0,0,189.9,6.8,0,74,3.986,3.994,3.993,3.986,0,0,7.583,93.38,81.71691042334,3.937008,6,P-GPS,
551800,2023-05-16 19:08:05,52.2088023369986,0.0699689090691442,3.937008,3.8385828,77.84551922334,81.71691042334,3.937008,0,3.7549869968,2.87466216548,27,5,15.957,81.71691042334,3.937008,0,4.3210959388,0,0,0,185.2, 0.6, 0.6,0,0,1024,1024,1024,1024,0,0,0,0,189.9,4.1,0,74,3.986,3.994,3.993,3.986,0,0,7.583,93.38,81.71691042334,3.937008,6,P-GPS,
552000,2023-05-16 19:08:05,52.2088023571427,0.0699689333886838,3.937008,3.8385828,77.84551922334,81.71691042334,3.937008,0,3.7532481516,2.88380586656,27,5,15.953,81.71691042334,3.937008,0,4.3210959388,0,0,0,185.3, 0.6, 0.4,0,0,1024,1024,1024,1024,0,0,0,0,189.9,2.6,0,74,3.985,3.993,3.993,3.985,0,0,7.584,93.38,81.71691042334,3.937008,6,P-GPS,
552200,2023-05-16 19:08:05,52.2088023927424,0.0699689554871092,3.937008,3.8385828,77.84551922334,81.71691042334,3.937008,0,3.7543964456,2.89770022396,27,5,15.953,81.71691042334,3.937008,0,4.3210959388,0,0,0,185.2, 0.4, 0.3,0,0,1024,1024,1024,1024,0,0,0,0,189.9,2.4,0,74,3.985,3.993,3.993,3.985,0,0,7.584,93.38,81.71691042334,3.937008,6,P-GPS,
552400,2023-05-16 19:08:06,52.2088024259146,0.0699689771696218,3.937008,3.8385828,77.84551922334,81.71691042334,3.937008,0,3.7553150808,2.91073828212,27,5,15.953,81.71691042334,3.937008,0,4.3210959388,0,0,0,185.2, 0.5, 0.4,0,0,1024,1024,1024,1024,0,0,0,0,189.9,2.4,0,74,3.985,3.993,3.993,3.985,0,0,7.584,93.38,81.71691042334,3.937008,6,P-GPS,
552600,2023-05-16 19:08:06,52.2088024625081,0.0699689981601114,3.937008,3.8385828,77.84551922334,81.71691042334,3.937008,0,3.7569555008,2.92489182588,27,5,15.953,81.71691042334,3.937008,0,4.3210959388,0,0,0,185.2, 0.3, 0.3,0,0,1024,1024,1024,1024,0,0,0,0,189.9,2.3,0,74,3.985,3.993,3.993,3.985,0,0,7.584,93.38,81.71691042334,3.937008,6,P-GPS,
552800,2023-05-16 19:08:06,52.2088024887903,0.0699690208605618,3.937008,3.8385828,77.84551922334,81.71691042334,3.937008,0,3.7566274168,2.93574156376,27,5,15.953,81.71691042334,3.937008,0,4.3210959388,0,0,0,185.2, 0.5, 0.4,0,0,1024,1024,1024,1024,0,0,0,0,189.9,2.1,0,74,3.985,3.993,3.993,3.985,0,0,7.584,93.38,81.71691042334,3.937008,6,P-GPS,
553000,2023-05-16 19:08:06,52.2088025030778,0.0699690596959822,3.937008,3.8057744,77.87832762334,81.71691042334,3.937008,0,3.7511812224,2.945866236,27,5,15.948,81.71691042334,3.937008,0,4.3210959388,0,0,0,185.2, 0.5, 0.5,0,0,1024,1024,1024,1024,0,0,0,0,189.9,2,0,74,3.984,3.992,3.992,3.984,0,0,7.596,93.38,81.71691042334,3.937008,6,P-GPS,
553200,2023-05-16 19:08:06,52.2088025267642,0.0699690948091577,3.937008,3.8057744,77.87832762334,81.71691042334,3.937008,0,3.7479988076,2.95754274556,27,5,15.948,81.71691042334,3.937008,0,4.3210959388,0,0,0,185.2, 0.6, 0.7,0,0,1024,1024,1024,1024,0,0,0,0,189.9,1.9,0,74,3.984,3.992,3.992,3.984,0,0,7.596,93.38,81.71691042334,3.937008,6,P-GPS,
553400,2023-05-16 19:08:07,52.208802555776,0.0699691202934278,3.937008,3.8057744,77.87832762334,81.71691042334,3.937008,0,3.7476707236,2.96956374332,27,5,15.948,81.71691042334,3.937008,0,4.3210959388,0,0,0,185.2, 0.6, 0.5,0,0,1024,1024,1024,1024,0,0,0,0,189.9,1.9,0,74,3.984,3.992,3.992,3.984,0,0,7.596,93.38,81.71691042334,3.937008,6,P-GPS,
553600,2023-05-16 19:08:07,52.208802578217,0.0699691367630502,3.937008,3.8057744,77.87832762334,81.71691042334,3.937008,0,3.7480972328,2.97854012156,27,5,15.948,81.71691042334,3.937008,0,4.3210959388,0,0,0,185.2, 0.6, 0.7,0,0,1024,1024,1024,1024,0,0,0,0,189.9,1.9,0,74,3.984,3.992,3.992,3.984,0,0,7.596,93.38,81.71691042334,3.937008,6,P-GPS,
553800,2023-05-16 19:08:07,52.2088025973341,0.0699691453111067,3.937008,3.8057744,77.87832762334,81.71691042334,3.937008,0,3.7495408024,2.98577437376,27,5,15.948,81.71691042334,3.937008,0,4.3210959388,0,0,0,185.2, 0.6, 0.6,0,0,1024,1024,1024,1024,0,0,0,0,189.9,1.9,0,74,3.984,3.992,3.992,3.984,0,0,7.596,93.38,81.71691042334,3.937008,6,P-GPS,
554000,2023-05-16 19:08:07,52.2088026330152,0.0699691390374641,3.937008,3.8057744,77.87832762334,81.71691042334,3.937008,0,3.756725842,2.9988682062,27,5,15.946,81.71691042334,3.937008,0,4.3210959388,0,0,0,185.2, 0.5, 0.6,0,0,1024,1024,1024,1024,0,0,0,0,189.9,1.9,0,74,3.982,3.991,3.991,3.982,0,0,7.561,93.38,81.71691042334,3.937008,6,P-GPS,
554200,2023-05-16 19:08:07,52.208802670685,0.0699691118615823,3.937008,3.8057744,77.87832762334,81.71691042334,3.937008,0,3.7684056324,3.0138944534,27,5,15.946,81.71691042334,3.937008,0,4.3210959388,0,0,0,185.2, 0.6, 0.5,0,0,1024,1024,1024,1024,0,0,0,0,189.9,1.9,0,74,3.982,3.991,3.991,3.982,0,0,7.561,93.38,81.71691042334,3.937008,6,P-GPS,
554400,2023-05-16 19:08:08,52.208802723607,0.0699691025070395,3.937008,3.8057744,77.87832762334,81.71691042334,3.937008,0,3.7791667876,3.03331374536,27,5,15.946,81.71691042334,3.937008,0,4.3210959388,0,0,0,185.2, 0.3, 0.3,0,0,1024,1024,1024,1024,0,0,0,0,189.9,1.9,0,74,3.982,3.991,3.991,3.982,0,0,7.561,93.38,81.71691042334,3.937008,6,P-GPS,
554600,2023-05-16 19:08:08,52.2088027681464,0.0699691197980023,3.937008,3.8057744,77.87832762334,81.71691042334,3.937008,0,3.783300646,3.05001978264,27,5,15.946,81.71691042334,3.937008,0,4.3210959388,0,0,0,185.2, 0.4, 0.3,0,0,1024,1024,1024,1024,0,0,0,0,189.9,1.9,0,74,3.982,3.991,3.991,3.982,0,0,7.561,93.38,81.71691042334,3.937008,6,P-GPS,
554800,2023-05-16 19:08:08,52.2088027932421,0.0699691509390359,3.937008,3.8057744,77.87832762334,81.71691042334,3.937008,0,3.7814633756,3.06152240768,27,5,15.946,81.71691042334,3.937008,0,4.3210959388,0,0,0,185.2, 0.4, 0.4,0,0,1024,1024,1024,1024,0,0,0,0,189.9,1.9,0,74,3.982,3.991,3.991,3.982,0,0,7.561,93.38,81.71691042334,3.937008,6,P-GPS,
555000,2023-05-16 19:08:08,52.2088028194557,0.0699691779987068,3.937008,3.8057744,77.87832762334,81.71691042334,3.937008,0,3.7806103572,3.07283802484,27,5,15.941,81.71691042334,3.937008,0,4.3210959388,0,0,0,185.2, 0.6, 0.4,0,0,1024,1024,1024,1024,0,0,0,0,189.9,1.9,0,74,3.981,3.99,3.99,3.981,0,0,7.599,93.38,81.71691042334,3.937008,6,P-GPS,
555200,2023-05-16 19:08:08,52.2088028463098,0.0699691878102294,3.937008,3.8057744,77.87832762334,81.71691042334,3.937008,0,3.7833334544,3.08287739524,27,5,15.941,81.71691042334,3.937008,0,4.3210959388,0,0,0,185.2, 0.6, 0.2,0,0,1024,1024,1150,1024,0,0,19,0,189.9,1.9,0,74,3.981,3.99,3.99,3.981,0,0,7.599,93.38,81.71691042334,3.937008,6,P-GPS,
555400,2023-05-16 19:08:08,52.2088028643838,0.0699691903965779,3.937008,3.8057744,77.87832762334,81.71691042334,3.937008,0,3.7859581264,3.08949813036,27,5,15.941,81.71691042334,3.937008,0,4.3210959388,0,0,0,185.2, 0.5, 0,0,0,1024,1024,1205,1024,0,0,27,0,189.9,1.9,0,74,3.981,3.99,3.99,3.981,0,0,7.599,93.38,81.71691042334,3.937008,6,P-GPS,
555600,2023-05-16 19:08:09,52.2088028915409,0.0699692291699608,3.937008,3.8057744,77.87832762334,81.71691042334,3.937008,0,3.7830709872,3.10266414128,27,5,15.941,81.71691042334,3.937008,0,4.3210959388,0,0,-0.223694,185.2, 0.6, 0.1,0,0,1024,1024,1095,1024,0,0,11,0,189.9,1.9,0,74,3.981,3.99,3.99,3.981,0,0,7.599,93.38,81.71691042334,3.937008,6,P-GPS,
555800,2023-05-16 19:08:09,52.2088029255108,0.0699692940427454,4.265092,4.1338584,77.87832762334,82.04499442334,4.265092,0,3.7763124568,3.12174222588,27,5,15.941,82.04499442334,4.265092,0,4.3210959388,0,0,-0.671082,185.2, 0.5, 0.2,0,0,1024,1024,1024,1024,0,0,0,0,189.9,1.9,0,74,3.981,3.99,3.99,3.981,0,0,7.599,93.38,82.04499442334,4.265092,6,P-GPS,
556000,2023-05-16 19:08:09,52.2088029515467,0.0699693808837641,4.265092,4.1338584,77.87832762334,82.04499442334,4.265092,0,3.7639108816,3.1433563998,27,5,15.94,82.04499442334,4.265092,0,4.3210959388,0,0,-0.447388,185.1, 0.7, 0.6,0,0,1024,1024,603,1024,0,0,-64,0,189.9,1.9,0,74,3.981,3.99,3.989,3.981,0,0,7.566,93.38,82.04499442334,4.265092,6,P-GPS,
556200,2023-05-16 19:08:09,52.208802971302,0.0699694499182979,4.593176,4.4619424,77.87832762334,82.37307842334,4.593176,0,3.7539699364,3.16039052108,27,5,15.94,82.37307842334,4.593176,0,4.3210959388,0,0,0,185.2, 0.5, 0.8,0,0,1024,1024,1024,1024,0,0,0,0,189.9,1.9,0,74,3.981,3.99,3.989,3.981,0,0,7.566,93.38,82.37307842334,4.593176,6,P-GPS,
556400,2023-05-16 19:08:09,52.2088029642,0.069969465315809,4.265092,4.1338584,77.87832762334,82.04499442334,4.265092,0,3.7497048444,3.164698264,27,5,15.94,82.37307842334,4.593176,0,4.3210959388,0,0,0.671082,185.2, 0.7, 0.6,0,0,1024,1024,999,1024,0,0,-4,0,189.9,1.9,0,74,3.981,3.99,3.989,3.981,0,0,7.566,93.38,82.04499442334,4.265092,6,P-GPS,
556600,2023-05-16 19:08:10,52.2088029712891,0.0699694774200946,4.265092,4.1338584,77.87832762334,82.04499442334,3.937008,0,3.7486221672,3.16844170244,27,5,15.94,82.37307842334,4.593176,0,4.3210959388,0,0,0.223694,185.3, 0.3, 0.4,0,0,1043,1024,1024,1024,3,0,0,0,189.9,1.9,0,74,3.981,3.99,3.989,3.981,0,0,7.566,93.38,82.04499442334,4.265092,6,P-GPS,
556800,2023-05-16 19:08:10,52.2088029896138,0.0699694998435611,3.937008,3.8057744,77.87832762334,81.71691042334,3.937008,0,3.74753949,3.17679800192,27,5,15.94,82.37307842334,4.593176,0,4.3210959388,0,0,0,185.2, 0.6, 0.5,0,0,1123,1024,1024,1024,15,0,0,0,189.9,1.9,0,74,3.981,3.99,3.989,3.981,0,0,7.566,93.38,81.71691042334,3.937008,6,P-GPS,
557000,2023-05-16 19:08:10,52.2088030020668,0.0699695081120123,3.937008,3.8057744,77.87832762334,81.71691042334,3.937008,0,3.7481628496,3.18170285772,27,5,15.904,82.37307842334,4.593176,0,4.3210959388,0,0,0,185.2, -0.2, -0.1,0,0,1163,1024,1024,1024,21,0,0,0,189.9,1.9,0,74,3.983,3.994,4.003,4.003,0,0,8.094,93.38,81.71691042334,3.937008,6,P-GPS,
557200,2023-05-16 19:08:10,52.2088029743946,0.0699695429726694,3.937008,3.8057744,77.87832762334,81.71691042334,3.937008,0,3.7364174424,3.19445876364,27,5,15.904,82.37307842334,4.593176,0,4.3210959388,0,0,0,185.2, -0.3, 0,0,0,1189,997,1024,1024,25,-4,0,0,189.9,1.9,0,74,3.983,3.994,4.003,4.003,0,0,8.094,93.38,81.71691042334,3.937008,6,P-GPS,
557400,2023-05-16 19:08:10,52.2088029033471,0.0699696061127752,3.937008,3.8057744,77.87832762334,81.71691042334,3.937008,0,3.7113846332,3.22397648112,27,5,15.904,82.37307842334,4.593176,0,4.3210959388,0,0,0,185.2, -0.8, 0.1,0,0,1208,897,1024,1024,28,-19,0,0,189.9,1.9,0,74,3.983,3.994,4.003,4.003,0,0,8.094,93.38,81.71691042334,3.937008,6,P-GPS,
557600,2023-05-16 19:08:11,52.2088027615638,0.0699696940774575,3.937008,3.8057744,77.87832762334,81.71691042334,3.937008,0.223694,3.6690946056,3.27931769024,26,5,15.904,82.37307842334,4.593176,0.223694,4.3210959388,-0.223694,0,0,185.2, -1.1, 0,0,0,1210,863,1024,1024,28,-24,0,0,189.9,1.9,0,74,3.983,3.994,4.003,4.003,0,0,8.094,93.38,81.71691042334,3.937008,6,P-GPS,
557800,2023-05-16 19:08:11,52.208802506829,0.0699698161155334,3.937008,3.8057744,77.87832762334,81.71691042334,3.937008,0.223694,3.6011484092,3.3761812104,26,5,15.904,82.37307842334,4.593176,0.223694,4.3210959388,-0.223694,0,0,185.2, -1.8, -0.7,0,0,1228,824,1024,1024,31,-30,0,0,189.9,1.9,0,74,3.983,3.994,4.003,4.003,0,0,8.094,93.38,81.71691042334,3.937008,6,P-GPS,
558000,2023-05-16 19:08:11,52.2088021165647,0.0699700116827973,3.937008,3.8385828,77.84551922334,81.71691042334,3.937008,0.447388,3.4979659912,3.5251313464,26,5,15.921,82.37307842334,4.593176,0.447388,4.3210959388,-0.447388,0,0,185.2, -2.2, -1.4,0,0,1236,823,1024,1024,32,-30,0,0,189.9,1.9,0,74,3.978,3.988,3.987,3.979,0,0,7.249,93.56,81.71691042334,3.937008,6,P-GPS,
558200,2023-05-16 19:08:11,52.2088015697166,0.0699703790141816,3.937008,3.8385828,77.84551922334,81.71691042334,3.937008,0.7158208,3.3399935452,3.7408793848,26,5,15.921,82.37307842334,4.593176,0.7158208,4.3210959388,-0.671082,0.223694,0,185.2, -2.5, -2.2,0,0,1283,819,1024,1024,39,-31,0,0,189.9,1.9,0,74,3.978,3.988,3.987,3.979,0,0,7.249,93.56,81.71691042334,3.937008,6,P-GPS,
558400,2023-05-16 19:08:11,52.2088008290776,0.0699709740831602,3.937008,3.8385828,77.84551922334,81.71691042334,3.937008,1.006623,3.11651256692,4.0420933052,27,5,15.921,82.37307842334,4.593176,1.006623,4.3210959388,-0.894776,0.447388,0,185.1, -3.5, -2.6,0,0,1286,824,1024,1024,40,-30,0,0,189.9,1.9,0,74,3.978,3.988,3.987,3.979,0,0,7.249,93.56,81.71691042334,3.937008,6,P-GPS,
558600,2023-05-16 19:08:12,52.2087998676678,0.0699718166805415,3.937008,3.8713912,77.81271082334,81.71691042334,3.937008,1.2079476,2.832677256,4.4402560476,27,5,15.921,82.37307842334,4.593176,1.2079476,4.3210959388,-1.11847,0.447388,0,185.1, -4.2, -2.7,0,0,1276,824,1024,1024,38,-30,0,0,189.9,1.9,0,74,3.978,3.988,3.987,3.979,0,0,7.249,93.56,81.71691042334,3.937008,6,P-GPS,
558800,2023-05-16 19:08:12,52.2087986542454,0.0699728966933536,3.937008,3.9041996,77.77990242334,81.71691042334,3.937008,1.7000744,2.515338007,4.9445211556,27,5,15.921,82.37307842334,4.593176,1.7000744,4.3210959388,-1.565858,0.671082,0,185.1, -4.2, -2.5,0,0,1267,822,1024,1081,37,-31,0,9,189.9,1.9,0,74,3.978,3.988,3.987,3.979,0,0,7.249,93.56,81.71691042334,3.937008,6,P-GPS,
559000,2023-05-16 19:08:12,52.208797171125,0.069974200905443,3.937008,3.937008,77.74709402334,81.71691042334,4.265092,1.9908766,2.22687015,5.559219338,27,5,15.927,82.37307842334,4.593176,1.9908766,4.3210959388,-1.789552,0.894776,0,185.1, -3.7, -2.5,0,0,1263,819,1024,1034,36,-31,0,2,189.9,1.9,0,74,3.977,3.988,3.986,3.979,0,0,7.65,93.56,81.71691042334,3.937008,6,P-GPS,
559200,2023-05-16 19:08:12,52.2087954558549,0.0699757143548713,3.937008,4.0026248,77.68147722334,81.71691042334,4.265092,2.5053728,2.07724088012,6.2706366836,27,5,15.927,82.37307842334,4.593176,2.5053728,4.3210959388,-2.23694,1.11847,0,185.2, -3.3, -2.4,0,0,1249,799,1024,1268,34,-34,0,37,190,1.9,0,74,3.977,3.988,3.986,3.979,0,0,7.65,93.56,81.71691042334,3.937008,6,P-GPS,
559400,2023-05-16 19:08:13,52.2087935578226,0.0699774419873747,3.937008,4.0026248,77.68147722334,81.71691042334,3.937008,2.7066974,2.17871726132,7.0635829032,27,5,15.927,82.37307842334,4.593176,2.7066974,4.3210959388,-2.460634,1.11847,0,185.2, -2.9, -2.3,0,0,1247,790,1024,1451,34,-35,0,65,190.1,1.9,0,74,3.977,3.988,3.986,3.979,0,0,7.65,93.56,81.71691042334,3.937008,6,P-GPS,
559600,2023-05-16 19:08:13,52.2087914977631,0.0699793435214493,3.937008,4.0682416,77.61586042334,81.71691042334,3.937008,2.9974996,2.57412081728,7.9270999912,27,5,15.927,82.37307842334,4.593176,2.9974996,4.3210959388,-2.684328,1.342164,0,185.6, -3.4, -1.3,0,0,1247,785,1024,1517,34,-36,0,75,191.8,1.9,0,74,3.977,3.988,3.986,3.979,0,0,7.65,93.56,81.71691042334,3.937008,6,P-GPS,
559800,2023-05-16 19:08:13,52.208789257812,0.0699813193169282,3.937008,4.1338584,77.55024362334,81.71691042334,3.937008,3.1988242,3.22285443384,8.8560698372,27,5,15.927,82.37307842334,4.593176,3.1988242,4.3210959388,-2.908022,1.342164,0,188.5, -4.4, 0.2,0,0,1243,791,1024,1484,33,-35,0,70,196.1,1.9,0,74,3.977,3.988,3.986,3.979,0,0,7.65,93.56,81.71691042334,3.937008,6,P-GPS,
560000,2023-05-16 19:08:13,52.208786813767,0.0699832220993965,3.937008,4.1666668,77.51743522334,81.71691042334,3.937008,3.3330406,4.0592849068,9.8440619948,27,5,15.926,82.37307842334,4.593176,3.3330406,4.3210959388,-3.131716,1.11847,0,193.8, -4.9, 0.9,0,0,1244,800,1024,1470,33,-34,0,68,201.9,1.9,0,74,3.98,3.993,3.992,3.983,0,0,7.588,93.56,81.71691042334,3.937008,6,P-GPS,
560200,2023-05-16 19:08:13,52.208784138491,0.0699849281173226,3.937008,4.265092,77.41901002334,81.71691042334,3.937008,3.467257,5.0343177464,10.8920279076,27,5,15.926,82.37307842334,4.593176,3.467257,5.0343177464,-3.35541,0.894776,0,199.7, -4.3, 0.6,0,0,1251,811,1024,1486,34,-32,0,70,207.1,1.9,0,74,3.98,3.993,3.992,3.983,0,0,7.588,93.56,81.71691042334,3.937008,6,P-GPS,
560400,2023-05-16 19:08:14,52.2087812753914,0.0699863720140736,3.937008,4.3307088,77.35339322334,81.71691042334,3.937008,3.6462122,6.0968833972,11.9853678376,27,5,15.926,82.37307842334,4.593176,3.6462122,6.0968833972,-3.579104,0.671082,0,204.4, -4.9, 1.5,0,0,1284,935,1024,1457,39,-13,0,66,212.3,1.9,0,74,3.98,3.993,3.992,3.983,0,0,7.588,93.56,81.71691042334,3.937008,6,P-GPS,
560600,2023-05-16 19:08:14,52.2087782422506,0.0699874849683149,3.937008,4.3963256,77.28777642334,81.71691042334,3.937008,3.8251674,7.2221459004,13.1196198424,27,5,15.926,82.37307842334,4.593176,3.8251674,7.2221459004,-3.802798,0.447388,0,209.9, -4.7, 1.9,0,0,1306,934,1024,1393,43,-14,0,56,217.1,1.9,0,74,3.98,3.993,3.992,3.983,0,0,7.588,93.56,81.71691042334,3.937008,6,P-GPS,
