time(millisecond),datetime(utc),latitude,longitude,height_above_takeoff(feet),height_above_ground_at_drone_location(feet),ground_elevation_at_drone_location(feet),altitude_above_seaLevel(feet),height_sonar(feet),speed(mph),distance(feet),mileage(feet),satellites,gpslevel,voltage(v),max_altitude(feet),max_ascent(feet),max_speed(mph),max_distance(feet), xSpeed(mph), ySpeed(mph), zSpeed(mph), compass_heading(degrees), pitch(degrees), roll(degrees),isPhoto,isVideo,rc_elevator,rc_aileron,rc_throttle,rc_rudder,rc_elevator(percent),rc_aileron(percent),rc_throttle(percent),rc_rudder(percent),gimbal_heading(degrees),gimbal_pitch(degrees),gimbal_roll(degrees),battery_percent,voltageCell1,voltageCell2,voltageCell3,voltageCell4,voltageCell5,voltageCell6,current(A),battery_temperature(f),altitude(feet),ascent(feet),flycStateRaw,flycState,message
100,2023-05-23 17:10:44,52.2063973092821,0.0867213523598551,0,0,53.897087026544,53.897087026544,0.328084,0,0,0,26,5,0,53.897087026544,0,0,0,0,0,0,287.2, 4.8, 0.6,0,0,1024,1024,1024,1024,0,0,0,0,282.7,0,0,72,4.028,4.035,4.035,4.03,0,0,0,95.36,53.897087026544,0,41,Motors_Started,
300,2023-05-23 17:10:44,52.2063973279408,0.0867213530605791,0,0,53.897087026544,53.897087026544,0.328084,0,0.00680938342,0.00680938342,26,5,0,53.897087026544,0,0,0.00680938342,0,0,0,287.2, 4.8, 0.6,0,0,1024,1024,1024,1024,0,0,0,0,282.7,0,0,72,4.028,4.035,4.035,4.03,0,0,0,95.36,53.897087026544,0,41,Motors_Started,
500,2023-05-23 17:10:45,52.2063973723371,0.0867213549146144,0,0,53.897087026544,53.897087026544,0,0,0.02301263197,0.0230126647784,26,5,0,53.897087026544,0,0,0.02301263197,0,0,0,287.2, 4.7, 0.6,0,0,1024,1024,1024,1024,0,0,0,0,282.7,0,0,72,4.028,4.035,4.035,4.03,0,0,0,95.36,53.897087026544,0,41,Motors_Started,
700,2023-05-23 17:10:45,52.2063974198678,0.0867213508885094,0,0,53.897087026544,53.897087026544,0,0,0.040348426488,0.040377625964,26,5,0,53.897087026544,0,0,0.040348426488,0,0,0,287.1, 4.8, 0.7,0,0,1024,1024,1024,1024,0,0,0,0,282.7,0,0,72,4.028,4.035,4.035,4.03,0,0,0,95.36,53.897087026544,0,41,Motors_Started,
900,2023-05-23 17:10:45,52.2063974577285,0.0867213479685347,0,0,53.897087026544,53.897087026544,0,0,0.054169621156,0.054206366564,26,5,16.161,53.897087026544,0,0,0.054169621156,0,0,0,287.2, 4.8, 0.7,0,0,1024,1024,1024,1024,0,0,0,0,282.7,0,0,72,4.028,4.035,4.035,4.03,0,0,2.343,95.36,53.897087026544,0,41,Motors_Started,"Setting new Return-To-Home altitude to 26m (85 ft). Data Recorder File Index is 17. Setting new Maximum Flight Altitude to 120m (394 ft)"
1100,2023-05-23 17:10:45,52.2063975117237,0.0867213448283825,0,0,53.897087026544,53.897087026544,0,0,0.073879923624,0.07391896562,26,5,16.161,53.897087026544,0,0,0.073879923624,0,0,0,287.1, 4.8, 0.7,0,0,1024,1024,1024,1024,0,0,0,0,282.7,0,0,72,4.028,4.035,4.035,4.03,0,0,2.343,95.36,53.897087026544,0,41,Motors_Started,
1300,2023-05-23 17:10:45,52.2063975613996,0.086721342962115,0,0,53.897087026544,53.897087026544,0,0,0.092008861212,0.092048231292,26,5,16.161,53.897087026544,0,0,0.092008861212,0,0,0,287.1, 4.8, 0.6,0,0,1024,1024,1024,1024,0,0,0,0,282.7,0,0,72,4.028,4.035,4.035,4.03,0,0,2.343,95.36,53.897087026544,0,41,Motors_Started,
1500,2023-05-23 17:10:46,52.2063975767094,0.0867213413806805,0,0,53.897087026544,53.897087026544,0,0,0.09760170916,0.097645016248,26,5,16.161,53.897087026544,0,0,0.09760170916,0,0,0,287.2, 4.8, 0.6,0,0,1024,1024,1024,1024,0,0,0,0,282.7,0,0,72,4.028,4.035,4.035,4.03,0,0,2.343,95.36,53.897087026544,0,41,Motors_Started,
1700,2023-05-23 17:10:46,52.2063975548906,0.0867213401417445,0,0,53.897087026544,53.897087026544,0,0,0.089651905756,0.105610567684,26,5,16.161,53.897087026544,0,0,0.09760170916,0,0,0,287.2, 4.8, 0.6,0,0,1024,1024,1024,1024,0,0,0,0,282.7,0,0,72,4.028,4.035,4.035,4.03,0,0,2.343,95.36,53.897087026544,0,11,AutoTakeoff,
1900,2023-05-23 17:10:46,52.2063975202672,0.0867213474006163,0,0,53.897087026544,53.897087026544,0,0,0.076985894852,0.11834646048,26,5,16.153,53.897087026544,0,0,0.09760170916,0,0,0,287.4, 4.8, 0.6,0,0,1024,1024,1024,1024,0,0,0,0,282.7,0,0,72,4.039,4.044,4.042,4.037,0,0,4.487,95.36,53.897087026544,0,11,AutoTakeoff,
2100,2023-05-23 17:10:46,52.2063974901154,0.0867214529862703,0,0,53.897087026544,53.897087026544,0,0,0.069707679396,0.14439140882,26,5,16.153,53.897087026544,0,0,0.09760170916,0,0,-0.223694,287.9, 0.1, 0.4,0,0,1024,1024,1024,1024,0,0,0,0,282.7,0,0,72,4.039,4.044,4.042,4.037,0,0,4.487,95.36,53.897087026544,0,11,AutoTakeoff,
2300,2023-05-23 17:10:46,52.2063974774772,0.0867215864820589,0,0,53.897087026544,53.897087026544,0.328084,0,0.0806594514,0.174593509524,26,5,16.153,53.897087026544,0,0,0.09760170916,0,0,-0.894776,288, -1, 0,0,0,1024,1024,1024,1024,0,0,0,0,282.7,0,0,72,4.039,4.044,4.042,4.037,0,0,4.487,95.36,53.897087026544,0,11,AutoTakeoff,
2500,2023-05-23 17:10:47,52.2063974327887,0.0867215793105592,0.328084,0.328084,53.897087026544,54.225171026544,0.328084,0,0.067862863064,0.190976712148,26,5,16.153,54.225171026544,0.328084,0,0.09760170916,0,0,-0.894776,288, 0.2, 0.8,0,0,1024,1024,1024,1024,0,0,0,0,282.8,0,0,72,4.039,4.044,4.042,4.037,0,0,4.487,95.36,54.225171026544,0.328084,11,AutoTakeoff,
2700,2023-05-23 17:10:47,52.2063974290798,0.0867215673755342,0.656168,0.656168,53.897087026544,54.553255026544,0.656168,0,0.06497375536,0.193968510144,27,5,16.153,54.553255026544,0.656168,0,0.09760170916,0,0,-0.894776,288, 0.3, 0.2,0,0,1024,1024,1024,1024,0,0,0,0,282.8,0,0,72,4.039,4.044,4.042,4.037,0,0,4.487,95.36,54.553255026544,0.656168,11,AutoTakeoff,
2900,2023-05-23 17:10:47,52.2063974308364,0.0867215890892415,0.984252,0.984252,53.897087026544,54.881339026544,0.984252,0,0.0690534799,0.198865491928,27,5,16.061,54.881339026544,0.984252,0,0.09760170916,0,0,-0.894776,288, 0, -0.1,0,0,1024,1024,1024,1024,0,0,0,0,282.8,0,0,72,4.006,4.014,4.014,4.008,0,0,4.993,95.36,54.881339026544,0.984252,11,AutoTakeoff,
3100,2023-05-23 17:10:47,52.2063973980815,0.0867216321566832,1.312336,1.312336,53.897087026544,55.209423026544,1.312336,0,0.070450461572,0.214212933364,27,5,16.061,55.209423026544,1.312336,0,0.09760170916,0,0,-0.894776,287.9, -0.2, 0,0,0,1024,1024,1024,1024,0,0,0,0,282.8,0,0,72,4.006,4.014,4.014,4.008,0,0,4.993,95.36,55.209423026544,1.312336,11,AutoTakeoff,
3300,2023-05-23 17:10:48,52.2063973439217,0.086721695571333,1.64042,1.64042,53.897087026544,55.537507026544,1.64042,0,0.077771327948,0.238533800284,27,5,16.061,55.537507026544,1.64042,0,0.09760170916,0,0,-0.894776,287.9, -0.3, 0.2,0,0,1024,1024,1024,1024,0,0,0,0,282.9,0,0,72,4.006,4.014,4.014,4.008,0,0,4.993,95.36,55.537507026544,1.64042,11,AutoTakeoff,
3500,2023-05-23 17:10:48,52.206397295542,0.0867216848630118,1.968504,1.968504,53.897087026544,55.865591026544,1.968504,0,0.074512141492,0.25634679298,27,5,16.061,55.865591026544,1.968504,0,0.09760170916,0,0,-1.11847,287.9, -0.3, 0.4,0,0,1024,1024,1024,1024,0,0,0,0,282.9,0,0,72,4.006,4.014,4.014,4.008,0,0,4.993,95.36,55.865591026544,1.968504,11,AutoTakeoff,
3700,2023-05-23 17:10:48,52.2063972673698,0.0867216618457132,2.296588,2.296588,53.897087026544,56.193675026544,2.296588,0,0.070866472084,0.267841544004,25,5,16.061,56.193675026544,2.296588,0,0.09760170916,0,0,-1.11847,287.9, -0.1, 0.2,0,0,1024,1024,1024,1024,0,0,0,0,282.9,0,0,72,4.006,4.014,4.014,4.008,0,0,4.993,95.36,56.193675026544,2.296588,11,AutoTakeoff,
3900,2023-05-23 17:10:48,52.206397254294,0.0867216671998738,2.624672,2.624672,53.897087026544,56.521759026544,2.624672,0,0.07319718082,0.272760179332,26,5,16.027,56.521759026544,2.624672,0,0.09760170916,0,0,-1.11847,287.9, 0, 0.1,0,0,1024,1024,1024,1024,0,0,0,0,282.9,0,0,72,4.001,4.009,4.01,4.004,0,0,7.581,95.18,56.521759026544,2.624672,11,AutoTakeoff,"Home Point updated (Code: 3000001)"
4100,2023-05-23 17:10:48,52.20639721372,0.0867217171714566,2.952756,2.952756,53.897087026544,56.849843026544,2.952756,0,0.088706367668,0.291306767852,26,5,16.027,56.849843026544,2.952756,0,0.09760170916,0,0,-1.11847,287.9, 0, 0.3,0,0,1024,1024,1024,1024,0,0,0,0,282.9,0,0,72,4.001,4.009,4.01,4.004,0,0,7.581,95.18,56.849843026544,2.952756,11,AutoTakeoff,
4300,2023-05-23 17:10:49,52.2063971631933,0.0867217753927104,3.28084,3.28084,53.897087026544,57.177927026544,3.28084,0,0.108568573028,0.313874353876,26,5,16.027,57.177927026544,3.28084,0,0.108568573028,0,0,-1.11847,287.9, -0.1, 0.4,0,0,1024,1024,1024,1024,0,0,0,0,282.9,0,0,72,4.001,4.009,4.01,4.004,0,0,7.581,95.18,57.177927026544,3.28084,11,AutoTakeoff,
4500,2023-05-23 17:10:49,52.2063971428037,0.0867218145598628,3.608924,3.608924,53.897087026544,57.506011026544,3.608924,0,0.119870082576,0.325364839808,26,5,16.027,57.506011026544,3.608924,0,0.119870082576,0,0,-0.894776,287.8, -0.3, 0.4,0,0,1024,1024,1024,1024,0,0,0,0,282.9,0,0,72,4.001,4.009,4.01,4.004,0,0,7.581,95.18,57.506011026544,3.608924,6,P-GPS,
4700,2023-05-23 17:10:49,52.2063971178712,0.0867218189284664,3.608924,3.608924,53.897087026544,57.506011026544,3.937008,0,0.125536749424,0.3345144464,26,5,16.027,57.506011026544,3.608924,0,0.125536749424,0,0,-0.223694,287.7, -0.3, 0.3,0,0,1024,1024,1024,1024,0,0,0,0,282.9,0,0,72,4.001,4.009,4.01,4.004,0,0,7.581,95.18,57.506011026544,3.608924,6,P-GPS,
4900,2023-05-23 17:10:49,52.2063970968134,0.0867218057754747,3.608924,3.608924,53.897087026544,57.506011026544,3.937008,0,0.127619098572,0.34273951228,26,5,16.019,57.506011026544,3.608924,0,0.127619098572,0,0,0,287.6, -0.2, 0.2,0,0,1024,1024,1024,1024,0,0,0,0,282.9,0,0,72,4.003,4.011,4.012,4.009,0,0,7.586,95.18,57.506011026544,3.608924,6,P-GPS,
5100,2023-05-23 17:10:49,52.2063971060898,0.0867217912140452,3.608924,3.608924,53.897087026544,57.506011026544,3.937008,0,0.12297900656,0.34743767516,26,5,16.019,57.506011026544,3.608924,0,0.127619098572,0,0,0,287.5, 0, 0.2,0,0,1024,1024,1024,1024,0,0,0,0,282.9,0,0,72,4.003,4.011,4.012,4.009,0,0,7.586,95.18,57.506011026544,3.608924,6,P-GPS,
5300,2023-05-23 17:10:49,52.2063970981507,0.086721761888483,3.608924,3.608924,53.897087026544,57.506011026544,3.937008,0,0.119657812228,0.35460302972,26,5,16.019,57.506011026544,3.608924,0,0.127619098572,0,0,0,287.5, -0.2, 0.2,0,0,1024,1024,1024,1024,0,0,0,0,282.9,0,0,72,4.003,4.011,4.012,4.009,0,0,7.586,95.18,57.506011026544,3.608924,6,P-GPS,
5500,2023-05-23 17:10:50,52.2063970831074,0.0867217299120521,3.608924,3.608924,53.897087026544,57.506011026544,3.937008,0,0.118048560208,0.36361877804,26,5,16.019,57.506011026544,3.608924,0,0.127619098572,0,0,0,287.5, -0.2, 0.1,0,0,1024,1024,1024,1024,0,0,0,0,282.9,0,0,72,4.003,4.011,4.012,4.009,0,0,7.586,95.18,57.506011026544,3.608924,6,P-GPS,
5700,2023-05-23 17:10:50,52.2063970781195,0.0867216954717288,3.608924,3.608924,53.897087026544,57.506011026544,3.937008,0,0.114010502336,0.37152888328,26,5,16.019,57.506011026544,3.608924,0,0.127619098572,0,0,0,287.5, -0.3, 0,0,0,1024,1024,1024,1024,0,0,0,0,282.9,0,0,72,4.003,4.011,4.012,4.009,0,0,7.586,95.18,57.506011026544,3.608924,6,P-GPS,
5900,2023-05-23 17:10:50,52.2063970684761,0.0867216532133525,3.608924,3.608924,53.897087026544,57.506011026544,3.937008,0,0.110651906428,0.3816109046,27,5,16.019,57.506011026544,3.608924,0,0.127619098572,0,0,0,287.5, -0.3, 0,0,0,1024,1024,1024,1024,0,0,0,0,282.9,0,0,72,3.997,4.006,4.006,4.001,0,0,6.912,95.36,57.506011026544,3.608924,6,P-GPS,
6100,2023-05-23 17:10:50,52.206397017729,0.086721599905904,3.608924,3.608924,53.897087026544,57.506011026544,3.937008,0,0.119910764992,0.40363190268,27,5,16.019,57.506011026544,3.608924,0,0.127619098572,0,0,0,287.4, -0.3, 0,0,0,1024,1024,1024,1024,0,0,0,0,282.9,0,0,72,3.997,4.006,4.006,4.001,0,0,6.912,95.36,57.506011026544,3.608924,6,P-GPS,
6300,2023-05-23 17:10:50,52.2063969519847,0.0867215388922388,3.608924,3.608924,53.897087026544,57.506011026544,3.937008,0,0.136868770784,0.43122704792,27,5,16.019,57.506011026544,3.608924,0,0.136868770784,0,0,0,287.4, -0.2, 0.1,0,0,1024,1024,1024,1024,0,0,0,0,282.9,0,0,72,3.997,4.006,4.006,4.001,0,0,6.912,95.36,57.506011026544,3.608924,6,P-GPS,
6500,2023-05-23 17:10:51,52.2063968676676,0.0867214745164962,3.608924,3.608924,53.897087026544,57.506011026544,3.937008,0,0.163421265072,0.4651903036,27,5,16.019,57.506011026544,3.608924,0,0.163421265072,0,0,0,287.5, -0.3, 0.2,0,0,1024,1024,1024,1024,0,0,0,0,282.9,0,0,72,3.997,4.006,4.006,4.001,0,0,6.912,95.36,57.506011026544,3.608924,6,P-GPS,
6700,2023-05-23 17:10:51,52.2063967682389,0.0867214147592413,3.608924,3.608924,53.897087026544,57.506011026544,3.937008,0,0.197891738616,0.50384844132,27,5,16.019,57.506011026544,3.608924,0,0.197891738616,0,0,0,287.5, -0.4, 0.4,0,0,1024,1024,1024,1024,0,0,0,0,282.9,0,0,72,3.997,4.006,4.006,4.001,0,0,6.912,95.36,57.506011026544,3.608924,6,P-GPS,
6900,2023-05-23 17:10:51,52.2063966716792,0.0867213719049875,3.608924,3.608924,53.897087026544,57.506011026544,3.937008,0,0.232669954952,0.54035762884,27,5,16.004,57.506011026544,3.608924,0,0.232669954952,0,0,0,287.5, -0.4, 0.5,0,0,1024,1024,1024,1024,0,0,0,0,282.9,0,0,72,3.996,4.005,4.005,3.999,0,0,7.371,95.36,57.506011026544,3.608924,6,P-GPS,
7100,2023-05-23 17:10:51,52.2063966346817,0.086721344632669,3.608924,3.608924,53.897087026544,57.506011026544,3.937008,0,0.24613353806,0.55517062144,27,5,16.004,57.506011026544,3.608924,0,0.24613353806,0,0,0,287.5, -0.3, 0.4,0,0,1024,1024,1024,1024,0,0,0,0,282.9,0,0,72,3.996,4.005,4.005,3.999,0,0,7.371,95.36,57.506011026544,3.608924,6,P-GPS,
7300,2023-05-23 17:10:51,52.2063966150053,0.0867213340099725,3.608924,3.608924,53.897087026544,57.506011026544,3.937008,0,0.253339575036,0.56273295764,26,5,16.004,57.506011026544,3.608924,0,0.253339575036,0,0,0,287.5, -0.4, 0.2,0,0,1024,1024,1024,1024,0,0,0,0,282.9,0,0,72,3.996,4.005,4.005,3.999,0,0,7.371,95.36,57.506011026544,3.608924,6,P-GPS,
7500,2023-05-23 17:10:52,52.2063965827252,0.0867213227284906,3.608924,3.608924,53.897087026544,57.506011026544,3.937008,0,0.265166675152,0.57477692128,27,5,16.004,57.506011026544,3.608924,0,0.265166675152,0,0,0,287.5, -0.3, 0.1,0,0,1024,1024,1024,1024,0,0,0,0,282.9,0,0,72,3.996,4.005,4.005,3.999,0,0,7.371,95.36,57.506011026544,3.608924,6,P-GPS,
7700,2023-05-23 17:10:52,52.2063965495179,0.0867213136470374,3.608924,3.608924,53.897087026544,57.506011026544,3.937008,0,0.277334654544,0.58706038624,27,5,16.004,57.506011026544,3.608924,0,0.277334654544,0,0,0,287.5, -0.4, 0.1,0,0,1024,1024,1024,1024,0,0,0,0,282.9,0,0,72,3.996,4.005,4.005,3.999,0,0,7.371,95.36,57.506011026544,3.608924,6,P-GPS,
7900,2023-05-23 17:10:52,52.2063964962509,0.0867212950787247,3.608924,3.608924,53.897087026544,57.506011026544,3.937008,0,0.296910442572,0.60693571496,27,5,15.999,57.506011026544,3.608924,0,0.296910442572,0,0,0,287.5, -0.3, 0.3,0,0,1024,1024,1024,1024,0,0,0,0,282.9,0,0,72,3.995,4.003,4.002,3.997,0,0,7.264,95.36,57.506011026544,3.608924,6,P-GPS,
8100,2023-05-23 17:10:52,52.2063964501751,0.0867212821319311,3.608924,3.608924,53.897087026544,57.506011026544,3.937008,0,0.313837608468,0.62399280212,27,5,15.999,57.506011026544,3.608924,0,0.313837608468,0,0,0,287.5, -0.3, 0.4,0,0,1024,1024,1024,1024,0,0,0,0,282.9,0,0,72,3.995,4.003,4.002,3.997,0,0,7.264,95.36,57.506011026544,3.608924,6,P-GPS,
8300,2023-05-23 17:10:52,52.2063964226582,0.0867212816496373,3.608924,3.608924,53.897087026544,57.506011026544,3.937008,0,0.323870417188,0.63403217252,27,5,15.999,57.506011026544,3.608924,0,0.323870417188,0,0,0,287.5, -0.2, 0.6,0,0,1024,1024,1024,1024,0,0,0,0,282.9,0,0,72,3.995,4.003,4.002,3.997,0,0,7.264,95.36,57.506011026544,3.608924,6,P-GPS,
8500,2023-05-23 17:10:53,52.2063963941458,0.0867213039434951,3.608924,3.608924,53.897087026544,57.506011026544,3.937008,0,0.33406169048,0.64556760596,27,5,15.999,57.506011026544,3.608924,0,0.33406169048,0,0,0,287.5, -0.3, 0.6,0,0,1024,1024,1097,1024,0,0,11,0,282.9,0,0,72,3.995,4.003,4.002,3.997,0,0,7.264,95.36,57.506011026544,3.608924,6,P-GPS,
8700,2023-05-23 17:10:53,52.2063963584001,0.0867213379819069,3.608924,3.608924,53.897087026544,57.506011026544,3.937008,0,0.34694226832,0.66066931248,27,5,15.999,57.506011026544,3.608924,0,0.34694226832,0,0,0,287.5, -0.4, 0.6,0,0,1024,1024,1261,1024,0,0,36,0,282.9,0,0,72,3.995,4.003,4.002,3.997,0,0,7.264,95.36,57.506011026544,3.608924,6,P-GPS,
8900,2023-05-23 17:10:53,52.2063963233815,0.0867213691335454,3.608924,3.608924,53.897087026544,57.506011026544,3.937008,0,0.35972442096,0.67521983788,27,5,15.989,57.506011026544,3.608924,0,0.35972442096,0,0,-0.447388,287.5, -0.3, 0.8,0,0,1024,1024,1024,1024,0,0,0,0,282.9,0,0,72,3.992,4.001,3.999,3.991,0,0,7.293,95.54,57.506011026544,3.608924,6,P-GPS,
9100,2023-05-23 17:10:53,52.2063963063116,0.0867213822603255,3.937008,3.937008,53.897087026544,57.834095026544,4.265092,0,0.3659941062,0.6821030402,27,5,15.989,57.834095026544,3.937008,0,0.3659941062,0,0,-0.894776,287.4, -0.4, 0.5,0,0,1024,1024,1080,1024,0,0,8,0,282.9,0,0,72,3.992,4.001,3.999,3.991,0,0,7.293,95.54,57.834095026544,3.937008,6,P-GPS,
9300,2023-05-23 17:10:53,52.2063962877543,0.0867214073483422,4.265092,4.265092,53.897087026544,58.162179026544,4.265092,0,0.37290683608,0.6908956914,27,5,15.989,58.162179026544,4.265092,0,0.37290683608,0,0,-0.223694,287.4, -0.4, 0.1,0,0,1024,1024,1332,1024,0,0,47,0,282.9,0,0,72,3.992,4.001,3.999,3.991,0,0,7.293,95.54,58.162179026544,4.265092,6,P-GPS,
9500,2023-05-23 17:10:54,52.206396266794,0.0867214218451164,4.265092,4.265092,53.897087026544,58.162179026544,4.593176,0,0.38066930352,0.69920277828,27,5,15.989,58.162179026544,4.265092,0,0.38066930352,0,0,-0.894776,287.6, 0, -0.1,0,0,1024,1024,1024,1024,0,0,0,0,282.9,0,0,72,3.992,4.001,3.999,3.991,0,0,7.293,95.54,58.162179026544,4.265092,6,P-GPS,
9700,2023-05-23 17:10:54,52.206396193632,0.086721429495415,4.593176,4.593176,53.897087026544,58.490263026544,4.92126,0,0.40740814952,0.7259514668,27,5,15.989,58.490263026544,4.593176,0,0.40740814952,0,0,-0.894776,287.3, -1.1, 0,0,0,1024,536,1024,1024,0,-74,0,0,282.9,0,0,72,3.992,4.001,3.999,3.991,0,0,7.293,95.54,58.490263026544,4.593176,6,P-GPS,
9900,2023-05-23 17:10:54,52.2063961033554,0.0867213995390264,4.92126,4.92126,53.897087026544,58.818347026544,5.249344,0,0.4401082818,0.7595636726,27,5,15.992,58.818347026544,4.92126,0,0.4401082818,0,0,-0.223694,287.4, 0.1, -0.6,0,0,1024,1024,1024,1024,0,0,0,0,282.9,0,0,72,4.002,4.003,3.995,3.987,0,0,7.575,95.54,58.818347026544,4.92126,6,P-GPS,
10100,2023-05-23 17:10:54,52.2063959781973,0.0867213666766427,4.92126,4.92126,53.897087026544,58.818347026544,5.249344,0,0.48565618352,0.80581367408,26,5,15.992,58.818347026544,4.92126,0,0.48565618352,0,0,0,287.4, -0.2, 0.4,0,0,1043,447,1024,1024,3,-87,0,0,282.9,0,0,72,4.002,4.003,3.995,3.987,0,0,7.575,95.54,58.818347026544,4.92126,6,P-GPS,
10300,2023-05-23 17:10:54,52.2063958352188,0.08672134639409,4.92126,4.92126,53.897087026544,58.818347026544,5.249344,0,0.537811697,0.85817588048,26,5,15.992,58.818347026544,4.92126,0,0.537811697,0,0,0,287.5, -0.4, 0,0,0,1113,425,1024,1024,13,-91,0,0,282.9,0,0,72,4.002,4.003,3.995,3.987,0,0,7.575,95.54,58.818347026544,4.92126,6,P-GPS,
10500,2023-05-23 17:10:55,52.2063956731201,0.0867213257271001,4.92126,4.92126,53.897087026544,58.818347026544,5.249344,0,0.5969816464,0.91749674852,26,5,15.992,58.818347026544,4.92126,0,0.5969816464,0,0,0,287.5, -0.3, -0.6,0,0,1024,1024,1024,1024,0,0,0,0,282.9,0,0,72,4.002,4.003,3.995,3.987,0,0,7.575,95.54,58.818347026544,4.92126,6,P-GPS,
10700,2023-05-23 17:10:55,52.2063954643727,0.086721263471004,4.92126,4.9540684,53.864278626544,58.818347026544,5.249344,0,0.6734088142,0.99492129168,26,5,15.992,58.818347026544,4.92126,0,0.6734088142,0,0,0,287.4, -0.1, 1.4,0,0,1093,364,1024,1024,10,-100,0,0,282.9,0,0,72,4.002,4.003,3.995,3.987,0,0,7.575,95.54,58.818347026544,4.92126,6,P-GPS,
10900,2023-05-23 17:10:55,52.2063952716149,0.0867212518085798,4.92126,4.9540684,53.864278626544,58.818347026544,5.249344,0,0.7437828322,1.06529530968,26,5,15.973,58.818347026544,4.92126,0,0.7437828322,0,0,0,287.5, -0.3, 0.3,0,0,1024,1024,1024,1024,0,0,0,0,282.9,0,0,72,3.978,3.996,3.995,3.99,0,0,7.609,95.54,58.818347026544,4.92126,6,P-GPS,
11100,2023-05-23 17:10:55,52.206395087285,0.0867212492328512,4.92126,4.9540684,53.864278626544,58.818347026544,5.249344,0,0.811023648,1.13255252968,26,5,15.973,58.818347026544,4.92126,0,0.811023648,0,0,0,287.4, -0.3, 0.6,0,0,1024,1078,1024,1024,0,8,0,0,282.9,0,0,72,3.978,3.996,3.995,3.99,0,0,7.609,95.54,58.818347026544,4.92126,6,P-GPS,
11300,2023-05-23 17:10:56,52.2063949283973,0.0867212244209302,4.92126,4.9540684,53.864278626544,58.818347026544,5.249344,0,0.86913388608,1.19078743968,26,5,15.973,58.818347026544,4.92126,0,0.86913388608,0,0,0,287.4, -0.4, 1.1,0,0,1024,1684,1024,1024,0,100,0,0,282.9,0,0,72,3.978,3.996,3.995,3.99,0,0,7.609,95.54,58.818347026544,4.92126,6,P-GPS,
11500,2023-05-23 17:10:56,52.2063948226076,0.0867211946462755,4.92126,4.9540684,53.864278626544,58.818347026544,5.249344,0,0.90794622328,1.2299541076,26,5,15.973,58.818347026544,4.92126,0,0.90794622328,0,0,0,287.2, 0.1, 8.1,0,0,1024,1024,1024,1024,0,0,0,0,282.9,0,0,72,3.978,3.996,3.995,3.99,0,0,7.609,95.54,58.818347026544,4.92126,6,P-GPS,
11700,2023-05-23 17:10:56,52.2063951216223,0.0867214119109118,4.92126,4.9540684,53.864278626544,58.818347026544,5.249344,0.9171454,0.7982775846,1.3493766836,26,5,15.973,58.818347026544,4.92126,0.9171454,0.90794622328,0.894776,0.223694,0,287.4, -0.4, 8.6,0,0,1024,1024,1024,1024,0,0,0,0,282.9,0,0,72,3.978,3.996,3.995,3.99,0,0,7.609,95.54,58.818347026544,4.92126,6,P-GPS,
11900,2023-05-23 17:10:56,52.2063959192994,0.0867218680053592,4.92126,4.92126,53.897087026544,58.818347026544,5.249344,0.7158208,0.52007547596,1.65775595856,26,5,15.967,58.818347026544,4.92126,0.9171454,0.90794622328,0.671082,0.223694,0,287.7, -0.1, -9.2,0,0,1024,1633,1024,1024,0,92,0,0,282.9,0,0,72,3.973,3.988,3.991,3.99,0,0,7.445,95.54,58.818347026544,4.92126,6,P-GPS,
12100,2023-05-23 17:10:56,52.2063962432628,0.0867220627009156,4.92126,4.92126,53.897087026544,58.818347026544,5.249344,0.223694,0.42011484284,1.78371396784,26,5,15.967,58.818347026544,4.92126,0.9171454,0.90794622328,0.223694,0,0,286.5, -0.1, 0.9,0,0,1024,1024,1024,1024,0,0,0,0,282.9,0,0,72,3.973,3.988,3.991,3.99,0,0,7.445,95.54,58.818347026544,4.92126,6,P-GPS,
12300,2023-05-23 17:10:57,52.2063965151659,0.0867222708561396,4.92126,4.92126,53.897087026544,58.818347026544,5.249344,0.7158208,0.35513124496,1.89329402384,26,5,15.967,58.818347026544,4.92126,0.9171454,0.90794622328,0.671082,0.223694,0,287.7, 0, 2.2,0,0,1024,1584,1024,1024,0,85,0,0,282.9,0,0,72,3.973,3.988,3.991,3.99,0,0,7.445,95.54,58.818347026544,4.92126,6,P-GPS,
12500,2023-05-23 17:10:57,52.2063969818202,0.0867225939886417,4.92126,4.92126,53.897087026544,58.818347026544,5.249344,0.447388,0.302229012296,2.078248098,26,5,15.967,58.818347026544,4.92126,0.9171454,0.90794622328,0.447388,0,0,287.4, -0.5, -4.6,0,0,1024,1282,1024,1024,0,39,0,0,282.9,0,0,72,3.973,3.988,3.991,3.99,0,0,7.445,95.54,58.818347026544,4.92126,6,P-GPS,
12700,2023-05-23 17:10:57,52.2063972465435,0.0867227468556924,4.92126,4.92126,53.897087026544,58.818347026544,5.249344,0.447388,0.31262960318,2.18070216952,26,5,15.967,58.818347026544,4.92126,0.9171454,0.90794622328,0.447388,0,0,286.6, -0.2, 17.3,0,0,1024,1024,1024,1024,0,0,0,0,282.9,0,0,72,3.973,3.988,3.991,3.99,0,0,7.445,95.54,58.818347026544,4.92126,6,P-GPS,
12900,2023-05-23 17:10:57,52.2063981510303,0.086723230698636,4.92126,4.92126,53.897087026544,58.818347026544,5.249344,1.4092722,0.52028216888,2.52798236436,26,5,15.934,58.818347026544,4.92126,1.4092722,0.90794622328,1.342164,0.447388,0,288.7, -0.3, -5.5,0,0,1024,1613,1024,1024,0,89,0,0,282.9,0,0,71,3.981,3.988,3.987,3.983,0,0,8.043,95.72,58.818347026544,4.92126,6,P-GPS,
13100,2023-05-23 17:10:57,52.2063989726809,0.0867236430808358,4.92126,4.8884516,53.929895426544,58.818347026544,5.249344,0.7158208,0.794127322,2.84162082584,26,5,15.934,58.818347026544,4.92126,1.4092722,0.90794622328,0.671082,0.223694,0,286.8, 0, -2.4,0,0,1024,1606,1024,1024,0,88,0,0,282.9,0,0,71,3.981,3.988,3.987,3.983,0,0,8.043,95.72,58.818347026544,4.92126,6,P-GPS,
13300,2023-05-23 17:10:57,52.2063996130419,0.0867238939382863,4.92126,4.8884516,53.929895426544,58.818347026544,5.249344,1.1408394,1.01459648916,3.08189314324,26,5,15.934,58.818347026544,4.92126,1.4092722,1.01459648916,1.11847,0.223694,0,288, 0, 18.1,0,0,1024,1602,1024,1024,0,88,0,0,282.9,0,0,71,3.981,3.988,3.987,3.983,0,0,8.043,95.72,58.818347026544,4.92126,6,P-GPS,
13500,2023-05-23 17:10:58,52.206401087426,0.0867247314362916,4.92126,4.8884516,53.929895426544,58.818347026544,5.249344,2.6172198,1.57192262248,3.6514764948,26,5,15.934,58.818347026544,4.92126,2.6172198,1.57192262248,2.460634,0.894776,0,289.4, 0.1, 21.8,0,0,1024,1412,1024,1024,0,59,0,0,282.9,0,0,71,3.981,3.988,3.987,3.983,0,0,8.043,95.72,58.818347026544,4.92126,6,P-GPS,
13700,2023-05-23 17:10:58,52.2064037540428,0.0867262562065093,4.92126,4.8556432,53.962703826544,58.818347026544,5.249344,4.250186,2.59443577856,4.6823820396,27,5,15.934,58.818347026544,4.92126,4.250186,2.59443577856,4.026492,1.342164,0,288.9, 0, 21.5,0,0,1024,1024,1024,1024,0,0,0,0,282.9,0,0,71,3.981,3.988,3.987,3.983,0,0,8.043,95.72,58.818347026544,4.92126,6,P-GPS,
13900,2023-05-23 17:10:58,52.2064075471322,0.0867283696862525,4.92126,4.7900264,54.028320626544,58.818347026544,5.249344,5.2344396,4.0514108908,6.1447508528,27,5,15.934,58.818347026544,4.92126,5.2344396,4.0514108908,4.921268,1.789552,0,289.7, -0.8, 1.7,0,0,1024,1024,1024,1024,0,0,0,0,282.9,0,0,71,3.975,3.985,3.984,3.981,0,0,7.96,95.72,58.818347026544,4.92126,6,P-GPS,
14100,2023-05-23 17:10:58,52.2064113592305,0.0867304169143747,4.92126,4.757218,54.061129026544,58.818347026544,5.249344,4.026492,5.5122377092,7.6089897448,27,5,15.934,58.818347026544,4.92126,5.2344396,5.5122377092,3.802798,1.342164,0,289.6, 0.4, -28.1,0,0,1024,1024,1024,1024,0,0,0,0,282.9,0,0,71,3.975,3.985,3.984,3.981,0,0,7.96,95.72,58.818347026544,4.92126,6,P-GPS,
14300,2023-05-23 17:10:58,52.2064134912916,0.0867314712279239,4.92126,4.7244096,54.093937426544,58.818347026544,4.265092,1.4092722,6.3226379976,8.4217850464,27,5,15.934,58.818347026544,4.92126,5.2344396,6.3226379976,1.342164,0.447388,0,291.1, 0.3, -20.9,0,0,1024,1024,1024,1024,0,0,0,0,282.9,0,0,71,3.975,3.985,3.984,3.981,0,0,7.96,95.72,58.818347026544,4.92126,6,P-GPS,
14500,2023-05-23 17:10:59,52.2064140537056,0.0867316092308009,4.92126,4.7244096,54.093937426544,58.818347026544,3.937008,0.223694,6.5254595264,8.6292981764,27,5,15.934,58.818347026544,4.92126,5.2344396,6.5254595264,0.223694,0,0,289.2, -0.4, -5.8,0,0,1024,1024,1278,1024,0,0,38,0,282.9,0,0,71,3.975,3.985,3.984,3.981,0,0,7.96,95.72,58.818347026544,4.92126,6,P-GPS,
14700,2023-05-23 17:10:59,52.2064141063665,0.0867313760771165,4.92126,4.7244096,54.093937426544,58.818347026544,4.265092,0,6.5253611012,8.684875606,27,5,15.934,58.818347026544,4.92126,5.2344396,6.5254595264,0,0,0,289.4, -0.2, -0.6,0,0,1024,1024,1387,1024,0,0,55,0,282.9,0,0,71,3.975,3.985,3.984,3.981,0,0,7.96,95.72,58.818347026544,4.92126,6,P-GPS,
14900,2023-05-23 17:10:59,52.2064140184785,0.0867310415010573,5.249344,5.0524936,54.093937426544,59.146431026544,4.593176,0,6.46981648,8.766240438,27,5,15.88,59.146431026544,5.249344,5.2344396,6.5254595264,0,0,-1.789552,290, 0, 0.6,0,0,1024,1024,1300,1024,0,0,42,0,282.9,0,0,71,3.958,3.965,3.961,3.954,0,0,8.532,95.72,59.146431026544,5.249344,6,P-GPS,
15100,2023-05-23 17:10:59,52.2064139196376,0.0867307495433473,5.905512,5.7086616,54.093937426544,59.802599026544,5.577428,0,6.4141734336,8.8408139312,27,5,15.88,59.802599026544,5.905512,5.2344396,6.5254595264,0,0,-2.908022,289.5, 0, 0.7,0,0,1024,1024,1024,1024,0,0,0,0,282.9,0,0,71,3.958,3.965,3.961,3.954,0,0,8.532,95.72,59.802599026544,5.905512,6,P-GPS,
15300,2023-05-23 17:10:59,52.2064138699773,0.0867305251731773,6.889764,6.6929136,54.093937426544,60.786851026544,6.56168,0,6.380741674,8.8941603896,27,5,15.88,60.786851026544,6.889764,5.2344396,6.5254595264,0,0,-2.013246,289.6, 0.1, 0.5,0,0,1024,1024,1235,1024,0,0,32,0,282.9,0,0,71,3.958,3.965,3.961,3.954,0,0,8.532,95.72,60.786851026544,6.889764,6,P-GPS,
15500,2023-05-23 17:11:00,52.2064138008851,0.0867303637558956,7.217848,7.0209976,54.093937426544,61.114935026544,6.889764,0,6.3453414104,8.9381892624,26,5,15.88,61.114935026544,7.217848,5.2344396,6.5254595264,0,0,-0.447388,289.6, 0.2, 0.3,0,0,1024,1024,1508,1024,0,0,73,0,282.9,0,0,71,3.958,3.965,3.961,3.954,0,0,8.532,95.72,61.114935026544,7.217848,6,P-GPS,
15700,2023-05-23 17:11:00,52.206413723121,0.0867302724695549,7.545932,7.3490816,54.093937426544,61.443019026544,7.217848,0,6.3119424592,8.9731302084,26,5,15.88,61.443019026544,7.545932,5.2344396,6.5254595264,0,0,-1.11847,289.8, 0.3, 0.2,0,0,1024,1024,1024,1024,0,0,0,0,282.9,0,0,71,3.958,3.965,3.961,3.954,0,0,8.532,95.72,61.443019026544,7.545932,6,P-GPS,
15900,2023-05-23 17:11:00,52.2064136320911,0.0867302393524816,8.2021,8.0052496,54.093937426544,62.099187026544,7.874016,0,6.2781169988,9.0071525192,27,5,15.984,62.099187026544,8.2021,5.2344396,6.5254595264,0,0,-2.908022,289.7, -0.2, 0.5,0,0,1024,1024,1024,1024,0,0,0,0,282.9,0,0,71,3.949,3.958,3.955,3.946,0,0,7.968,95.9,62.099187026544,8.2021,6,P-GPS,
16100,2023-05-23 17:11:00,52.2064135515331,0.0867302160014217,8.858268,8.6614176,54.093937426544,62.755355026544,8.530184,0,6.2485894388,9.0370081632,27,5,15.984,62.755355026544,8.858268,5.2344396,6.5254595264,0,0,-1.342164,289.6, 0.1, 0.7,0,0,1024,1024,1024,907,0,0,0,-18,282.9,0,0,71,3.949,3.958,3.955,3.946,0,0,7.968,95.9,62.755355026544,8.858268,6,P-GPS,
16300,2023-05-23 17:11:00,52.2064134275462,0.0867302677169511,8.858268,8.6614176,54.093937426544,62.755355026544,8.858268,0,6.2093834008,9.0836945164,27,5,15.984,62.755355026544,8.858268,5.2344396,6.5254595264,0,0,-0.223694,289.7, 0.1, 0.8,0,0,1024,1024,1024,676,0,0,0,-53,282.9,0,0,71,3.949,3.958,3.955,3.946,0,0,7.968,95.9,62.755355026544,8.858268,6,P-GPS,
16500,2023-05-23 17:11:01,52.2064133044439,0.0867303744659642,8.858268,8.6614176,54.093937426544,62.755355026544,8.858268,0,6.1746393052,9.1345803448,27,5,15.984,62.755355026544,8.858268,5.2344396,6.5254595264,0,0,0,289.4, -0.2, 0.7,0,0,1024,1024,1024,1024,0,0,0,0,281.2,0,0,71,3.949,3.958,3.955,3.946,0,0,7.968,95.9,62.755355026544,8.858268,6,P-GPS,
16700,2023-05-23 17:11:01,52.2064132058344,0.0867304812822538,8.858268,8.6614176,54.093937426544,62.755355026544,8.858268,0,6.1485238188,9.1777561992,27,5,15.984,62.755355026544,8.858268,5.2344396,6.5254595264,0,0,0,287, -0.4, 0.1,0,0,1493,1024,1024,1024,71,0,0,0,280.4,0,0,71,3.949,3.958,3.955,3.946,0,0,7.968,95.9,62.755355026544,8.858268,6,P-GPS,
16900,2023-05-23 17:11:01,52.2064131097863,0.0867305839741448,8.858268,8.6614176,54.093937426544,62.755355026544,8.858268,0,6.123195734,9.219652526,27,5,15.951,62.755355026544,8.858268,5.2344396,6.5254595264,0,0,0,287, -0.7, -0.1,0,0,1513,1024,1024,1024,74,0,0,0,280.3,0,0,71,3.978,3.986,3.985,3.98,0,0,7.964,95.9,62.755355026544,8.858268,6,P-GPS,
17100,2023-05-23 17:11:01,52.2064130366827,0.086730465332919,8.858268,8.6614176,54.093937426544,62.755355026544,8.858268,0.447388,6.0891406148,9.2572509524,27,5,15.951,62.755355026544,8.858268,5.2344396,6.5254595264,0,-0.447388,0,287, -17.3, 0.4,0,0,1024,1024,1024,1024,0,0,0,0,280.4,0,0,71,3.978,3.986,3.985,3.98,0,0,7.964,95.9,62.755355026544,8.858268,6,P-GPS,
17300,2023-05-23 17:11:01,52.2064131933577,0.0867291714176265,8.858268,8.6614176,54.093937426544,62.755355026544,9.186352,1.3645334,6.0532482252,9.55216566,27,5,15.951,62.755355026544,8.858268,5.2344396,6.5254595264,0.223694,-1.342164,0,286.8, 5.5, -0.1,0,0,1332,1024,1024,1024,47,0,0,0,280.4,0,0,71,3.978,3.986,3.985,3.98,0,0,7.964,95.9,62.755355026544,8.858268,6,P-GPS,
17500,2023-05-23 17:11:02,52.2064133156965,0.0867279507607583,8.858268,8.6614176,54.093937426544,62.755355026544,9.186352,0.447388,6.0233925812,9.8287076636,27,5,15.951,62.755355026544,8.858268,5.2344396,6.5254595264,0,-0.447388,0,287.2, 7.6, 0.5,0,0,1614,1024,1024,1024,89,0,0,0,280.4,0,0,71,3.978,3.986,3.985,3.98,0,0,7.964,95.9,62.755355026544,8.858268,6,P-GPS,
17700,2023-05-23 17:11:02,52.2064133104439,0.0867275054689939,8.858268,8.6614176,54.093937426544,62.755355026544,8.530184,0.223694,5.9979332628,9.9282811576,27,5,15.951,62.755355026544,8.858268,5.2344396,6.5254595264,0,-0.223694,0,286.9, -2.7, 0.2,0,0,1623,1024,1024,1024,91,0,0,0,280.4,0,0,71,3.978,3.986,3.985,3.98,0,0,7.964,95.9,62.755355026544,8.858268,6,P-GPS,
17900,2023-05-23 17:11:02,52.2064133554106,0.0867269549751389,8.858268,8.6614176,54.093937426544,62.755355026544,8.530184,0.447388,5.9869424488,10.0524609516,27,5,15.888,62.755355026544,8.858268,5.2344396,6.5254595264,0,-0.447388,0,287.1, -4.3, 0.2,0,0,1655,1024,1024,1024,96,0,0,0,280.4,0,0,71,3.975,3.982,3.982,3.977,0,0,7.834,95.9,62.755355026544,8.858268,6,P-GPS,
18100,2023-05-23 17:11:02,52.2064134503696,0.0867260278036813,8.858268,8.6614176,54.093937426544,62.755355026544,8.530184,0.9171454,5.981135362,10.262631562,27,5,15.888,62.755355026544,8.858268,5.2344396,6.5254595264,0.223694,-0.894776,0,287, -5.4, 0.1,0,0,1684,1024,1024,1024,100,0,0,0,280.4,0,0,71,3.975,3.982,3.982,3.977,0,0,7.834,95.9,62.755355026544,8.858268,6,P-GPS,
18300,2023-05-23 17:11:03,52.2064135905961,0.0867246150802823,8.858268,8.6614176,54.093937426544,62.755355026544,8.858268,1.1408394,5.9848427112,10.5826118872,27,5,15.888,62.755355026544,8.858268,5.2344396,6.5254595264,0.223694,-1.11847,0,286.9, -5.9, 0.2,0,0,1684,1024,1024,1024,100,0,0,0,280.4,0,0,71,3.975,3.982,3.982,3.977,0,0,7.834,95.9,62.755355026544,8.858268,6,P-GPS,
18500,2023-05-23 17:11:03,52.2064138168924,0.0867226905461395,8.858268,8.6614176,54.093937426544,62.755355026544,8.858268,1.6329662,6.0302167284,11.0207680692,27,5,15.888,62.755355026544,8.858268,5.2344396,6.5254595264,0.447388,-1.565858,0,286.9, -6.3, 0.3,0,0,1684,1024,1024,1024,100,0,0,0,280.4,0,0,71,3.975,3.982,3.982,3.977,0,0,7.834,95.9,62.755355026544,8.858268,6,P-GPS,
18700,2023-05-23 17:11:03,52.2064141366463,0.0867202230478668,8.858268,8.6614176,54.093937426544,62.755355026544,8.858268,2.0579848,6.1446524276,11.5846788484,27,5,15.888,62.755355026544,8.858268,5.2344396,6.5254595264,0.447388,-2.013246,0,286.9, -6.3, 0.5,0,0,1684,1024,1024,1024,100,0,0,0,280.4,0,0,71,3.975,3.982,3.982,3.977,0,0,7.834,95.9,62.755355026544,8.858268,6,P-GPS,
18900,2023-05-23 17:11:03,52.2064145542911,0.0867172332087682,8.858268,8.6614176,54.093937426544,62.755355026544,8.530184,2.5501116,6.3588912796,12.2703087916,27,5,15.916,62.755355026544,8.858268,5.2344396,6.5254595264,0.671082,-2.460634,0,286.9, -5.6, 0.7,0,0,1684,1024,1024,1024,100,0,0,0,280.4,0,0,71,3.977,3.983,3.983,3.978,0,0,7.462,95.9,62.755355026544,8.858268,6,P-GPS,
19100,2023-05-23 17:11:03,52.2064150456971,0.0867137779281579,8.858268,8.6614176,54.093937426544,62.755355026544,8.530184,2.7738056,6.6890422088,13.0633862448,27,5,15.916,62.755355026544,8.858268,5.2344396,6.6890422088,0.671082,-2.684328,0,286.9, -5, 0.8,0,0,1684,1024,1024,1024,100,0,0,0,280.4,0,0,71,3.977,3.983,3.983,3.978,0,0,7.462,95.9,62.755355026544,8.858268,6,P-GPS,
19300,2023-05-23 17:11:04,52.206415600992,0.0867099455199789,8.858268,8.6286092,54.126745826544,62.755355026544,8.530184,3.0422384,7.1444556092,13.943898084,27,5,15.916,62.755355026544,8.858268,5.2344396,7.1444556092,0.894776,-2.908022,0,287, -4.7, 0.8,0,0,1684,1024,1024,1024,100,0,0,0,280.4,0,0,71,3.977,3.983,3.983,3.978,0,0,7.462,95.9,62.755355026544,8.858268,6,P-GPS,
19500,2023-05-23 17:11:04,52.2064162423544,0.0867057511642549,8.858268,8.6286092,54.126745826544,62.755355026544,8.530184,3.2659324,7.7384844996,14.910433548,27,5,15.916,62.755355026544,8.858268,5.2344396,7.7384844996,0.894776,-3.131716,0,287, -4.7, 0.7,0,0,1684,1024,1024,1024,100,0,0,0,280.3,0,0,71,3.977,3.983,3.983,3.978,0,0,7.462,95.9,62.755355026544,8.858268,6,P-GPS,
19700,2023-05-23 17:11:04,52.2064169266072,0.0867012242424662,8.858268,8.6286092,54.126745826544,62.755355026544,8.530184,3.467257,8.4546590632,15.952920458,27,5,15.916,62.755355026544,8.858268,5.2344396,8.4546590632,0.894776,-3.35541,0,286.9, -4.6, 0.7,0,0,1684,1024,1024,1024,100,0,0,0,280.4,0,0,71,3.977,3.983,3.983,3.978,0,0,7.462,95.9,62.755355026544,8.858268,6,P-GPS,
19900,2023-05-23 17:11:04,52.2064176379335,0.0866963638564279,8.858268,8.6286092,54.126745826544,62.755355026544,8.858268,3.7580592,9.2857942604,17.07021052,27,5,15.917,62.755355026544,8.858268,5.2344396,9.2857942604,1.11847,-3.579104,0,286.9, -4.7, 0.5,0,0,1684,1024,1024,1024,100,0,0,0,280.4,0,0,71,3.977,3.983,3.983,3.978,0,0,7.32,96.08,62.755355026544,8.858268,6,P-GPS,
20100,2023-05-23 17:11:04,52.2064184079261,0.0866911538562863,8.858268,8.6286092,54.126745826544,62.755355026544,8.530184,4.1830778,10.2394360232,18.2685045216,27,5,15.917,62.755355026544,8.858268,5.2344396,10.2394360232,1.11847,-4.026492,0,286.9, -4.6, 0.6,0,0,1684,1024,1024,1024,100,0,0,0,280.4,0,0,71,3.977,3.983,3.983,3.978,0,0,7.32,96.08,62.755355026544,8.858268,6,P-GPS,
20300,2023-05-23 17:11:05,52.2064192250689,0.0866856377463434,8.858268,8.5958008,54.159554226544,62.755355026544,8.530184,4.3844024,11.3004596792,19.5373365832,27,5,15.917,62.755355026544,8.858268,5.2344396,11.3004596792,1.11847,-4.250186,0,286.9, -4.4, 0.5,0,0,1684,1024,1024,1024,100,0,0,0,280.4,0,0,71,3.977,3.983,3.983,3.978,0,0,7.32,96.08,62.755355026544,8.858268,6,P-GPS,
20500,2023-05-23 17:11:05,52.2064200910217,0.086679834479349,8.858268,8.5958008,54.159554226544,62.755355026544,8.530184,4.6752046,12.460302236,20.8728025052,27,5,15.917,62.755355026544,8.858268,5.2344396,12.460302236,1.342164,-4.47388,0,286.9, -4.3, 0.8,0,0,1684,1024,1024,1024,100,0,0,0,280.4,0,0,71,3.977,3.983,3.983,3.978,0,0,7.32,96.08,62.755355026544,8.858268,6,P-GPS,
20700,2023-05-23 17:11:05,52.2064209817886,0.0866737846658422,8.858268,8.5629924,54.192362626544,62.755355026544,8.530184,4.6752046,13.7007222232,22.263944282,27,5,15.917,62.755355026544,8.858268,5.2344396,13.7007222232,1.342164,-4.47388,0,286.9, -4.1, 0.9,0,0,1684,1024,1024,1024,100,0,0,0,280.4,0,0,71,3.977,3.983,3.983,3.978,0,0,7.32,96.08,62.755355026544,8.858268,6,P-GPS,
20900,2023-05-23 17:11:05,52.2064219116999,0.0866674967215009,8.858268,8.5629924,54.192362626544,62.755355026544,8.530184,4.8765292,15.0188981184,23.7102041708,27,5,15.911,62.755355026544,8.858268,5.2344396,15.0188981184,1.342164,-4.697574,0,286.9, -3.9, 0.9,0,0,1684,1024,1024,1024,100,0,0,0,280.4,0,0,71,3.976,3.981,3.983,3.976,0,0,7.314,96.08,62.755355026544,8.858268,6,P-GPS,
21100,2023-05-23 17:11:05,52.2064229017788,0.0866610093241938,8.858268,8.5629924,54.192362626544,62.755355026544,8.530184,5.1673314,16.4078745408,25.2049876832,27,5,15.911,62.755355026544,8.858268,5.2344396,16.4078745408,1.565858,-4.921268,0,286.9, -3.7, 0.6,0,0,1684,1024,1024,1024,100,0,0,0,280.4,0,0,71,3.976,3.981,3.983,3.976,0,0,7.314,96.08,62.755355026544,8.858268,6,P-GPS,
21300,2023-05-23 17:11:05,52.2064239169588,0.0866543163229272,8.858268,8.530184,54.225171026544,62.755355026544,8.530184,5.1673314,17.8575465032,26.7466215908,27,5,15.911,62.755355026544,8.858268,5.2344396,17.8575465032,1.565858,-4.921268,0,287, -3.6, 0.4,0,0,1089,1024,1024,1024,10,0,0,0,280.3,0,0,71,3.976,3.981,3.983,3.976,0,0,7.314,96.08,62.755355026544,8.858268,6,P-GPS,
21500,2023-05-23 17:11:06,52.2064248784371,0.0866478099414164,8.858268,8.530184,54.225171026544,62.755355026544,8.530184,5.368656,19.2756567848,28.2430455232,27,5,15.911,62.755355026544,8.858268,5.368656,19.2756567848,1.565858,-5.144962,0,287, -3.3, 0.2,0,0,1024,1024,1024,1024,0,0,0,0,280.3,0,0,71,3.976,3.981,3.983,3.976,0,0,7.314,96.08,62.755355026544,8.858268,6,P-GPS,
21700,2023-05-23 17:11:06,52.2064259020769,0.086640640524706,8.858268,8.530184,54.225171026544,62.755355026544,8.530184,4.8765292,20.8443904308,29.8889773344,27,5,15.911,62.755355026544,8.858268,5.368656,20.8443904308,1.342164,-4.697574,0,286.9, 23.2, -0.3,0,0,1024,1024,1024,1024,0,0,0,0,280.4,0,0,71,3.976,3.981,3.983,3.976,0,0,7.314,96.08,62.755355026544,8.858268,6,P-GPS,
21900,2023-05-23 17:11:06,52.206426460775,0.0866357249509722,8.858268,8.530184,54.225171026544,62.755355026544,8.2021,2.5501116,21.9011161864,31.0067595224,27,5,15.909,62.755355026544,8.858268,5.368656,21.9011161864,0.671082,-2.460634,0,287.6, 29.2, 1.4,0,0,1024,1024,1024,1024,0,0,0,0,280.4,0,0,71,3.973,3.983,3.946,3.983,0,0,7.275,96.08,62.755355026544,8.858268,6,P-GPS,
22100,2023-05-23 17:11:06,52.206426481447,0.0866337157917354,8.858268,8.530184,54.225171026544,62.755355026544,7.545932,0.7158208,22.2984587188,31.456037752,27,5,15.909,62.755355026544,8.858268,5.368656,22.2984587188,0.223694,-0.671082,0,287, 10.2, 0.5,0,0,1024,1024,1024,1024,0,0,0,0,280.3,0,0,71,3.973,3.983,3.946,3.983,0,0,7.275,96.08,62.755355026544,8.858268,6,P-GPS,
22300,2023-05-23 17:11:07,52.206426289518,0.0866331558555806,8.858268,8.530184,54.225171026544,62.755355026544,7.545932,0,22.3753944168,31.5995088852,27,5,15.909,62.755355026544,8.858268,5.368656,22.3753944168,0,0,0,287, 3.4, 0.4,0,0,1024,1024,1024,1024,0,0,0,0,280.4,0,0,71,3.973,3.983,3.946,3.983,0,0,7.275,96.08,62.755355026544,8.858268,6,P-GPS,
22500,2023-05-23 17:11:07,52.2064260303023,0.0866330753194997,8.858268,8.530184,54.225171026544,62.755355026544,8.2021,0,22.3467526836,31.6957687308,27,5,15.909,62.755355026544,8.858268,5.368656,22.3753944168,0,0,0,286.8, 0.6, 0.4,0,0,1024,1024,1017,1024,0,0,-1,0,280.4,0,0,71,3.973,3.983,3.946,3.983,0,0,7.275,96.08,62.755355026544,8.858268,6,P-GPS,
22700,2023-05-23 17:11:07,52.2064257481765,0.0866331067944148,8.858268,8.530184,54.225171026544,62.755355026544,8.530184,0,22.2924547816,31.7989511488,27,5,15.909,62.755355026544,8.858268,5.368656,22.3753944168,0,0,0,287, -0.4, 0.4,0,0,1024,1024,1024,1024,0,0,0,0,280.4,0,0,71,3.973,3.983,3.946,3.983,0,0,7.275,96.08,62.755355026544,8.858268,6,P-GPS,
22900,2023-05-23 17:11:07,52.2064255176599,0.0866331235139345,8.858268,8.530184,54.225171026544,62.755355026544,8.530184,0,22.2500991372,31.8831375032,27,5,15.896,62.755355026544,8.858268,5.368656,22.3753944168,0,0,0,286.9, -0.5, 0.3,0,0,1024,1024,1024,1024,0,0,0,0,280.4,0,0,71,3.971,3.979,3.979,3.973,0,0,8.089,96.08,62.755355026544,8.858268,6,P-GPS,
23100,2023-05-23 17:11:07,52.2064253215846,0.0866331178522242,8.858268,8.530184,54.225171026544,62.755355026544,8.2021,0,22.2182421808,31.9546926236,27,5,15.896,62.755355026544,8.858268,5.368656,22.3753944168,0,0,0,287, -0.4, 0.7,0,0,1024,1024,1024,1024,0,0,0,0,280.4,0,0,71,3.971,3.979,3.979,3.973,0,0,8.089,96.08,62.755355026544,8.858268,6,P-GPS,
23300,2023-05-23 17:11:07,52.2064251872424,0.086633106549773,8.858268,8.530184,54.225171026544,62.755355026544,8.530184,0,22.1979665896,32.00377399,27,5,15.896,62.755355026544,8.858268,5.368656,22.3753944168,0,0,0,286.9, -0.2, 0.8,0,0,1024,1024,1024,1024,0,0,0,0,280.4,0,0,71,3.971,3.979,3.979,3.973,0,0,8.089,96.08,62.755355026544,8.858268,6,P-GPS,
23500,2023-05-23 17:11:08,52.2064251073452,0.0866331157063661,8.858268,8.530184,54.225171026544,62.755355026544,8.530184,0,22.1828091088,32.032973466,27,5,15.896,62.755355026544,8.858268,5.368656,22.3753944168,0,0,0,287, -0.2, 0.7,0,0,1024,1024,1024,1024,0,0,0,0,280.4,0,0,71,3.971,3.979,3.979,3.973,0,0,8.089,96.08,62.755355026544,8.858268,6,P-GPS,
23700,2023-05-23 17:11:08,52.2064250827153,0.08663317019858,8.858268,8.530184,54.225171026544,62.755355026544,8.530184,0,22.1678812868,32.0481309468,27,5,15.896,62.755355026544,8.858268,5.368656,22.3753944168,0,0,0,287, -0.3, 0.4,0,0,1024,1024,1024,1024,0,0,0,0,280.4,0,0,71,3.971,3.979,3.979,3.973,0,0,8.089,96.08,62.755355026544,8.858268,6,P-GPS,
23900,2023-05-23 17:11:08,52.2064250764593,0.0866332288636839,8.858268,8.530184,54.225171026544,62.755355026544,8.530184,0,22.1551516276,32.0614511572,27,5,15.897,62.755355026544,8.858268,5.368656,22.3753944168,0,0,0,286.9, -0.2, 0.4,0,0,1024,1024,1024,1024,0,0,0,0,280.4,0,0,71,3.971,3.979,3.977,3.972,0,0,7.361,96.08,62.755355026544,8.858268,6,P-GPS,
24100,2023-05-23 17:11:08,52.2064250820835,0.0866332798400455,8.858268,8.530184,54.225171026544,62.755355026544,8.530184,0,22.1459652756,32.0730325224,27,5,15.897,62.755355026544,8.858268,5.368656,22.3753944168,0,0,0,286.9, -0.2, 0.3,0,0,1024,1024,1024,1024,0,0,0,0,280.4,0,0,71,3.971,3.979,3.977,3.972,0,0,7.361,96.08,62.755355026544,8.858268,6,P-GPS,
24300,2023-05-23 17:11:08,52.2064250933618,0.0866333249589834,8.858268,8.530184,54.225171026544,62.755355026544,8.530184,0,22.1388786612,32.0839249112,27,5,15.897,62.755355026544,8.858268,5.368656,22.3753944168,0,0,0,286.9, -0.2, 0.4,0,0,1024,1024,1024,1024,0,0,0,0,280.4,0,0,71,3.971,3.979,3.977,3.972,0,0,7.361,96.08,62.755355026544,8.858268,6,P-GPS,
24500,2023-05-23 17:11:09,52.2064250885472,0.0866333631580533,8.858268,8.530184,54.225171026544,62.755355026544,8.530184,0,22.1304797108,32.0926191372,27,5,15.897,62.755355026544,8.858268,5.368656,22.3753944168,0,0,0,286.9, -0.3, 0.6,0,0,1024,1024,1024,1024,0,0,0,0,280.4,0,0,71,3.971,3.979,3.977,3.972,0,0,7.361,96.08,62.755355026544,8.858268,6,P-GPS,
24700,2023-05-23 17:11:09,52.2064250955528,0.0866333925989466,8.858268,8.530184,54.225171026544,62.755355026544,8.530184,0,22.1257881096,32.0997057516,27,5,15.897,62.755355026544,8.858268,5.368656,22.3753944168,0,0,0,286.9, -0.3, 0.6,0,0,1024,1024,1024,1024,0,0,0,0,280.4,0,0,71,3.971,3.979,3.977,3.972,0,0,7.361,96.08,62.755355026544,8.858268,6,P-GPS,
24900,2023-05-23 17:11:09,52.2064251232454,0.0866334228017244,8.858268,8.530184,54.225171026544,62.755355026544,8.2021,0,22.1244429652,32.1118448596,27,5,15.893,62.755355026544,8.858268,5.368656,22.3753944168,0,0,0,287, -0.4, 0.5,0,0,1024,1024,1024,1024,0,0,0,0,280.4,0,0,71,3.97,3.978,3.977,3.972,0,0,7.361,96.08,62.755355026544,8.858268,6,P-GPS,
25100,2023-05-23 17:11:09,52.2064251436325,0.0866334460916239,8.858268,8.530184,54.225171026544,62.755355026544,8.530184,0,22.1232290544,32.1209327864,27,5,15.893,62.755355026544,8.858268,5.368656,22.3753944168,0,0,0,286.9, -0.4, 0.7,0,0,1024,1024,1024,1024,0,0,0,0,280.4,0,0,71,3.97,3.978,3.977,3.972,0,0,7.361,96.08,62.755355026544,8.858268,6,P-GPS,
25300,2023-05-23 17:11:09,52.2064251515248,0.08663345844254,8.858268,8.530184,54.225171026544,62.755355026544,8.2021,0,22.1220807604,32.1249026028,27,5,15.893,62.755355026544,8.858268,5.368656,22.3753944168,0,0,0,286.9, -0.3, 0.7,0,0,1024,1024,1024,1024,0,0,0,0,280.3,0,0,71,3.97,3.978,3.977,3.972,0,0,7.361,96.08,62.755355026544,8.858268,6,P-GPS,
25500,2023-05-23 17:11:10,52.2064251746319,0.0866334507048693,8.858268,8.530184,54.225171026544,62.755355026544,8.530184,0,22.1274941464,32.133531212,27,5,15.893,62.755355026544,8.858268,5.368656,22.3753944168,0,0,0,287, -0.3, 0.7,0,0,1024,1024,1024,1024,0,0,0,0,280.4,0,0,71,3.97,3.978,3.977,3.972,0,0,7.361,96.08,62.755355026544,8.858268,6,P-GPS,
25700,2023-05-23 17:11:10,52.2064251909305,0.0866334357188115,8.858268,8.530184,54.225171026544,62.755355026544,8.530184,0,22.133202808,32.1403553592,27,5,15.893,62.755355026544,8.858268,5.368656,22.3753944168,0,0,0,287, -0.3, 0.7,0,0,1024,1024,1024,1024,0,0,0,0,280.4,0,0,71,3.97,3.978,3.977,3.972,0,0,7.361,96.08,62.755355026544,8.858268,6,P-GPS,
25900,2023-05-23 17:11:10,52.2064251900781,0.0866334255137535,8.858268,8.530184,54.225171026544,62.755355026544,8.2021,0,22.1350728868,32.1426519472,27,5,15.89,62.755355026544,8.858268,5.368656,22.3753944168,0,0,0,287, -0.2, 0.7,0,0,1024,1024,1024,1024,0,0,0,0,280.4,0,0,71,3.969,3.978,3.976,3.971,0,0,7.347,96.26,62.755355026544,8.858268,6,P-GPS,
26100,2023-05-23 17:11:10,52.206425196983,0.0866333893556953,8.858268,8.530184,54.225171026544,62.755355026544,8.2021,0,22.1434062204,32.1511165144,27,5,15.89,62.755355026544,8.858268,5.368656,22.3753944168,0,0,0,287, -0.2, 0.6,0,0,1024,1024,1024,1024,0,0,0,0,280.4,0,0,71,3.969,3.978,3.976,3.971,0,0,7.347,96.26,62.755355026544,8.858268,6,P-GPS,
26300,2023-05-23 17:11:11,52.2064251922369,0.0866333582302684,8.858268,8.530184,54.225171026544,62.755355026544,8.530184,0,22.1488196064,32.158301554,27,5,15.89,62.755355026544,8.858268,5.368656,22.3753944168,0,0,0,287, -0.1, 0.5,0,0,1024,1024,1024,1024,0,0,0,0,280.4,0,0,71,3.969,3.978,3.976,3.971,0,0,7.347,96.26,62.755355026544,8.858268,6,P-GPS,
26500,2023-05-23 17:11:11,52.2064251800848,0.086633328404938,8.858268,8.530184,54.225171026544,62.755355026544,8.530184,0,22.1526909976,32.1663068036,27,5,15.89,62.755355026544,8.858268,5.368656,22.3753944168,0,0,0,287, -0.2, 0.7,0,0,1024,1024,1024,1024,0,0,0,0,280.4,0,0,71,3.969,3.978,3.976,3.971,0,0,7.347,96.26,62.755355026544,8.858268,6,P-GPS,
26700,2023-05-23 17:11:11,52.2064251532446,0.0866333154738713,8.858268,8.530184,54.225171026544,62.755355026544,8.530184,0,22.150755302,32.176510216,27,5,15.89,62.755355026544,8.858268,5.368656,22.3753944168,0,0,0,287, -0.1, 0.8,0,0,1024,1024,1024,1024,0,0,0,0,280.4,0,0,71,3.969,3.978,3.976,3.971,0,0,7.347,96.26,62.755355026544,8.858268,6,P-GPS,
26900,2023-05-23 17:11:11,52.2064251112517,0.0866333049402943,8.858268,8.530184,54.225171026544,62.755355026544,8.530184,0,22.145834042,32.1919957808,27,5,15.887,62.755355026544,8.858268,5.368656,22.3753944168,0,0,0,286.9, -0.2, 0.8,0,0,1024,1024,1024,1024,0,0,0,0,280.4,0,0,71,3.968,3.977,3.975,3.97,0,0,7.35,96.26,62.755355026544,8.858268,6,P-GPS,
27100,2023-05-23 17:11:11,52.2064250797533,0.0866332928549893,8.858268,8.530184,54.225171026544,62.755355026544,8.530184,0,22.1429797112,32.2038068048,27,5,15.887,62.755355026544,8.858268,5.368656,22.3753944168,0,0,0,286.9, -0.3, 0.6,0,0,1024,1024,1024,1024,0,0,0,0,280.4,0,0,71,3.968,3.977,3.975,3.97,0,0,7.35,96.26,62.755355026544,8.858268,6,P-GPS,
27300,2023-05-23 17:11:12,52.2064250368908,0.0866332860819063,8.858268,8.530184,54.225171026544,62.755355026544,8.2021,0,22.1371726244,32.2195220284,27,5,15.887,62.755355026544,8.858268,5.368656,22.3753944168,0,0,0,286.9, -0.3, 0.6,0,0,1024,1024,1024,1024,0,0,0,0,280.4,0,0,71,3.968,3.977,3.975,3.97,0,0,7.35,96.26,62.755355026544,8.858268,6,P-GPS,
27500,2023-05-23 17:11:12,52.2064249916789,0.0866332407113369,8.858268,8.530184,54.225171026544,62.755355026544,8.530184,0,22.1386818108,32.2388789844,27,5,15.887,62.755355026544,8.858268,5.368656,22.3753944168,0,0,0,286.9, -0.2, 0.8,0,0,1024,1024,1024,1024,0,0,0,0,280.4,0,0,71,3.968,3.977,3.975,3.97,0,0,7.35,96.26,62.755355026544,8.858268,6,P-GPS,
27700,2023-05-23 17:11:12,52.2064249304212,0.0866331791035415,8.858268,8.530184,54.225171026544,62.755355026544,8.530184,0,22.14074874,32.2651585128,27,5,15.887,62.755355026544,8.858268,5.368656,22.3753944168,0,0,0,286.9, -0.1, 1.1,0,0,1024,1024,1024,1024,0,0,0,0,280.4,0,0,71,3.968,3.977,3.975,3.97,0,0,7.35,96.26,62.755355026544,8.858268,6,P-GPS,
27900,2023-05-23 17:11:12,52.2064248619372,0.0866331026005554,8.858268,8.530184,54.225171026544,62.755355026544,8.530184,0,22.1446201312,32.295440666,27,5,15.883,62.755355026544,8.858268,5.368656,22.3753944168,0,0,0,286.9, 0, 1.5,0,0,1024,1024,1024,1024,0,0,0,0,280.3,0,0,71,3.967,3.975,3.973,3.97,0,0,7.387,96.26,62.755355026544,8.858268,6,P-GPS,
28100,2023-05-23 17:11:12,52.2064248126046,0.0866330308645895,8.858268,8.530184,54.225171026544,62.755355026544,8.530184,0,22.150755302,32.3195220316,27,5,15.883,62.755355026544,8.858268,5.368656,22.3753944168,0,0,0,287, 0, 1.3,0,0,1024,1024,1024,1024,0,0,0,0,280.4,0,0,71,3.967,3.975,3.973,3.97,0,0,7.387,96.26,62.755355026544,8.858268,6,P-GPS,
28300,2023-05-23 17:11:13,52.2064248060659,0.0866329999698248,8.858268,8.530184,54.225171026544,62.755355026544,8.530184,0,22.155840604,32.3268383048,27,5,15.883,62.755355026544,8.858268,5.368656,22.3753944168,0,0,0,287, 0, 1.2,0,0,1024,1024,1024,1024,0,0,0,0,280.4,0,0,71,3.967,3.975,3.973,3.97,0,0,7.387,96.26,62.755355026544,8.858268,6,P-GPS,
28500,2023-05-23 17:11:13,52.2064248120477,0.0866329831105098,8.858268,8.530184,54.225171026544,62.755355026544,8.530184,0,22.1602041212,32.331201822,27,5,15.883,62.755355026544,8.858268,5.368656,22.3753944168,0,0,0,287, -0.1, 1,0,0,1024,1024,1024,1024,0,0,0,0,280.4,0,0,71,3.967,3.975,3.973,3.97,0,0,7.387,96.26,62.755355026544,8.858268,6,P-GPS,
28700,2023-05-23 17:11:13,52.2064248296956,0.086632986297843,8.858268,8.530184,54.225171026544,62.755355026544,8.530184,0,22.1624679008,32.3376650768,27,5,15.883,62.755355026544,8.858268,5.368656,22.3753944168,0,0,0,286.9, -0.1, 0.7,0,0,1024,1024,1024,1024,0,0,0,0,280.4,0,0,71,3.967,3.975,3.973,3.97,0,0,7.387,96.26,62.755355026544,8.858268,6,P-GPS,
28900,2023-05-23 17:11:13,52.2064248486328,0.086632979196241,8.858268,8.530184,54.225171026544,62.755355026544,8.530184,0,22.1670282684,32.3447516912,27,5,15.881,62.755355026544,8.858268,5.368656,22.3753944168,0,0,0,287, 0, 0.6,0,0,1024,1024,1024,1024,0,0,0,0,280.4,0,0,71,3.966,3.974,3.973,3.969,0,0,7.404,96.44,62.755355026544,8.858268,6,P-GPS,
29100,2023-05-23 17:11:13,52.2064248561074,0.0866329781128273,8.858268,8.530184,54.225171026544,62.755355026544,8.530184,0,22.168471838,32.3475075968,27,5,15.881,62.755355026544,8.858268,5.368656,22.3753944168,0,0,0,287, -0.2, 0.5,0,0,1024,1024,1024,1024,0,0,0,0,280.4,0,0,71,3.966,3.974,3.973,3.969,0,0,7.404,96.44,62.755355026544,8.858268,6,P-GPS,
29300,2023-05-23 17:11:13,52.2064248521645,0.0866329824255128,8.858268,8.530184,54.225171026544,62.755355026544,8.530184,0,22.1669626516,32.349246442,27,5,15.881,62.755355026544,8.858268,5.368656,22.3753944168,0,0,0,287, -0.4, 0.2,0,0,1024,1024,1024,1024,0,0,0,0,280.4,0,0,71,3.966,3.974,3.973,3.969,0,0,7.404,96.44,62.755355026544,8.858268,6,P-GPS,
29500,2023-05-23 17:11:14,52.2064248380162,0.0866329706757166,8.858268,8.530184,54.225171026544,62.755355026544,8.530184,0,22.1669626516,32.3550207204,27,5,15.881,62.755355026544,8.858268,5.368656,22.3753944168,0,0,0,287, -0.4, 0.2,0,0,1024,1024,1024,1024,0,0,0,0,280.4,0,0,71,3.966,3.974,3.973,3.969,0,0,7.404,96.44,62.755355026544,8.858268,6,P-GPS,
29700,2023-05-23 17:11:14,52.2064248171729,0.086632938704528,8.858268,8.530184,54.225171026544,62.755355026544,8.530184,0,22.1698825992,32.3654537916,27,5,15.881,62.755355026544,8.858268,5.368656,22.3753944168,0,0,0,287, -0.3, 0.1,0,0,1024,1024,1024,1024,0,0,0,0,280.4,0,0,71,3.966,3.974,3.973,3.969,0,0,7.404,96.44,62.755355026544,8.858268,6,P-GPS,
29900,2023-05-23 17:11:14,52.2064247888657,0.0866328939630375,8.858268,8.530184,54.225171026544,62.755355026544,8.2021,0,22.1741476912,32.3798566792,27,5,15.876,62.755355026544,8.858268,5.368656,22.3753944168,0,0,0,286.9, -0.3, 0.1,0,0,1024,1024,1024,1024,0,0,0,0,280.4,0,0,71,3.965,3.972,3.971,3.966,0,0,7.403,96.44,62.755355026544,8.858268,6,P-GPS,
30100,2023-05-23 17:11:14,52.2064247547607,0.0866328140001173,8.858268,8.530184,54.225171026544,62.755355026544,8.2021,0,22.1844495288,32.4016086484,27,5,15.876,62.755355026544,8.858268,5.368656,22.3753944168,0,0,0,286.9, -0.2, -0.1,0,0,1024,1024,1024,1024,0,0,0,0,280.4,0,0,71,3.965,3.972,3.971,3.966,0,0,7.403,96.44,62.755355026544,8.858268,6,P-GPS,
30300,2023-05-23 17:11:14,52.2064246967434,0.0866327275716638,8.858268,8.530184,54.225171026544,62.755355026544,8.2021,0,22.1921595028,32.43028319,27,5,15.876,62.755355026544,8.858268,5.368656,22.3753944168,0,0,0,286.9, -0.3, 0.1,0,0,1024,1024,1024,1024,0,0,0,0,280.4,0,0,71,3.965,3.972,3.971,3.966,0,0,7.403,96.44,62.755355026544,8.858268,6,P-GPS,
30500,2023-05-23 17:11:15,52.2064246093737,0.0866326494330724,8.858268,8.530184,54.225171026544,62.755355026544,8.2021,0,22.1934390304,32.4666348972,27,5,15.876,62.755355026544,8.858268,5.368656,22.3753944168,0,0,0,286.9, -0.3, 0.5,0,0,1024,1024,1024,1024,0,0,0,0,280.4,0,0,71,3.965,3.972,3.971,3.966,0,0,7.403,96.44,62.755355026544,8.858268,6,P-GPS,
30700,2023-05-23 17:11:15,52.2064245375786,0.0866325908867945,8.858268,8.530184,54.225171026544,62.755355026544,8.2021,0,22.193406222,32.4959327984,27,5,15.876,62.755355026544,8.858268,5.368656,22.3753944168,0,0,0,286.9, -0.3, 0.6,0,0,1024,1024,1024,1024,0,0,0,0,280.3,0,0,71,3.965,3.972,3.971,3.966,0,0,7.403,96.44,62.755355026544,8.858268,6,P-GPS,
30900,2023-05-23 17:11:15,52.2064244777323,0.0866325272939057,8.858268,8.530184,54.225171026544,62.755355026544,8.2021,0,22.196358978,32.521982668,27,5,15.867,62.755355026544,8.858268,5.368656,22.3753944168,0,0,0,287, -0.4, 0.7,0,0,1024,1024,1024,1024,0,0,0,0,280.4,0,0,71,3.965,3.971,3.97,3.965,0,0,7.626,96.44,62.755355026544,8.858268,6,P-GPS,
31100,2023-05-23 17:11:15,52.206424427271,0.0866324654903969,8.858268,8.530184,54.225171026544,62.755355026544,8.2021,0,22.2005256448,32.5449813564,27,5,15.867,62.755355026544,8.858268,5.368656,22.3753944168,0,0,0,287, -0.4, 0.7,0,0,1024,1024,1024,1024,0,0,0,0,280.3,0,0,71,3.965,3.971,3.97,3.965,0,0,7.626,96.44,62.755355026544,8.858268,6,P-GPS,
31300,2023-05-23 17:11:15,52.2064243842843,0.0866324099357387,8.858268,8.530184,54.225171026544,62.755355026544,8.2021,0,22.2046595032,32.5649944804,27,5,15.867,62.755355026544,8.858268,5.368656,22.3753944168,0,0,0,287, -0.3, 0.6,0,0,1024,1024,1024,1024,0,0,0,0,280.3,0,0,71,3.965,3.971,3.97,3.965,0,0,7.626,96.44,62.755355026544,8.858268,6,P-GPS,
31500,2023-05-23 17:11:16,52.2064243400533,0.0866323433232711,8.858268,8.530184,54.225171026544,62.755355026544,8.2021,0,22.2108274824,32.5869761084,27,5,15.867,62.755355026544,8.858268,5.368656,22.3753944168,0,0,0,287, -0.2, 0.5,0,0,1024,1024,1024,1024,0,0,0,0,280.4,0,0,71,3.965,3.971,3.97,3.965,0,0,7.626,96.44,62.755355026544,8.858268,6,P-GPS,
31700,2023-05-23 17:11:16,52.2064243114334,0.0866322599773043,8.858268,8.530184,54.225171026544,62.755355026544,8.2021,0,22.2229009736,32.6083343768,27,5,15.867,62.755355026544,8.858268,5.368656,22.3753944168,0,0,0,287, -0.1, 0.5,0,0,1024,1024,1024,1024,0,0,0,0,280.4,0,0,71,3.965,3.971,3.97,3.965,0,0,7.626,96.44,62.755355026544,8.858268,6,P-GPS,
31900,2023-05-23 17:11:16,52.2064242978783,0.0866321608764055,8.858268,8.530184,54.225171026544,62.755355026544,8.2021,0,22.2405518928,32.6310377896,27,5,15.864,62.755355026544,8.858268,5.368656,22.3753944168,0,0,0,287, 0, 0.4,0,0,1024,1024,1024,1024,0,0,0,0,280.4,0,0,71,3.963,3.97,3.969,3.964,0,0,7.601,96.26,62.755355026544,8.858268,6,P-GPS,
32100,2023-05-23 17:11:16,52.2064242621736,0.0866320895807948,8.858268,8.530184,54.225171026544,62.755355026544,8.2021,0,22.2491148852,32.6516086564,27,5,15.864,62.755355026544,8.858268,5.368656,22.3753944168,0,0,0,287, 0.1, 0.3,0,0,1024,1024,1024,1024,0,0,0,0,280.4,0,0,71,3.963,3.97,3.969,3.964,0,0,7.601,96.26,62.755355026544,8.858268,6,P-GPS,
32300,2023-05-23 17:11:16,52.2064242096112,0.0866320358434757,8.858268,8.530184,54.225171026544,62.755355026544,8.2021,0,22.2514114732,32.6742464524,27,5,15.864,62.755355026544,8.858268,5.368656,22.3753944168,0,0,0,287, 0.2, 0.3,0,0,1024,1024,1024,1024,0,0,0,0,280.4,0,0,71,3.963,3.97,3.969,3.964,0,0,7.601,96.26,62.755355026544,8.858268,6,P-GPS,
32500,2023-05-23 17:11:17,52.2064241721759,0.0866319904659165,8.858268,8.530184,54.225171026544,62.755355026544,8.2021,0,22.2544954628,32.6912412036,27,5,15.864,62.755355026544,8.858268,5.368656,22.3753944168,0,0,0,287, 0.1, 0.2,0,0,1024,1024,1024,1024,0,0,0,0,280.4,0,0,71,3.963,3.97,3.969,3.964,0,0,7.601,96.26,62.755355026544,8.858268,6,P-GPS,
32700,2023-05-23 17:11:17,52.2064241408489,0.0866319693009058,8.858268,8.530184,54.225171026544,62.755355026544,8.2021,0,22.2537080612,32.7036427788,27,5,15.864,62.755355026544,8.858268,5.368656,22.3753944168,0,0,0,287, 0, 0,0,0,1024,1024,1024,1024,0,0,0,0,280.4,0,0,71,3.963,3.97,3.969,3.964,0,0,7.601,96.26,62.755355026544,8.858268,6,P-GPS,
32900,2023-05-23 17:11:17,52.2064240800002,0.0866319548460702,8.858268,8.530184,54.225171026544,62.755355026544,8.2021,0,22.2468511056,32.726050916,27,5,15.86,62.755355026544,8.858268,5.368656,22.3753944168,0,0,0,287, -0.1, 0,0,0,1024,1024,1024,1024,0,0,0,0,280.4,0,0,71,3.962,3.969,3.968,3.963,0,0,7.602,96.44,62.755355026544,8.858268,6,P-GPS,
33100,2023-05-23 17:11:17,52.2064240092267,0.0866319294872001,8.858268,8.530184,54.225171026544,62.755355026544,8.2021,0,22.240650318,32.7524944864,27,5,15.86,62.755355026544,8.858268,5.368656,22.3753944168,0,0,0,287, 0, 0.1,0,0,1024,1024,1024,1024,0,0,0,0,280.3,0,0,71,3.962,3.969,3.968,3.963,0,0,7.602,96.44,62.755355026544,8.858268,6,P-GPS,
33300,2023-05-23 17:11:18,52.2064239469495,0.0866318998785524,8.858268,8.530184,54.225171026544,62.755355026544,8.2021,0,22.2366476932,32.7761821512,27,5,15.86,62.755355026544,8.858268,5.368656,22.3753944168,0,0,0,287, -0.2, 0.3,0,0,1024,1024,1024,1024,0,0,0,0,280.4,-27.7,0,71,3.962,3.969,3.968,3.963,0,0,7.602,96.44,62.755355026544,8.858268,6,P-GPS,
