time(millisecond),datetime(utc),latitude,longitude,height_above_takeoff(feet),height_above_ground_at_drone_location(feet),ground_elevation_at_drone_location(feet),altitude_above_seaLevel(feet),height_sonar(feet),speed(mph),distance(feet),mileage(feet),satellites,gpslevel,voltage(v),max_altitude(feet),max_ascent(feet),max_speed(mph),max_distance(feet), xSpeed(mph), ySpeed(mph), zSpeed(mph), compass_heading(degrees), pitch(degrees), roll(degrees),isPhoto,isVideo,rc_elevator,rc_aileron,rc_throttle,rc_rudder,rc_elevator(percent),rc_aileron(percent),rc_throttle(percent),rc_rudder(percent),gimbal_heading(degrees),gimbal_pitch(degrees),gimbal_roll(degrees),battery_percent,voltageCell1,voltageCell2,voltageCell3,voltageCell4,voltageCell5,voltageCell6,current(A),battery_temperature(f),altitude(feet),ascent(feet),flycStateRaw,flycState,message
0,2023-05-19 17:02:59,52.2051732471213,0.0863535973988816,0,0,49.395109192192,49.395109192192,0.328084,0,0,0,26,5,0,49.395109192192,0,0,0,0,0,0,100.5, 4.1, 2.2,0,0,1024,1024,1024,1024,0,0,0,0,100.4,0,0,99,4.281,4.288,4.287,4.281,0,0,0,75.02,49.395109192192,0,41,Motors_Started,"Setting new Return-To-Home altitude to 26m (85 ft). Data Recorder File Index is 12. Setting new Maximum Flight Altitude to 120m (394 ft)"
200,2023-05-19 17:02:59,52.2051732771048,0.0863535933857757,0,0,49.395109192192,49.395109192192,0.328084,0,0.0109761814536,0.0109761814536,26,5,0,49.395109192192,0,0,0.0109761814536,0,0,0,100.5, 4.1, 2.2,0,0,1024,1024,1024,1024,0,0,0,0,100.4,0,0,99,4.281,4.288,4.287,4.281,0,0,0,75.02,49.395109192192,0,41,Motors_Started,
400,2023-05-19 17:02:59,52.2051732687491,0.0863536038011648,0,0,49.395109192192,49.395109192192,0,0,0.0080196524876,0.0148124676656,26,5,0,49.395109192192,0,0,0.0109761814536,0,0,0,100.7, 3.8, 2.6,0,0,1024,1024,1024,1024,0,0,0,0,100.4,0,0,99,4.281,4.288,4.287,4.281,0,0,0,75.02,49.395109192192,0,41,Motors_Started,
600,2023-05-19 17:02:59,52.2051732683167,0.0863535758214754,0,0,49.395109192192,49.395109192192,0,0,0.009114665646,0.0210705059236,26,5,0,49.395109192192,0,0,0.0109761814536,0,0,0,100.5, 3.9, 2.7,0,0,1024,1024,1024,1024,0,0,0,0,100.4,0,0,99,4.281,4.288,4.287,4.281,0,0,0,75.02,49.395109192192,0,41,Motors_Started,
800,2023-05-19 17:03:00,52.2051732899412,0.0863535933440021,0,0,49.395109192192,49.395109192192,0,0,0.0156490818656,0.02987943009,26,5,0,49.395109192192,0,0,0.0156490818656,0,0,0,100.3, 3.8, 2.9,0,0,1024,1024,1024,1024,0,0,0,0,100.4,0,0,99,4.281,4.288,4.287,4.281,0,0,0,75.02,49.395109192192,0,41,Motors_Started,
1000,2023-05-19 17:03:00,52.2051732786329,0.0863536144626085,0,0,49.395109192192,49.395109192192,0,0,0.0121134846396,0.03614993554,26,5,17.158,49.395109192192,0,0,0.0156490818656,0,0,0,100.5, 3.7, 2.9,0,0,1024,1024,1024,1024,0,0,0,0,100.4,0,0,99,4.281,4.288,4.287,4.281,0,0,2.993,75.02,49.395109192192,0,41,Motors_Started,
1200,2023-05-19 17:03:00,52.2051732647395,0.0863536131352999,0,0,49.395109192192,49.395109192192,0,0,0.0073279529904,0.041227691608,26,5,17.158,49.395109192192,0,0,0.0156490818656,0,0,0,100.5, 3.7, 3,0,0,1024,1024,1024,1024,0,0,0,0,100.4,0,0,99,4.281,4.288,4.287,4.281,0,0,2.993,75.02,49.395109192192,0,41,Motors_Started,
1400,2023-05-19 17:03:00,52.2051732574608,0.0863536183537245,0,0,49.395109192192,49.395109192192,0,0,0.006015256098,0.044128282252,26,5,17.158,49.395109192192,0,0,0.0156490818656,0,0,0,100.5, 3.6, 3,0,0,1024,1024,1024,1024,0,0,0,0,100.4,0,0,99,4.281,4.288,4.287,4.281,0,0,2.993,75.02,49.395109192192,0,41,Motors_Started,
1600,2023-05-19 17:03:00,52.205173255601,0.0863536552784265,0,0,49.395109192192,49.395109192192,0,0,0.013306102788,0.052412075168,26,5,17.158,49.395109192192,0,0,0.0156490818656,0,0,0,100.5, 3.6, 3,0,0,1024,1024,1024,1024,0,0,0,0,100.4,0,0,99,4.281,4.288,4.287,4.281,0,0,2.993,75.02,49.395109192192,0,11,AutoTakeoff,
1800,2023-05-19 17:03:01,52.2051732559924,0.086353679252218,0,0,49.395109192192,49.395109192192,0,0,0.018585794558,0.057774608148,26,5,17.158,49.395109192192,0,0,0.018585794558,0,0,0,100.2, 3.6, 3.1,0,0,1024,1024,1024,1024,0,0,0,0,100.4,0,0,99,4.281,4.288,4.287,4.281,0,0,2.993,75.02,49.395109192192,0,11,AutoTakeoff,
2000,2023-05-19 17:03:01,52.2051732450597,0.0863536718935103,0,0,49.395109192192,49.395109192192,0,0,0.0166734257304,0.062089240832,26,5,17.255,49.395109192192,0,0,0.018585794558,0,0,0,99.9, 1.4, 2.2,0,0,1024,1024,1024,1024,0,0,0,0,100.3,0,0,99,4.3,4.306,4.301,4.293,0,0,3.644,75.02,49.395109192192,0,11,AutoTakeoff,
2200,2023-05-19 17:03:01,52.2051731315852,0.0863536571288062,0,0,49.395109192192,49.395109192192,0.328084,0,0.044218177268,0.103621722476,26,5,17.255,49.395109192192,0,0,0.044218177268,0,0,-0.671082,100, -0.3, -0.6,0,0,1024,1024,1024,1024,0,0,0,0,100.3,0,0,99,4.3,4.306,4.301,4.293,0,0,3.644,75.02,49.395109192192,0,11,AutoTakeoff,
2400,2023-05-19 17:03:01,52.2051730079609,0.0863537316545604,0.328084,0.328084,49.395109192192,49.723193192192,0.328084,0,0.092276577756,0.151705713516,26,5,17.255,49.723193192192,0.328084,0,0.092276577756,0,0,-0.894776,100, 0.4, -0.8,0,0,1024,1024,1024,1024,0,0,0,0,100.3,0,0,99,4.3,4.306,4.301,4.293,0,0,3.644,75.02,49.723193192192,0.328084,11,AutoTakeoff,
2600,2023-05-19 17:03:02,52.2051729173863,0.0863538340381233,0.656168,0.656168,49.395109192192,50.051277192192,0.656168,0,0.131424872972,0.191906502204,26,5,17.255,50.051277192192,0.656168,0,0.131424872972,0,0,-0.894776,100.1, 0.6, -0.7,0,0,1024,1024,1024,1024,0,0,0,0,100.3,0,0,99,4.3,4.306,4.301,4.293,0,0,3.644,75.02,50.051277192192,0.656168,11,AutoTakeoff,
2800,2023-05-19 17:03:02,52.2051727842254,0.0863539307537994,0.984252,0.984252,49.395109192192,50.379361192192,0.984252,0,0.184603680448,0.245085637764,26,5,17.255,50.379361192192,0.984252,0,0.184603680448,0,0,-0.894776,100, 0.8, -1.1,0,0,1024,1024,1024,1024,0,0,0,0,100.3,0,0,99,4.3,4.306,4.301,4.293,0,0,3.644,75.02,50.379361192192,0.984252,11,AutoTakeoff,
3000,2023-05-19 17:03:02,52.2051726539408,0.0863540628932764,1.312336,1.312336,49.395109192192,50.707445192192,1.312336,0,0.240148301648,0.301053815408,26,5,16.988,50.707445192192,1.312336,0,0.240148301648,0,0,-0.894776,100.1, 0.3, -2.4,0,0,1024,1024,1024,1024,0,0,0,0,100.3,0,0,99,4.238,4.249,4.245,4.241,0,0,6.262,75.02,50.707445192192,1.312336,11,AutoTakeoff,
3200,2023-05-19 17:03:02,52.2051725279745,0.0863542588808459,1.64042,1.64042,49.395109192192,51.035529192192,1.64042,0,0.301195219612,0.36455709828,26,5,16.988,51.035529192192,1.64042,0,0.301195219612,0,0,-0.894776,99.9, 1.5, -1.7,0,0,1024,1024,1024,1024,0,0,0,0,100.3,0,0,99,4.238,4.249,4.245,4.241,0,0,6.262,75.02,51.035529192192,1.64042,11,AutoTakeoff,
3400,2023-05-19 17:03:02,52.2051724452882,0.0863544308700511,1.968504,1.968504,49.395109192192,51.363613192192,1.968504,0,0.34686352816,0.41343177176,26,5,16.988,51.363613192192,1.968504,0,0.34686352816,0,0,-1.11847,100.1, 2.2, -1.4,0,0,1024,1024,1024,1024,0,0,0,0,100.3,0,0,99,4.238,4.249,4.245,4.241,0,0,6.262,75.02,51.363613192192,1.968504,11,AutoTakeoff,
3600,2023-05-19 17:03:02,52.2051724059784,0.0863545705407907,2.296588,2.296588,49.395109192192,51.691697192192,2.296588,0,0.37620079944,0.44779857076,26,5,16.988,51.691697192192,2.296588,0,0.37620079944,0,0,-0.894776,100, 3.5, -2.2,0,0,1024,1024,1024,1024,0,0,0,0,100.3,0,0,99,4.238,4.249,4.245,4.241,0,0,6.262,75.02,51.691697192192,2.296588,11,AutoTakeoff,
3800,2023-05-19 17:03:03,52.2051723615493,0.0863545425805411,2.624672,2.624672,49.395109192192,52.019781192192,2.624672,0,0.38607940868,0.46517061856,26,5,16.988,52.019781192192,2.624672,0,0.38607940868,0,0,-0.894776,100.2, 2.8, -1,0,0,1024,1024,1024,1024,0,0,0,0,100.3,0,0,99,4.238,4.249,4.245,4.241,0,0,6.262,75.02,52.019781192192,2.624672,11,AutoTakeoff,
4000,2023-05-19 17:03:03,52.2051723507298,0.0863542813661864,2.952756,2.952756,49.395109192192,52.347865192192,2.952756,0,0.36103675696,0.52371064668,26,5,16.965,52.347865192192,2.952756,0,0.38607940868,0,0,-1.11847,100.1, 0.1, -2.2,0,0,1024,1024,1024,1024,0,0,0,0,100.3,0,0,99,4.233,4.242,4.239,4.237,0,0,7.234,75.02,52.347865192192,2.952756,11,AutoTakeoff,
4200,2023-05-19 17:03:03,52.2051723355,0.0863540610635378,3.28084,3.28084,49.395109192192,52.675949192192,3.28084,0,0.34838583792,0.57328085824,25,5,16.965,52.675949192192,3.28084,0,0.38607940868,0,0,-1.11847,99.6, 0.2, -2.1,0,0,1024,1024,1024,1024,0,0,0,0,100.3,0,0,99,4.233,4.242,4.239,4.237,0,0,7.234,75.02,52.675949192192,3.28084,11,AutoTakeoff,
4400,2023-05-19 17:03:03,52.205172332191,0.0863539862798248,3.608924,3.608924,49.395109192192,53.004033192192,3.608924,0,0.34495079844,0.59004595064,26,5,16.965,53.004033192192,3.608924,0,0.38607940868,0,0,-0.894776,99.8, 1.5, -1.8,0,0,1024,1024,1024,1024,0,0,0,0,100.3,0,0,99,4.233,4.242,4.239,4.237,0,0,7.234,75.02,53.004033192192,3.608924,6,P-GPS,
4600,2023-05-19 17:03:04,52.2051723363684,0.0863539608305785,3.608924,3.608924,49.395109192192,53.004033192192,3.937008,0,0.34208006344,0.59593505844,26,5,16.965,53.004033192192,3.608924,0,0.38607940868,0,0,-0.223694,99.8, 1.9, -1.5,0,0,1024,1024,1024,1024,0,0,0,0,100.3,0,0,99,4.233,4.242,4.239,4.237,0,0,7.234,75.02,53.004033192192,3.608924,6,P-GPS,
4800,2023-05-19 17:03:04,52.2051723185332,0.0863538350768391,3.937008,3.937008,49.395109192192,53.332117192192,3.937008,0,0.34293636268,0.62479660792,26,5,16.965,53.332117192192,3.937008,0,0.38607940868,0,0,0,99.9, 0.5, -1.7,0,0,1024,1024,1024,1024,0,0,0,0,100.3,0,0,99,4.233,4.242,4.239,4.237,0,0,7.234,75.02,53.332117192192,3.937008,6,P-GPS,
5000,2023-05-19 17:03:04,52.205172278523,0.0863536725182033,3.937008,3.937008,49.395109192192,53.332117192192,3.937008,0,0.35379266224,0.66396655668,26,5,17.023,53.332117192192,3.937008,0,0.38607940868,0,0,0,99.9, 0.2, -2,0,0,1024,1024,1024,1024,0,0,0,0,100.3,0,0,99,4.241,4.25,4.254,4.247,0,0,6.857,75.02,53.332117192192,3.937008,6,P-GPS,
5200,2023-05-19 17:03:04,52.2051721830308,0.0863536112074343,3.608924,3.608924,49.395109192192,53.004033192192,3.937008,0,0.38824476308,0.70140750276,26,5,17.023,53.332117192192,3.937008,0,0.38824476308,0,0,0,99.9, 1.2, -3.5,0,0,1024,1024,1024,1024,0,0,0,0,100.3,0,0,99,4.241,4.25,4.254,4.247,0,0,6.857,75.02,53.004033192192,3.608924,6,P-GPS,
5400,2023-05-19 17:03:04,52.2051721156413,0.0863534847882658,3.608924,3.608924,49.395109192192,53.004033192192,3.937008,0,0.41358597124,0.73886813388,26,5,17.023,53.332117192192,3.937008,0,0.41358597124,0,0,0,99.9, 0.7, -3.2,0,0,1146,1024,1024,1024,18,0,0,0,100.3,0,0,99,4.241,4.25,4.254,4.247,0,0,6.857,75.02,53.004033192192,3.608924,6,P-GPS,
5600,2023-05-19 17:03:04,52.2051720580775,0.0863533182296842,3.608924,3.608924,49.395109192192,53.004033192192,3.937008,0,0.43829069644,0.78162404076,26,5,17.023,53.332117192192,3.937008,0,0.43829069644,0,0,0,99.9, -0.8, -0.8,0,0,1024,1024,1024,1024,0,0,0,0,100.3,0,0,99,4.241,4.25,4.254,4.247,0,0,6.857,75.02,53.004033192192,3.608924,6,P-GPS,
5800,2023-05-19 17:03:05,52.2051719654793,0.086353251747015,3.608924,3.608924,49.395109192192,53.004033192192,3.937008,0,0.4739501464,0.81853349076,26,5,17.023,53.332117192192,3.937008,0,0.4739501464,0,0,0,100.6, -0.1, -1.2,0,0,1024,1024,1024,1024,0,0,0,0,100.3,0,0,99,4.241,4.25,4.254,4.247,0,0,6.857,75.02,53.004033192192,3.608924,6,P-GPS,
6000,2023-05-19 17:03:05,52.2051718355551,0.0863532919314781,3.608924,3.608924,49.395109192192,53.004033192192,3.937008,0,0.51951773316,0.8667815238,26,5,16.955,53.332117192192,3.937008,0,0.51951773316,0,0,0,100.5, 0.8, -3.6,0,0,1255,1024,1024,1024,35,0,0,0,100.3,0,0,99,4.203,4.238,4.237,4.235,0,0,6.954,75.2,53.004033192192,3.608924,6,P-GPS,
6200,2023-05-19 17:03:05,52.20517186407,0.0863534590518465,3.608924,3.608924,49.395109192192,53.004033192192,3.937008,0,0.50555119728,0.90557089512,26,5,16.955,53.332117192192,3.937008,0,0.51951773316,0,0,0,99.9, 0, 0,0,0,1179,1024,1024,1024,23,0,0,0,100.3,0,0,99,4.203,4.238,4.237,4.235,0,0,6.954,75.2,53.004033192192,3.608924,6,P-GPS,
6400,2023-05-19 17:03:05,52.2051718213768,0.0863537139760789,3.608924,3.608924,49.395109192192,53.004033192192,3.937008,0.223694,0.52083335,0.96465882352,26,5,16.955,53.332117192192,3.937008,0.223694,0.52083335,0,0.223694,0,100.5, -2.4, 0,0,0,1024,1024,1024,1024,0,0,0,0,100.3,0,0,99,4.203,4.238,4.237,4.235,0,0,6.954,75.2,53.004033192192,3.608924,6,P-GPS,
6600,2023-05-19 17:03:05,52.2051716478941,0.0863542002585498,3.608924,3.608924,49.395109192192,53.004033192192,3.937008,0.3131716,0.59884516352,1.090469195,26,5,16.955,53.332117192192,3.937008,0.3131716,0.59884516352,-0.223694,0.223694,0,100.6, 1.4, -1.7,0,0,1024,1024,1024,1024,0,0,0,0,100.3,0,0,99,4.203,4.238,4.237,4.235,0,0,6.954,75.2,53.004033192192,3.608924,6,P-GPS,
6800,2023-05-19 17:03:06,52.2051714870904,0.0863546249784088,3.608924,3.608924,49.395109192192,53.004033192192,3.937008,0,0.68201117668,1.20209649516,26,5,16.955,53.332117192192,3.937008,0.3131716,0.68201117668,0,0,0,100.1, 3.3, -3.3,0,0,1218,1024,1024,1024,29,0,0,0,100.3,0,0,99,4.203,4.238,4.237,4.235,0,0,6.954,75.2,53.004033192192,3.608924,6,P-GPS,
7000,2023-05-19 17:03:06,52.2051714483481,0.0863547598980969,3.608924,3.608924,49.395109192192,53.004033192192,3.937008,0,0.70587928768,1.23541014452,26,5,16.925,53.332117192192,3.937008,0.3131716,0.70587928768,0,0,0,99.8, 0.3, -1.4,0,0,1394,1024,1024,1024,56,0,0,0,100.3,0,0,99,4.228,4.228,4.192,4.222,0,0,7.36,75.2,53.004033192192,3.608924,6,P-GPS,
7200,2023-05-19 17:03:06,52.2051714772154,0.0863548396517225,3.937008,3.937008,49.395109192192,53.332117192192,3.937008,0,0.7029527784,1.2561188066,26,5,16.925,53.332117192192,3.937008,0.3131716,0.70587928768,0,0,0,100.3, -5.7, -0.6,0,0,1047,1024,1024,1024,3,0,0,0,100.3,0,0,99,4.228,4.228,4.192,4.222,0,0,7.36,75.2,53.332117192192,3.937008,6,P-GPS,
7400,2023-05-19 17:03:06,52.2051714064586,0.0863554016136637,3.937008,3.937008,49.395109192192,53.332117192192,3.937008,0.7158208,0.7834153794,1.38439636976,26,5,16.925,53.332117192192,3.937008,0.7158208,0.7834153794,-0.223694,0.671082,0,100.4, -7.8, -1.3,0,0,1024,1024,1024,1024,0,0,0,0,100.3,0,0,99,4.228,4.228,4.192,4.222,0,0,7.36,75.2,53.332117192192,3.937008,6,P-GPS,
7600,2023-05-19 17:03:06,52.2051712090281,0.0863565308732098,3.937008,3.937008,49.395109192192,53.332117192192,3.937008,0.7158208,0.99153874564,1.64696199496,26,5,16.925,53.332117192192,3.937008,0.7158208,0.99153874564,-0.223694,0.671082,0,99.9, 6.5, -2.8,0,0,1024,1024,1024,1024,0,0,0,0,100.3,0,0,99,4.228,4.228,4.192,4.222,0,0,7.36,75.2,53.332117192192,3.937008,6,P-GPS,
7800,2023-05-19 17:03:07,52.2051710675722,0.0863573128755815,3.937008,3.937008,49.395109192192,53.332117192192,3.937008,0.447388,1.15000331764,1.82927171208,26,5,16.925,53.332117192192,3.937008,0.7158208,1.15000331764,0,0.447388,0,100.3, 5.1, -2.4,0,0,1024,1024,1433,1024,0,0,62,0,100.3,0,0,99,4.228,4.228,4.192,4.222,0,0,7.36,75.2,53.332117192192,3.937008,6,P-GPS,
8000,2023-05-19 17:03:07,52.2051709770001,0.0863577346656089,3.937008,3.937008,49.395109192192,53.332117192192,3.937008,0.223694,1.24166998724,1.92920281764,26,5,16.865,53.332117192192,3.937008,0.7158208,1.24166998724,0,0.223694,-0.223694,99.7, 5, -3.1,0,0,1024,1024,1542,1024,0,0,78,0,100.3,0,0,99,4.214,4.225,4.223,4.212,0,0,8.221,75.2,53.332117192192,3.937008,6,P-GPS,
8200,2023-05-19 17:03:07,52.2051709741489,0.0863577044051352,4.265092,4.265092,49.395109192192,53.660201192192,4.265092,0,1.23733271676,1.93604664988,26,5,16.865,53.660201192192,4.265092,0.7158208,1.24166998724,0,0,-2.460634,99.7, 2.1, -3,0,0,1024,1024,1024,1024,0,0,0,0,100.3,0,0,99,4.214,4.225,4.223,4.212,0,0,8.221,75.2,53.660201192192,4.265092,6,P-GPS,
8400,2023-05-19 17:03:07,52.2051709768737,0.0863574636685851,5.249344,5.249344,49.395109192192,54.644453192192,5.249344,0,1.19724085196,1.98988523428,26,5,16.865,54.644453192192,5.249344,0.7158208,1.24166998724,0,0,-2.908022,99.1, 1.4, -5.8,0,0,1024,1024,1024,1024,0,0,0,0,100.3,0,0,99,4.214,4.225,4.223,4.212,0,0,8.221,75.2,54.644453192192,5.249344,6,P-GPS,
8600,2023-05-19 17:03:07,52.2051709779409,0.0863573801073907,5.905512,5.905512,49.395109192192,55.300621192192,5.905512,0,1.18354990664,2.00857289892,26,5,16.865,55.300621192192,5.905512,0.7158208,1.24166998724,0,0,-1.11847,95.8, 2.4, -6.2,0,0,1024,1024,1432,1024,0,0,62,0,100.3,0,0,99,4.214,4.225,4.223,4.212,0,0,8.221,75.2,55.300621192192,5.905512,6,P-GPS,
8800,2023-05-19 17:03:08,52.205171008135,0.0863573304783791,5.905512,5.905512,49.395109192192,55.300621192192,5.905512,0,1.1679134232,2.02420938236,26,5,16.865,55.300621192192,5.905512,0.7158208,1.24166998724,0,0,-0.447388,95.1, 1.7, -4.2,0,0,1024,1024,1469,1024,0,0,67,0,100.3,0,0,99,4.214,4.225,4.223,4.212,0,0,8.221,75.2,55.300621192192,5.905512,6,P-GPS,
9000,2023-05-19 17:03:08,52.2051711183462,0.0863572732132611,6.56168,6.56168,49.395109192192,55.956789192192,6.56168,0,1.13081040364,2.06640754644,26,5,16.679,55.956789192192,6.56168,0.7158208,1.24166998724,0,0,-2.23694,95.2, 1.4, -3,0,0,1024,1024,1441,1024,0,0,63,0,100.3,0,0,99,4.246,4.247,4.243,4.229,0,0,8.034,75.2,55.956789192192,6.56168,6,P-GPS,
9200,2023-05-19 17:03:08,52.205171206617,0.086357283092146,7.545932,7.545932,49.395109192192,56.941041192192,7.545932,0,1.11057418252,2.0986877312,26,5,16.679,56.941041192192,7.545932,0.7158208,1.24166998724,0,0,-4.250186,95, 1.8, -4,0,0,1024,1024,1341,1024,0,0,48,0,100.3,0,0,99,4.246,4.247,4.243,4.229,0,0,8.034,75.2,56.941041192192,7.545932,6,P-GPS,
9400,2023-05-19 17:03:08,52.2051713096524,0.0863573399807008,8.858268,8.858268,49.395109192192,58.253377192192,8.858268,0,1.09541998256,2.13837605268,26,5,16.679,58.253377192192,8.858268,0.7158208,1.24166998724,0,0,-4.697574,94.8, 2.8, -3.2,0,0,1024,1024,1024,1024,0,0,0,0,100.3,0,0,99,4.246,4.247,4.243,4.229,0,0,8.034,75.2,58.253377192192,8.858268,6,P-GPS,
9600,2023-05-19 17:03:09,52.2051713641251,0.0863573593619073,10.170604,10.170604,49.395109192192,59.565713192192,9.84252,0,1.08605318436,2.15871726068,26,5,16.679,59.565713192192,10.170604,0.7158208,1.24166998724,0,0,-2.908022,95, 2.4, -4,0,0,1024,1024,1024,1024,0,0,0,0,100.3,0,0,99,4.246,4.247,4.243,4.229,0,0,8.034,75.2,59.565713192192,10.170604,6,P-GPS,
9800,2023-05-19 17:03:09,52.2051713567367,0.0863573702206426,10.826772,10.826772,49.395109192192,60.221881192192,10.498688,0,1.08963914248,2.16234586972,26,5,16.679,60.221881192192,10.826772,0.7158208,1.24166998724,0,0,-0.894776,94.9, 2.6, -3.7,0,0,1024,1024,1145,1024,0,0,18,0,100.3,0,0,99,4.246,4.247,4.243,4.229,0,0,8.034,75.2,60.221881192192,10.826772,6,P-GPS,
10000,2023-05-19 17:03:09,52.205171328097,0.0863573201049821,10.826772,10.826772,49.395109192192,60.221881192192,10.498688,0,1.08768376184,2.17766739252,26,5,16.703,60.221881192192,10.826772,0.7158208,1.24166998724,0,0,0,95.1, 1.1, -3.9,0,0,1024,1024,1557,1024,0,0,81,0,100.3,0,0,99,4.268,4.27,4.261,4.253,0,0,9.032,75.38,60.221881192192,10.826772,6,P-GPS,
10200,2023-05-19 17:03:09,52.2051712577337,0.0863572278085714,11.154856,11.154856,49.395109192192,60.549965192192,10.826772,0,1.08891407684,2.21060374528,26,5,16.703,60.549965192192,11.154856,0.7158208,1.24166998724,0,0,-1.11847,95.3, 0.7, -3.5,0,0,1024,1024,1511,1024,0,0,74,0,100.3,0,0,99,4.268,4.27,4.261,4.253,0,0,9.032,75.38,60.549965192192,11.154856,6,P-GPS,
10400,2023-05-19 17:03:09,52.205171138849,0.0863571891287226,11.811024,11.811024,49.395109192192,61.206133192192,11.48294,0,1.11203415632,2.25483274932,26,5,16.703,61.206133192192,11.811024,0.7158208,1.24166998724,0,0,-3.35541,95.3, 1.8, -4.6,0,0,1024,1024,1497,1024,0,0,72,0,100.3,0,0,99,4.268,4.27,4.261,4.253,0,0,9.032,75.38,61.206133192192,11.811024,6,P-GPS,
10600,2023-05-19 17:03:10,52.20517109121,0.086357155892439,13.12336,13.12336,49.395109192192,62.518469192192,13.12336,0,1.11882877596,2.2737369494,26,5,16.703,62.518469192192,13.12336,0.7158208,1.24166998724,0,0,-5.59235,94.7, 2.1, -4.8,0,0,1024,1024,1344,1024,0,0,48,0,100.3,0,0,99,4.268,4.27,4.261,4.253,0,0,9.032,75.38,62.518469192192,13.12336,6,P-GPS,
10800,2023-05-19 17:03:10,52.2051711103297,0.086357010291376,15.091864,15.091864,49.395109192192,64.486973192192,14.76378,0,1.09091867008,2.30703091372,26,5,16.703,64.486973192192,15.091864,0.7158208,1.24166998724,0,0,-6.039738,94.9, 1, -5.8,0,0,1024,1024,1024,1024,0,0,0,0,100.3,0,0,99,4.268,4.27,4.261,4.253,0,0,9.032,75.38,64.486973192192,15.091864,6,P-GPS,
11000,2023-05-19 17:03:10,52.2051710761333,0.0863569070584711,16.732284,16.732284,49.395109192192,66.127393192192,16.076116,0,1.08398297432,2.3332677912,26,5,16.682,66.127393192192,16.732284,0.7158208,1.24166998724,0,0,-4.026492,94.8, 0.6, -7.2,0,0,1024,1024,1024,1024,0,0,0,0,100.3,0,0,99,4.171,4.191,4.204,4.225,0,0,7.534,75.38,66.127393192192,16.732284,6,P-GPS,
11200,2023-05-19 17:03:10,52.2051710390754,0.0863568866969772,17.388452,17.388452,49.395109192192,66.783561192192,17.060368,0,1.09082680656,2.34753616436,26,5,16.682,66.783561192192,17.388452,0.7158208,1.24166998724,0,0,-1.565858,94.8, 0.6, -6.9,0,0,1024,1024,1024,1024,0,0,0,0,100.3,0,0,99,4.171,4.191,4.204,4.225,0,0,7.534,75.38,66.783561192192,17.388452,6,P-GPS,
11400,2023-05-19 17:03:10,52.205170994906,0.0863568940849537,17.716536,17.716536,49.395109192192,67.111645192192,17.388452,0,1.10388454976,2.36373367144,26,5,16.682,67.111645192192,17.716536,0.7158208,1.24166998724,0,0,-0.223694,94.9, 0.4, -5.6,0,0,1024,1358,1024,1024,0,51,0,0,100.3,0,0,99,4.171,4.191,4.204,4.225,0,0,7.534,75.38,67.111645192192,17.716536,6,P-GPS,
11600,2023-05-19 17:03:11,52.2051708968106,0.0863569848069635,17.716536,17.716536,49.395109192192,67.111645192192,17.388452,0,1.14410436732,2.4048721242,26,5,16.682,67.111645192192,17.716536,0.7158208,1.24166998724,0,0,0,95, 0.4, 0.7,0,0,1024,1257,1024,1024,0,35,0,0,100.3,0,0,99,4.171,4.191,4.204,4.225,0,0,7.534,75.38,67.111645192192,17.716536,6,P-GPS,
11800,2023-05-19 17:03:11,52.2051704804937,0.0863571132490667,18.04462,18.0774284,49.362300792192,67.439729192192,17.388452,0.671082,1.27940292808,2.55945874332,26,5,16.682,67.439729192192,18.04462,0.7158208,1.27940292808,-0.671082,0,0,95.4, 1.1, 5.5,0,0,1024,1394,1024,1024,0,56,0,0,100.3,0,0,99,4.171,4.191,4.204,4.225,0,0,7.534,75.38,67.439729192192,18.04462,6,P-GPS,
12000,2023-05-19 17:03:11,52.2051695018071,0.0863571844068306,18.04462,18.0774284,49.362300792192,67.439729192192,17.388452,1.342164,1.58445871212,2.91688657628,26,5,17.032,67.439729192192,18.04462,1.342164,1.58445871212,-1.342164,0,0,95.8, 2, 2.3,0,0,1024,1399,1024,1024,0,57,0,0,100.3,0,0,99,4.229,4.229,4.225,4.209,0,0,6.835,75.74,67.439729192192,18.04462,6,P-GPS,
12200,2023-05-19 17:03:11,52.2051680880174,0.0863571566202281,18.04462,18.1102368,49.329492392192,67.439729192192,17.388452,2.013246,2.04361555096,3.432742892,26,5,17.032,67.439729192192,18.04462,2.013246,2.04361555096,-2.013246,0,0,95.7, 1.9, 4.7,0,0,1024,1437,1024,1024,0,63,0,0,100.3,0,0,99,4.229,4.229,4.225,4.209,0,0,6.835,75.74,67.439729192192,18.04462,6,P-GPS,
12400,2023-05-19 17:03:11,52.2051661168288,0.0863570183848623,18.04462,18.1102368,49.329492392192,67.439729192192,17.388452,2.684328,2.71160441748,4.1525919964,26,5,17.032,67.439729192192,18.04462,2.684328,2.71160441748,-2.684328,0,0,95.1, 1.7, 6,0,0,1024,1444,1024,1024,0,64,0,0,100.3,0,0,99,4.229,4.229,4.225,4.209,0,0,6.835,75.74,67.439729192192,18.04462,6,P-GPS,
12600,2023-05-19 17:03:12,52.2051635514046,0.0863568243539359,18.04462,18.1430452,49.296683992192,67.439729192192,17.388452,3.579104,3.6103019528,5.0895999004,26,5,17.032,67.439729192192,18.04462,3.579104,3.6103019528,-3.579104,0,0,94.9, 1.8, 7.5,0,0,1024,1440,1024,1024,0,63,0,0,100.3,0,0,99,4.229,4.229,4.225,4.209,0,0,6.835,75.74,67.439729192192,18.04462,6,P-GPS,
12800,2023-05-19 17:03:12,52.205160282054,0.0863566232901906,17.716536,17.8477696,49.263875592192,67.111645192192,17.388452,4.250186,4.7784450348,6.2832679176,26,5,17.032,67.439729192192,18.04462,4.250186,4.7784450348,-4.250186,0,0,93.9, 2.1, 7.5,0,0,1024,1433,1024,1024,0,62,0,0,100.3,0,0,99,4.229,4.229,4.225,4.209,0,0,6.835,75.74,67.111645192192,17.716536,6,P-GPS,
13000,2023-05-19 17:03:12,52.2051563664003,0.0863563264725996,17.716536,17.9133864,49.198258792192,67.111645192192,17.388452,5.144962,6.1890750012,7.713418882,26,5,16.877,67.439729192192,18.04462,5.144962,6.1890750012,-5.144962,-0.223694,0,93.8, 2.3, 7.3,0,0,1024,1428,1024,1024,0,61,0,0,100.3,0,0,99,4.217,4.223,4.224,4.218,0,0,7.289,75.74,67.111645192192,17.716536,6,P-GPS,
13200,2023-05-19 17:03:12,52.2051518602214,0.086355966070008,17.716536,17.9461948,49.165450392192,67.111645192192,17.388452,5.816044,7.8209648172,9.3594819268,26,5,16.877,67.439729192192,18.04462,5.816044,7.8209648172,-5.816044,-0.223694,0,93.8, 2, 6.8,0,0,1024,1425,1024,1024,0,61,0,0,100.3,0,0,99,4.217,4.223,4.224,4.218,0,0,7.289,75.74,67.111645192192,17.716536,6,P-GPS,
13400,2023-05-19 17:03:12,52.2051468255517,0.0863555606825378,17.716536,18.0118116,49.099833592192,67.111645192192,17.388452,6.487126,9.6498690752,11.1986224056,26,5,16.877,67.439729192192,18.04462,6.487126,9.6498690752,-6.487126,-0.223694,0,93.6, 2, 6.4,0,0,1024,1425,1024,1024,0,61,0,0,100.3,0,0,99,4.217,4.223,4.224,4.218,0,0,7.289,75.74,67.111645192192,17.716536,6,P-GPS,
13600,2023-05-19 17:03:12,52.2051412985498,0.0863551528886893,17.716536,18.0774284,49.034216792192,67.111645192192,17.388452,7.158208,11.6616145464,13.217192024,25,5,16.877,67.439729192192,18.04462,7.158208,11.6616145464,-7.158208,-0.223694,0,93.3, 1.9, 6.4,0,0,1024,1421,1024,1024,0,60,0,0,100.3,0,0,99,4.217,4.223,4.224,4.218,0,0,7.289,75.74,67.111645192192,17.716536,6,P-GPS,
13800,2023-05-19 17:03:13,52.2051353582799,0.0863547391685584,17.716536,18.1430452,48.968599992192,67.111645192192,17.716536,7.605596,13.8260831196,15.386483432,25,5,16.877,67.439729192192,18.04462,7.605596,13.8260831196,-7.605596,-0.223694,0,93.2, 1.7, 6.1,0,0,1024,1417,1024,1024,0,60,0,0,100.3,0,0,99,4.217,4.223,4.224,4.218,0,0,7.289,75.74,67.111645192192,17.716536,6,P-GPS,
14000,2023-05-19 17:03:13,52.2051289856548,0.0863543132097979,17.716536,18.2414704,48.870174792192,67.111645192192,17.716536,8.052984,16.1495740076,17.7134520104,26,5,16.872,67.439729192192,18.04462,8.052984,16.1495740076,-8.052984,-0.223694,0,93, 1.9, 5.5,0,0,1024,1415,1024,1024,0,59,0,0,100.3,0,0,99,4.214,4.221,4.221,4.216,0,0,7.323,75.92,67.111645192192,17.716536,6,P-GPS,
14200,2023-05-19 17:03:13,52.2051222594003,0.0863538515474354,17.716536,18.3070872,48.804557992192,67.111645192192,17.716536,8.5227414,18.6029205428,20.1697184932,26,5,16.872,67.439729192192,18.04462,8.5227414,18.6029205428,-8.500372,-0.447388,0,92.9, 2, 5,0,0,1024,1413,1024,1024,0,59,0,0,100.3,0,0,99,4.214,4.221,4.221,4.216,0,0,7.323,75.92,67.111645192192,17.716536,6,P-GPS,
14400,2023-05-19 17:03:13,52.2051152132785,0.0863533919447574,17.716536,18.4055124,48.706132792192,67.111645192192,18.04462,8.94776,21.1736555332,22.7425204128,26,5,16.872,67.439729192192,18.04462,8.94776,21.1736555332,-8.94776,-0.447388,0,92.8, 1.8, 5.1,0,0,1002,1422,1024,1024,-3,60,0,0,100.3,0,0,99,4.214,4.221,4.221,4.216,0,0,7.323,75.92,67.111645192192,17.716536,6,P-GPS,
14600,2023-05-19 17:03:13,52.2051078669976,0.0863529168411905,17.716536,18.4711292,48.640515992192,67.111645192192,18.04462,9.171454,23.8543970888,25.4249351968,26,5,16.872,67.439729192192,18.04462,9.171454,23.8543970888,-9.171454,-0.447388,0,92.9, 1.5, 5,0,0,1024,1421,1024,1024,0,60,0,0,100.3,0,0,99,4.214,4.221,4.221,4.216,0,0,7.323,75.92,67.111645192192,17.716536,6,P-GPS,
14800,2023-05-19 17:03:14,52.2051002159916,0.0863524613529808,17.716536,18.5695544,48.542090792192,67.111645192192,18.372704,9.618842,26.6465887792,28.2182423728,26,5,16.872,67.439729192192,18.04462,9.618842,26.6465887792,-9.618842,-0.447388,0,92.8, 0.7, 4.9,0,0,1022,1422,1024,1024,-0,60,0,0,100.3,0,0,99,4.214,4.221,4.221,4.216,0,0,7.323,75.92,67.111645192192,17.716536,6,P-GPS,
15000,2023-05-19 17:03:14,52.2050923009489,0.0863520729948084,17.716536,18.6679796,48.443665592192,67.111645192192,18.04462,10.06623,29.5351387404,31.1073500768,26,5,16.873,67.439729192192,18.04462,10.06623,29.5351387404,-10.06623,-0.447388,0,92.7, 1.3, 4.7,0,0,1024,1422,1024,1024,0,60,0,0,100.3,0,0,99,4.211,4.222,4.217,4.215,0,0,7.239,75.74,67.111645192192,17.716536,6,P-GPS,
15200,2023-05-19 17:03:14,52.2050841104712,0.0863516909261304,17.388452,18.4383208,48.345240392192,66.783561192192,18.372704,10.289924,32.5242464476,34.096785868,26,5,16.873,67.439729192192,18.04462,10.289924,32.5242464476,-10.289924,-0.447388,0,92.8, 1.5, 4.8,0,0,1024,1414,1024,1024,0,59,0,0,100.3,0,0,99,4.211,4.222,4.217,4.215,0,0,7.239,75.74,66.783561192192,17.388452,6,P-GPS,
15400,2023-05-19 17:03:14,52.2050756547876,0.0863512863799206,17.388452,18.536746,48.246815192192,66.783561192192,18.04462,10.513618,35.61023736,37.18340014,26,5,16.873,67.439729192192,18.04462,10.513618,35.61023736,-10.513618,-0.447388,0,92.8, 1.4, 4.4,0,0,1024,1326,1024,1024,0,46,0,0,100.3,0,0,99,4.211,4.222,4.217,4.215,0,0,7.239,75.74,66.783561192192,17.388452,6,P-GPS,
15600,2023-05-19 17:03:14,52.2050669937463,0.0863508481504223,17.388452,18.6351712,48.148389992192,66.783561192192,18.04462,10.737312,38.7713267,40.344817564,26,5,16.873,67.439729192192,18.04462,10.737312,38.7713267,-10.737312,-0.447388,0,92.7, 1.3, 3.5,0,0,1024,1024,1024,1024,0,0,0,0,100.3,0,0,99,4.211,4.222,4.217,4.215,0,0,7.239,75.74,66.783561192192,17.388452,6,P-GPS,
15800,2023-05-19 17:03:15,52.205058238529,0.0863503867736492,17.388452,18.7335964,48.049964792192,66.783561192192,18.04462,10.737312,41.96686486,43.540683808,26,5,16.873,67.439729192192,18.04462,10.737312,41.96686486,-10.737312,-0.447388,0,92.9, 1, -18.4,0,0,1024,1024,1024,1024,0,0,0,0,100.3,0,0,99,4.211,4.222,4.217,4.215,0,0,7.239,75.74,66.783561192192,17.388452,6,P-GPS,
16000,2023-05-19 17:03:15,52.2050503915932,0.0863499906912637,17.388452,18.8320216,47.951539592192,66.783561192192,18.04462,8.724066,44.83103818,46.405185212,26,5,16.876,67.439729192192,18.04462,10.737312,44.83103818,-8.724066,-0.223694,0,93.8, 1.8, -28.5,0,0,1024,1024,1028,1024,0,0,1,0,100.3,0,0,99,4.214,4.214,4.197,4.215,0,0,7.218,75.92,66.783561192192,17.388452,6,P-GPS,
16200,2023-05-19 17:03:15,52.2050444748524,0.086349773130602,17.388452,18.8976384,47.885922792192,66.783561192192,17.716536,6.263432,46.990158984,48.564306016,26,5,16.876,67.439729192192,18.04462,10.737312,46.990158984,-6.263432,-0.223694,0,94.5, 2.8, -28.8,0,0,1024,1024,1128,1024,0,0,16,0,100.3,0,0,99,4.214,4.214,4.197,4.215,0,0,7.218,75.92,66.783561192192,17.388452,6,P-GPS,
16400,2023-05-19 17:03:15,52.205040511,0.0863496463592247,17.388452,18.9304468,47.853114392192,66.783561192192,17.716536,3.802798,48.43668134,50.010828372,26,5,16.876,67.439729192192,18.04462,10.737312,48.43668134,-3.802798,0,0,94.6, 3.4, -28.4,0,0,1024,1024,1398,1024,0,0,57,0,100.3,0,0,99,4.214,4.214,4.197,4.215,0,0,7.218,75.92,66.783561192192,17.388452,6,P-GPS,
16600,2023-05-19 17:03:15,52.2050383812389,0.0863495961826238,17.388452,18.9632552,47.820305992192,66.783561192192,17.716536,1.789552,49.213912336,50.788059368,26,5,16.876,67.439729192192,18.04462,10.737312,49.213912336,-1.789552,0,-0.671082,94.7, 2.7, -18.9,0,0,1024,1024,1505,1024,0,0,73,0,100.3,0,0,99,4.214,4.214,4.197,4.215,0,0,7.218,75.92,66.783561192192,17.388452,6,P-GPS,
16800,2023-05-19 17:03:16,52.2050377065,0.0863495813870127,18.04462,19.6194232,47.820305992192,67.439729192192,18.372704,0.447388,49.459975336,51.034122368,26,5,16.876,67.439729192192,18.04462,10.737312,49.459975336,-0.447388,0,-2.908022,93.2, 1.6, -6.8,0,0,1024,1024,1475,1024,0,0,68,0,100.3,0,0,99,4.214,4.214,4.197,4.215,0,0,7.218,75.92,67.439729192192,18.04462,6,P-GPS,
17000,2023-05-19 17:03:16,52.2050374588133,0.0863495618183982,19.68504,21.2926516,47.787497592192,69.080149192192,19.68504,0.223694,49.55052652,51.124673552,26,5,16.789,69.080149192192,19.68504,10.737312,49.55052652,-0.223694,0,-4.921268,92.2, 1.8, -3.7,0,0,1024,1024,1415,1024,0,0,59,0,100.3,0,0,98,4.142,4.151,4.146,4.142,0,0,8.176,75.92,69.080149192192,19.68504,6,P-GPS,
17200,2023-05-19 17:03:16,52.2050372204645,0.0863495323571383,21.32546,22.9330716,47.787497592192,70.720569192192,21.32546,0.223694,49.63746878,51.211943896,26,5,16.789,70.720569192192,21.32546,10.737312,49.63746878,-0.223694,0,-5.59235,92.1, 2.1, -4.8,0,0,1024,1024,1314,1024,0,0,44,0,100.3,0,0,98,4.142,4.151,4.146,4.142,0,0,8.176,75.92,70.720569192192,21.32546,6,P-GPS,
17400,2023-05-19 17:03:16,52.2050370101553,0.0863494497563546,22.96588,24.5734916,47.787497592192,72.360989192192,22.96588,0.223694,49.71456852,51.290684056,26,5,16.789,72.360989192192,22.96588,10.737312,49.71456852,-0.223694,0,-4.697574,92.1, 1.1, -5.5,0,0,1024,1024,1024,1024,0,0,0,0,100.3,0,0,98,4.142,4.151,4.146,4.142,0,0,8.176,75.92,72.360989192192,22.96588,6,P-GPS,
17600,2023-05-19 17:03:17,52.2050367843057,0.0863493374177861,23.950132,25.5577436,47.787497592192,73.345241192192,23.950132,0.223694,49.797573772,51.376970148,26,5,16.789,73.345241192192,23.950132,10.737312,49.797573772,-0.223694,0,-2.684328,92.2, 0.2, -6.6,0,0,1024,1024,1024,1024,0,0,0,0,100.3,0,0,98,4.142,4.151,4.146,4.142,0,0,8.176,75.92,73.345241192192,23.950132,6,P-GPS,
17800,2023-05-19 17:03:17,52.205036573174,0.0863492222038828,24.6063,26.2139116,47.787497592192,74.001409192192,24.6063,0.223694,49.875001596,51.458006896,26,5,16.789,74.001409192192,24.6063,10.737312,49.875001596,-0.223694,0,-0.671082,92.1, 0, -6.7,0,0,1024,1024,1024,1024,0,0,0,0,100.3,0,0,98,4.142,4.151,4.146,4.142,0,0,8.176,75.92,74.001409192192,24.6063,6,P-GPS,
18000,2023-05-19 17:03:17,52.2050364395987,0.0863492030985459,24.6063,26.2139116,47.787497592192,74.001409192192,24.934384,0,49.923886112,51.506891412,26,5,16.835,74.001409192192,24.6063,10.737312,49.923886112,0,0,0,92.2, 0.7, -6.3,0,0,1024,1024,1024,1024,0,0,0,0,100.3,0,0,98,4.244,4.246,4.239,4.23,0,0,10.276,76.1,74.001409192192,24.6063,6,P-GPS,
18200,2023-05-19 17:03:17,52.2050363694014,0.0863492766257743,24.6063,26.2139116,47.787497592192,74.001409192192,24.934384,0,49.94914858,51.537403224,26,5,16.835,74.001409192192,24.6063,10.737312,49.94914858,0,0,0,92.3, 1.7, -6.5,0,0,1024,1024,1024,1024,0,0,0,0,100.3,0,0,98,4.244,4.246,4.239,4.23,0,0,10.276,76.1,74.001409192192,24.6063,6,P-GPS,
18400,2023-05-19 17:03:17,52.2050363936029,0.0863492854182177,24.934384,26.5419956,47.787497592192,74.329493192192,24.934384,0,49.940290312,51.546589576,26,5,16.835,74.329493192192,24.934384,10.737312,49.94914858,0,0,0,92.2, 1.8, -6.1,0,0,1024,1024,1024,1024,0,0,0,0,100.3,0,0,98,4.244,4.246,4.239,4.23,0,0,10.276,76.1,74.329493192192,24.934384,6,P-GPS,
18600,2023-05-19 17:03:18,52.2050365256019,0.086349188782594,24.934384,26.5419956,47.787497592192,74.329493192192,25.262468,0,49.892390048,51.5994111,26,5,16.835,74.329493192192,24.934384,10.737312,49.94914858,0,0,0,92.3, 1.1, -5.7,0,0,1024,1024,1024,1024,0,0,0,0,100.3,0,0,98,4.244,4.246,4.239,4.23,0,0,10.276,76.1,74.329493192192,24.934384,6,P-GPS,
18800,2023-05-19 17:03:18,52.2050367061754,0.0863490636603186,24.934384,26.5419956,47.787497592192,74.329493192192,24.934384,0,49.827101332,51.670933412,26,5,16.835,74.329493192192,24.934384,10.737312,49.94914858,0,0,0,92.3, 0.8, -5.4,0,0,1024,1024,1024,1024,0,0,0,0,100.3,0,0,98,4.244,4.246,4.239,4.23,0,0,10.276,76.1,74.329493192192,24.934384,6,P-GPS,
19000,2023-05-19 17:03:18,52.2050369158336,0.0863489677800054,24.934384,26.5419956,47.787497592192,74.329493192192,25.262468,0,49.751313928,51.75032974,26,5,16.86,74.329493192192,24.934384,10.737312,49.94914858,0,0,0,92.2, 1.2, -5.1,0,0,1024,1024,1024,1024,0,0,0,0,100.3,0,0,98,4.211,4.217,4.217,4.214,0,0,5.938,76.1,74.329493192192,24.934384,6,P-GPS,
19200,2023-05-19 17:03:18,52.2050371237441,0.0863489018583038,24.934384,26.5419956,47.787497592192,74.329493192192,24.934384,0,49.675526524,51.82742948,26,5,16.86,74.329493192192,24.934384,10.737312,49.94914858,0,0,0,92.3, 1.2, -5.1,0,0,1024,1024,1024,1024,0,0,0,0,100.3,0,0,98,4.211,4.217,4.217,4.214,0,0,5.938,76.1,74.329493192192,24.934384,6,P-GPS,
19400,2023-05-19 17:03:18,52.2050372942343,0.0863488719411928,24.934384,26.5419956,47.787497592192,74.329493192192,24.934384,0,49.613518648,51.890093524,26,5,16.86,74.329493192192,24.934384,10.737312,49.94914858,0,0,0,92.1, 1.6, -5.5,0,0,1024,1024,1024,1024,0,0,0,0,100.3,0,0,98,4.211,4.217,4.217,4.214,0,0,5.938,76.1,74.329493192192,24.934384,6,P-GPS,
19600,2023-05-19 17:03:19,52.2050374304568,0.0863488497305205,24.934384,26.5419956,47.787497592192,74.329493192192,24.934384,0,49.563977964,51.939962292,26,5,16.86,74.329493192192,24.934384,10.737312,49.94914858,0,0,0,92.2, 1.4, -5.8,0,0,1024,1024,1024,1024,0,0,0,0,100.3,0,0,98,4.211,4.217,4.217,4.214,0,0,5.938,76.1,74.329493192192,24.934384,6,P-GPS,
19800,2023-05-19 17:03:19,52.2050375477807,0.0863488379225141,24.934384,26.5091872,47.820305992192,74.329493192192,24.934384,0,49.521327044,51.982941296,26,5,16.86,74.329493192192,24.934384,10.737312,49.94914858,0,0,0,92.2, 1.5, -5.8,0,0,1024,1024,1024,1024,0,0,0,0,100.3,0,0,98,4.211,4.217,4.217,4.214,0,0,5.938,76.1,74.329493192192,24.934384,6,P-GPS,
20000,2023-05-19 17:03:19,52.2050376902228,0.0863488269759723,25.262468,26.8372712,47.820305992192,74.657577192192,24.934384,0,49.469489772,52.035106652,26,5,16.856,74.657577192192,25.262468,10.737312,49.94914858,0,0,0,92.2, 1.8, -6.2,0,0,1024,1024,1024,1024,0,0,0,0,100.3,0,0,98,4.209,4.216,4.217,4.21,0,0,7.098,76.1,74.657577192192,25.262468,6,P-GPS,
20200,2023-05-19 17:03:19,52.2050378243636,0.0863488281904103,25.262468,26.8372712,47.820305992192,74.657577192192,24.934384,0,49.420277172,52.083991168,26,5,16.856,74.657577192192,25.262468,10.737312,49.94914858,0,0,0,92.1, 1.4, -5.8,0,0,1024,1024,1024,1024,0,0,0,0,100.3,0,0,98,4.209,4.216,4.217,4.21,0,0,7.098,76.1,74.657577192192,25.262468,6,P-GPS,
20400,2023-05-19 17:03:19,52.205037982843,0.0863488212143816,25.262468,26.8372712,47.820305992192,74.657577192192,24.934384,0,49.362534388,52.141733952,25,5,16.856,74.657577192192,25.262468,10.737312,49.94914858,0,0,0,92.2, 1.6, -5.5,0,0,1024,1024,1024,1024,0,0,0,0,100.3,0,0,98,4.209,4.216,4.217,4.21,0,0,7.098,76.1,74.657577192192,25.262468,6,P-GPS,
20600,2023-05-19 17:03:19,52.2050381752902,0.0863487722886955,25.262468,26.8372712,47.820305992192,74.657577192192,24.934384,0,49.292652496,52.21292818,25,5,16.856,74.657577192192,25.262468,10.737312,49.94914858,0,0,0,92.3, 0.9, -5,0,0,1024,1024,1024,894,0,0,0,-20,100.3,0,0,98,4.209,4.216,4.217,4.21,0,0,7.098,76.1,74.657577192192,25.262468,6,P-GPS,
20800,2023-05-19 17:03:20,52.2050383214847,0.086348748058911,25.262468,26.8372712,47.820305992192,74.657577192192,24.934384,0,49.239502888,52.266405872,25,5,16.856,74.657577192192,25.262468,10.737312,49.94914858,0,0,0,92.3, 1.2, -5,0,0,1024,1024,1024,913,0,0,0,-17,100.2,0,0,98,4.209,4.216,4.217,4.21,0,0,7.098,76.1,74.657577192192,25.262468,6,P-GPS,
21000,2023-05-19 17:03:20,52.2050384564307,0.086348703921081,25.262468,26.8372712,47.820305992192,74.657577192192,25.262468,0,49.190618372,52.316602724,26,5,16.849,74.657577192192,25.262468,10.737312,49.94914858,0,0,0,91.8, 0.8, -4.6,0,0,1024,1024,1024,1024,0,0,0,0,98.6,0,0,98,4.208,4.213,4.214,4.208,0,0,7.085,76.28,74.657577192192,25.262468,6,P-GPS,
21200,2023-05-19 17:03:20,52.2050385406949,0.0863486856717481,25.262468,26.8372712,47.820305992192,74.657577192192,25.262468,0,49.159778476,52.347770704,25,5,16.849,74.657577192192,25.262468,10.737312,49.94914858,0,0,0,90.1, 0.8, -4.8,0,0,1024,1024,1024,374,0,0,0,-98,97.8,0,0,98,4.208,4.213,4.214,4.208,0,0,7.085,76.28,74.657577192192,25.262468,6,P-GPS,
21400,2023-05-19 17:03:20,52.2050386266896,0.0863487098329474,25.262468,26.8372712,47.820305992192,74.657577192192,25.262468,0,49.128282412,52.379594852,25,5,16.849,74.657577192192,25.262468,10.737312,49.94914858,0,0,0,87.8, 0.6, -4.4,0,0,1024,1024,1024,364,0,0,0,-100,89,0,0,98,4.208,4.213,4.214,4.208,0,0,7.085,76.28,74.657577192192,25.262468,6,P-GPS,
21600,2023-05-19 17:03:20,52.2050386741075,0.0863487679512299,25.262468,26.8372712,47.820305992192,74.657577192192,25.262468,0,49.11089396,52.401248396,26,5,16.849,74.657577192192,25.262468,10.737312,49.94914858,0,0,0,75.7, 1.7, -5.5,0,0,1024,1024,1024,1024,0,0,0,0,77.5,0,0,98,4.208,4.213,4.214,4.208,0,0,7.085,76.28,74.657577192192,25.262468,6,P-GPS,
21800,2023-05-19 17:03:21,52.2050386710406,0.0863487028328921,25.262468,26.8372712,47.820305992192,74.657577192192,25.262468,0,49.112206296,52.415684092,26,5,16.849,74.657577192192,25.262468,10.737312,49.94914858,0,0,0,65.7, 0.8, -5.1,0,0,1024,1024,1024,1024,0,0,0,0,74.2,0,0,98,4.208,4.213,4.214,4.208,0,0,7.085,76.28,74.657577192192,25.262468,6,P-GPS,
22000,2023-05-19 17:03:21,52.2050386344855,0.0863484311150689,25.262468,26.8372712,47.820305992192,74.657577192192,25.262468,0.223694,49.126970076,52.478020052,26,5,16.843,74.657577192192,25.262468,10.737312,49.94914858,0,-0.223694,0,66.2, -1.2, -4.1,0,0,1024,1024,1024,1024,0,0,0,0,74.2,0,0,98,4.207,4.215,4.217,4.211,0,0,7.153,76.46,74.657577192192,25.262468,6,P-GPS,
22200,2023-05-19 17:03:21,52.2050385922335,0.0863481564616258,25.262468,26.8372712,47.820305992192,74.657577192192,25.262468,0,49.14370236,52.541340264,26,5,16.843,74.657577192192,25.262468,10.737312,49.94914858,0,0,0,66.7, -2.6, -4.1,0,0,1024,1024,1024,1655,0,0,0,96,74.2,0,0,98,4.207,4.215,4.217,4.211,0,0,7.153,76.46,74.657577192192,25.262468,6,P-GPS,
22400,2023-05-19 17:03:21,52.205038536677,0.0863480250432759,25.262468,26.8372712,47.820305992192,74.657577192192,25.262468,0,49.164699736,52.57710142,26,5,16.843,74.657577192192,25.262468,10.737312,49.94914858,0,0,0,66.6, -2.8, -4.4,0,0,1024,1024,1024,1663,0,0,0,97,77.7,0,0,98,4.207,4.215,4.217,4.211,0,0,7.153,76.46,74.657577192192,25.262468,6,P-GPS,
22600,2023-05-19 17:03:21,52.2050385052878,0.0863480398607295,25.262468,26.8372712,47.820305992192,74.657577192192,24.934384,0,49.176182676,52.588912444,26,5,16.843,74.657577192192,25.262468,10.737312,49.94914858,0,0,0,73.8, -2.2, -5.2,0,0,1024,1024,1024,1646,0,0,0,94,88.1,0,0,98,4.207,4.215,4.217,4.211,0,0,7.153,76.46,74.657577192192,25.262468,6,P-GPS,
22800,2023-05-19 17:03:22,52.2050385240494,0.0863481492007721,25.262468,26.8372712,47.820305992192,74.657577192192,25.262468,0,49.168636744,52.614174912,26,5,16.843,74.657577192192,25.262468,10.737312,49.94914858,0,0,0,85.4, -2.6, -4.7,0,0,1024,1024,1024,1471,0,0,0,68,98.9,0,0,98,4.207,4.215,4.217,4.211,0,0,7.153,76.46,74.657577192192,25.262468,6,P-GPS,
23000,2023-05-19 17:03:22,52.205038531554,0.086348475238046,25.262468,26.8372712,47.820305992192,74.657577192192,25.262468,0.223694,49.164371652,52.687337644,26,5,16.845,74.657577192192,25.262468,10.737312,49.94914858,0,0.223694,0,95.9, -1.2, -4.8,0,0,1024,1024,1024,1024,0,0,0,0,107.8,0,0,98,4.207,4.213,4.215,4.209,0,0,7.075,76.46,74.657577192192,25.262468,6,P-GPS,
23200,2023-05-19 17:03:22,52.2050385138805,0.0863489908482106,25.262468,26.8372712,47.820305992192,74.657577192192,25.262468,0.223694,49.167980576,52.802823212,26,5,16.845,74.657577192192,25.262468,10.737312,49.94914858,0,0.223694,0,102.6, 0.6, -4.5,0,0,1024,1024,1024,1024,0,0,0,0,111.9,0,0,98,4.207,4.213,4.215,4.209,0,0,7.075,76.46,74.657577192192,25.262468,6,P-GPS,
23400,2023-05-19 17:03:22,52.2050384407276,0.0863495372474353,25.262468,26.8372712,47.820305992192,74.657577192192,25.262468,0.223694,49.192258792,52.927823216,26,5,16.845,74.657577192192,25.262468,10.737312,49.94914858,0,0.223694,0,104, 2.7, -4.7,0,0,1024,1024,1024,1684,0,0,0,100,112.2,0,0,98,4.207,4.213,4.215,4.209,0,0,7.075,76.46,74.657577192192,25.262468,6,P-GPS,
23600,2023-05-19 17:03:22,52.205038321142,0.0863499507926085,25.262468,26.8372712,47.820305992192,74.657577192192,24.934384,0.223694,49.234253544,53.02985734,26,5,16.845,74.657577192192,25.262468,10.737312,49.94914858,0,0.223694,0,105.1, 3.4, -4.5,0,0,1024,1024,1024,1684,0,0,0,100,119.9,0,0,98,4.207,4.213,4.215,4.209,0,0,7.075,76.46,74.657577192192,25.262468,6,P-GPS,
23800,2023-05-19 17:03:23,52.205038238377,0.0863501668039882,25.262468,26.8372712,47.820305992192,74.657577192192,25.262468,0,49.263781104,53.086943956,26,5,16.845,74.657577192192,25.262468,10.737312,49.94914858,0,0,0,116.8, 2.5, -3.4,0,0,1024,1024,1024,1684,0,0,0,100,131.8,0,0,98,4.207,4.213,4.215,4.209,0,0,7.075,76.46,74.657577192192,25.262468,6,P-GPS,
24000,2023-05-19 17:03:23,52.2050381821352,0.0863503376540025,25.262468,26.8372712,47.820305992192,74.657577192192,24.934384,0,49.283794228,53.130251044,26,5,16.841,74.657577192192,25.262468,10.737312,49.94914858,0,0,0,129, 1.9, -3.5,0,0,1024,1024,1024,1675,0,0,0,99,143.8,0,0,98,4.202,4.207,4.21,4.206,0,0,7.077,76.46,74.657577192192,25.262468,6,P-GPS,
24200,2023-05-19 17:03:23,52.2050380988905,0.0863505766086488,25.262468,26.8372712,47.820305992192,74.657577192192,25.262468,0,49.313321788,53.191930836,26,5,16.841,74.657577192192,25.262468,10.737312,49.94914858,0,0,0,140.8, 2.9, -2.7,0,0,1024,1024,1024,1024,0,0,0,0,155.7,0,0,98,4.202,4.207,4.21,4.206,0,0,7.077,76.46,74.657577192192,25.262468,6,P-GPS,
24400,2023-05-19 17:03:23,52.2050379663174,0.0863508817354199,25.262468,26.8372712,47.820305992192,74.657577192192,24.934384,0.223694,49.360893968,53.275264172,26,5,16.841,74.657577192192,25.262468,10.737312,49.94914858,0,0.223694,0,152.3, 3.7, -1.6,0,0,1024,1024,1024,1024,0,0,0,0,162.4,0,0,98,4.202,4.207,4.21,4.206,0,0,7.077,76.46,74.657577192192,25.262468,6,P-GPS,
24600,2023-05-19 17:03:24,52.2050377993054,0.0863511792166925,25.262468,26.8372712,47.820305992192,74.657577192192,24.934384,0.223694,49.42093334,53.365487272,26,5,16.841,74.657577192192,25.262468,10.737312,49.94914858,0,0.223694,0,154.9, 5.3, -1.2,0,0,1024,1024,1024,1126,0,0,0,15,162.6,0,0,98,4.202,4.207,4.21,4.206,0,0,7.077,76.46,74.657577192192,25.262468,6,P-GPS,
24800,2023-05-19 17:03:24,52.2050376867704,0.0863514283822282,25.262468,26.8372712,47.820305992192,74.657577192192,25.262468,0,49.461615756,53.434712996,26,5,16.841,74.657577192192,25.262468,10.737312,49.94914858,0,0,0,154.6, 5.2, -0.4,0,0,1024,1024,1024,1406,0,0,0,58,162.7,0,0,98,4.202,4.207,4.21,4.206,0,0,7.077,76.46,74.657577192192,25.262468,6,P-GPS,
25000,2023-05-19 17:03:24,52.2050376535907,0.086351529899958,25.262468,26.8372712,47.820305992192,74.657577192192,25.262468,0,49.47342678,53.460631632,26,5,16.83,74.657577192192,25.262468,10.737312,49.94914858,0,0,0,155.9, 4.6, 0.1,0,0,1024,1024,1024,1024,0,0,0,0,166.8,0,0,98,4.197,4.206,4.205,4.201,0,0,7.275,76.64,74.657577192192,25.262468,6,P-GPS,
25200,2023-05-19 17:03:24,52.205037648245,0.086351492881006,25.262468,26.8372712,47.820305992192,74.657577192192,25.262468,0,49.475395284,53.469161816,26,5,16.83,74.657577192192,25.262468,10.737312,49.94914858,0,0,0,160.2, 4.3, -0.1,0,0,1024,1024,1024,1024,0,0,0,0,167.7,0,0,98,4.197,4.206,4.205,4.201,0,0,7.275,76.64,74.657577192192,25.262468,6,P-GPS,
25400,2023-05-19 17:03:24,52.2050376667581,0.0863513719366375,25.262468,26.8372712,47.820305992192,74.657577192192,25.262468,0,49.468833604,53.497048956,26,5,16.83,74.657577192192,25.262468,10.737312,49.94914858,0,0,0,159.6, 4, -0.3,0,0,1024,1024,1024,1024,0,0,0,0,167.7,0,0,98,4.197,4.206,4.205,4.201,0,0,7.275,76.64,74.657577192192,25.262468,6,P-GPS,
25600,2023-05-19 17:03:25,52.2050377044696,0.0863512211263783,25.262468,26.8372712,47.820305992192,74.657577192192,25.262468,0,49.45538216,53.53346628,26,5,16.83,74.657577192192,25.262468,10.737312,49.94914858,0,0,0,159.6, 3.5, -0.2,0,0,1024,1024,1024,1024,0,0,0,0,167.7,0,0,98,4.197,4.206,4.205,4.201,0,0,7.275,76.64,74.657577192192,25.262468,6,P-GPS,
25800,2023-05-19 17:03:25,52.2050377681904,0.0863510391646936,25.262468,26.8372712,47.820305992192,74.657577192192,25.262468,0,49.432744364,53.580382292,26,5,16.83,74.657577192192,25.262468,10.737312,49.94914858,0,0,0,159.7, 3.3, -0.3,0,0,1024,1024,1024,1024,0,0,0,0,167.7,0,0,98,4.197,4.206,4.205,4.201,0,0,7.275,76.64,74.657577192192,25.262468,6,P-GPS,
26000,2023-05-19 17:03:25,52.2050378328706,0.086350845814595,25.262468,26.8372712,47.820305992192,74.657577192192,24.934384,0,49.409778484,53.629594892,26,5,16.821,74.657577192192,25.262468,10.737312,49.94914858,0,0,0,159.7, 3, -0.4,0,0,1024,1024,1023,1024,0,0,-0,0,167.7,0,0,98,4.201,4.21,4.207,4.204,0,0,7.349,76.64,74.657577192192,25.262468,6,P-GPS,
26200,2023-05-19 17:03:25,52.2050378926762,0.0863506962812431,25.262468,26.8372712,47.820305992192,74.657577192192,25.262468,0,49.38812494,53.669293056,26,5,16.821,74.657577192192,25.262468,10.737312,49.94914858,0,0,0,159.6, 3, 0,0,0,1024,1024,364,1024,0,0,-100,0,167.7,0,0,98,4.201,4.21,4.207,4.204,0,0,7.349,76.64,74.657577192192,25.262468,6,P-GPS,
26400,2023-05-19 17:03:25,52.2050379321183,0.0863505811267512,25.262468,26.8372712,47.820305992192,74.657577192192,25.262468,0,49.374345412,53.698820616,26,5,16.821,74.657577192192,25.262468,10.737312,49.94914858,0,0,0.671082,159.5, 3.4, 0.1,0,0,1024,1024,987,1024,0,0,-6,0,167.7,0,0,98,4.201,4.21,4.207,4.204,0,0,7.349,76.64,74.657577192192,25.262468,6,P-GPS,
26600,2023-05-19 17:03:25,52.2050379141363,0.0863504742123081,24.6063,26.1811032,47.820305992192,74.001409192192,24.6063,0,49.381235176,53.723755,26,5,16.821,74.657577192192,25.262468,10.737312,49.94914858,0,0,2.460634,159.7, 3.1, 0.2,0,0,1024,1024,1024,1024,0,0,0,0,167.7,0,0,98,4.201,4.21,4.207,4.204,0,0,7.349,76.64,74.001409192192,24.6063,6,P-GPS,
26800,2023-05-19 17:03:26,52.2050378620152,0.0863503335083133,24.278216,25.8530192,47.820305992192,73.673325192192,23.950132,0,49.400592132,53.760500408,26,5,16.821,74.657577192192,25.262468,10.737312,49.94914858,0,0,1.11847,160.1, 2.4, -0.3,0,0,1024,1024,1024,1024,0,0,0,0,167.7,0,0,98,4.201,4.21,4.207,4.204,0,0,7.349,76.64,73.673325192192,24.278216,6,P-GPS,
27000,2023-05-19 17:03:26,52.2050377315068,0.0863502397043395,23.950132,25.5249352,47.820305992192,73.345241192192,23.622048,0,49.448492396,53.81233768,26,5,16.919,74.657577192192,25.262468,10.737312,49.94914858,0,0,0.223694,159.6, 5.2, -0.8,0,0,1024,1024,1024,1024,0,0,0,0,167.7,0,0,98,4.167,4.184,4.191,4.184,0,0,6.39,76.82,73.345241192192,23.950132,6,P-GPS,
27200,2023-05-19 17:03:26,52.2050376645821,0.0863501652254372,23.950132,25.5249352,47.820305992192,73.345241192192,23.622048,0,49.473098696,53.842193324,26,5,16.919,74.657577192192,25.262468,10.737312,49.94914858,0,0,0,159.7, 4.4, -0.5,0,0,1024,1024,1471,1024,0,0,68,0,167.7,0,0,98,4.167,4.184,4.191,4.184,0,0,6.39,76.82,73.345241192192,23.950132,6,P-GPS,
27400,2023-05-19 17:03:26,52.2050376627316,0.0863500371644841,23.950132,25.5249352,47.820305992192,73.345241192192,23.622048,0,49.474411032,53.870736632,26,5,16.919,74.657577192192,25.262468,10.737312,49.94914858,0,0,0,159.8, 3.5, -1.1,0,0,1024,1024,1497,1024,0,0,72,0,167.7,0,0,98,4.167,4.184,4.191,4.184,0,0,6.39,76.82,73.345241192192,23.950132,6,P-GPS,
27600,2023-05-19 17:03:27,52.2050376181065,0.0863500133584423,24.278216,25.8530192,47.820305992192,73.673325192192,23.622048,0,49.490815232,53.887797,26,5,16.919,74.657577192192,25.262468,10.737312,49.94914858,0,0,-2.013246,159.4, 2.8, -0.4,0,0,1024,1024,1024,1024,0,0,0,0,167.7,0,0,98,4.167,4.184,4.191,4.184,0,0,6.39,76.82,73.673325192192,24.278216,6,P-GPS,
27800,2023-05-19 17:03:27,52.2050375197926,0.0863500189236698,25.262468,26.8372712,47.820305992192,74.657577192192,24.6063,0,49.526576388,53.923558156,26,5,16.919,74.657577192192,25.262468,10.737312,49.94914858,0,0,-2.908022,159.3, 5.2, -0.9,0,0,1024,1024,1024,1024,0,0,0,0,167.7,0,0,98,4.167,4.184,4.191,4.184,0,0,6.39,76.82,74.657577192192,25.262468,6,P-GPS,
28000,2023-05-19 17:03:27,52.2050374243829,0.086350035862895,25.918636,27.5262476,47.787497592192,75.313745192192,25.262468,0,49.561353292,53.958663144,26,5,16.802,75.313745192192,25.918636,10.737312,49.94914858,0,0,-1.11847,159.7, 6.4, -0.9,0,0,1024,1024,1024,1024,0,0,0,0,167.7,0,0,98,4.232,4.241,4.236,4.23,0,0,9.106,76.64,75.313745192192,25.918636,6,P-GPS,
28200,2023-05-19 17:03:27,52.2050373154545,0.0863500269487893,25.918636,27.5262476,47.787497592192,75.313745192192,25.590552,0,49.601051456,53.998361308,26,5,16.802,75.313745192192,25.918636,10.737312,49.94914858,0,0,-0.223694,159.8, 4.4, -0.7,0,0,1024,1024,1024,1024,0,0,0,0,167.7,0,0,98,4.232,4.241,4.236,4.23,0,0,9.106,76.64,75.313745192192,25.918636,6,P-GPS,
28400,2023-05-19 17:03:27,52.2050372591356,0.0863500495085033,25.918636,27.5262476,47.787497592192,75.313745192192,25.918636,0,49.621392664,54.019686768,26,5,16.802,75.313745192192,25.918636,10.737312,49.94914858,0,0,0,159.6, 4.4, -0.4,0,0,1024,1024,1024,1024,0,0,0,0,167.7,-0.2,0,98,4.232,4.241,4.236,4.23,0,0,9.106,76.64,75.313745192192,25.918636,6,P-GPS,
28600,2023-05-19 17:03:27,52.2050371906174,0.0863500079292931,25.918636,27.5262476,47.787497592192,75.313745192192,25.590552,0,49.646655132,54.046261572,26,5,16.802,75.313745192192,25.918636,10.737312,49.94914858,0,0,0,159.8, 5.2, -0.8,0,0,1024,1024,1024,1024,0,0,0,0,167.7,-2.2,0,98,4.232,4.241,4.236,4.23,0,0,9.106,76.64,75.313745192192,25.918636,6,P-GPS,
28800,2023-05-19 17:03:28,52.2050371145775,0.0863499738051156,25.918636,27.5262476,47.787497592192,75.313745192192,25.918636,0,49.674542272,54.075132964,26,5,16.802,75.313745192192,25.918636,10.737312,49.94914858,0,0,0,160, 5, -1.1,0,0,1024,1024,1024,1024,0,0,0,0,167.7,-4.9,0,98,4.232,4.241,4.236,4.23,0,0,9.106,76.64,75.313745192192,25.918636,6,P-GPS,
29000,2023-05-19 17:03:28,52.2050371101227,0.0863500393609568,25.918636,27.5262476,47.787497592192,75.313745192192,25.590552,0,49.675854608,54.089896744,26,5,16.864,75.313745192192,25.918636,10.737312,49.94914858,0,0,0,160.3, 4.9, -0.7,0,0,1024,1024,1024,1024,0,0,0,0,167.7,-7.5,0,98,4.205,4.212,4.207,4.207,0,0,6.889,76.82,75.313745192192,25.918636,6,P-GPS,
29200,2023-05-19 17:03:28,52.2050371412891,0.0863501999799867,25.918636,27.5262476,47.787497592192,75.313745192192,25.590552,0,49.664043584,54.127626404,26,5,16.864,75.313745192192,25.918636,10.737312,49.94914858,0,0,0,160.3, 5.1, 0.9,0,0,1024,1024,1024,1024,0,0,0,0,167.7,-8.6,0,98,4.205,4.212,4.207,4.207,0,0,6.889,76.82,75.313745192192,25.918636,6,P-GPS,
29400,2023-05-19 17:03:28,52.2050371660732,0.0863503895862962,25.918636,27.5262476,47.787497592192,75.313745192192,25.262468,0,49.654201064,54.170933492,26,5,16.864,75.313745192192,25.918636,10.737312,49.94914858,0,0,0,160.2, 4.8, 1.3,0,0,1024,1024,1024,1024,0,0,0,0,167.7,-7.9,0,98,4.205,4.212,4.207,4.207,0,0,6.889,76.82,75.313745192192,25.918636,6,P-GPS,
29600,2023-05-19 17:03:28,52.2050371543537,0.0863505013947495,25.918636,27.5262476,47.787497592192,75.313745192192,25.262468,0,49.658138072,54.19619596,26,5,16.864,75.313745192192,25.918636,10.737312,49.94914858,0,0,0,160.2, 4.9, 1.2,0,0,1024,1024,1024,1024,0,0,0,0,167.7,-6.9,0,98,4.205,4.212,4.207,4.207,0,0,6.889,76.82,75.313745192192,25.918636,6,P-GPS,
29800,2023-05-19 17:03:29,52.2050371774244,0.0863504578984311,25.918636,27.5262476,47.787497592192,75.313745192192,25.262468,0,49.649935972,54.208991236,26,5,16.864,75.313745192192,25.918636,10.737312,49.94914858,0,0,0,160.2, 4.5, 0.7,0,0,1024,1024,1024,1024,0,0,0,0,167.7,-7.9,0,98,4.205,4.212,4.207,4.207,0,0,6.889,76.82,75.313745192192,25.918636,6,P-GPS,
30000,2023-05-19 17:03:29,52.2050371823675,0.0863503535795215,25.918636,27.5262476,47.787497592192,75.313745192192,25.590552,0,49.648295552,54.232613284,26,5,16.804,75.313745192192,25.918636,10.737312,49.94914858,0,0,0,160.4, 4.1, -0.1,0,0,1024,1024,1024,1024,0,0,0,0,167.7,-10.4,0,98,4.199,4.204,4.204,4.199,0,0,7.151,76.82,75.313745192192,25.918636,6,P-GPS,
30200,2023-05-19 17:03:29,52.2050371924679,0.0863503119225523,25.918636,27.5262476,47.787497592192,75.313745192192,25.262468,0,49.645014712,54.242455804,26,5,16.804,75.313745192192,25.918636,10.737312,49.94914858,0,0,0,160.7, 4.5, 0.4,0,0,1024,1024,1024,1024,0,0,0,0,167.7,-12.7,0,98,4.199,4.204,4.204,4.199,0,0,7.151,76.82,75.313745192192,25.918636,6,P-GPS,
30400,2023-05-19 17:03:29,52.2050371947295,0.0863502994483524,25.918636,27.5262476,47.787497592192,75.313745192192,25.590552,0,49.64403046,54.24540856,26,5,16.804,75.313745192192,25.918636,10.737312,49.94914858,0,0,0,160.6, 4.9, 1,0,0,1024,1024,1024,1024,0,0,0,0,167.7,-13.4,0,98,4.199,4.204,4.204,4.199,0,0,7.151,76.82,75.313745192192,25.918636,6,P-GPS,
30600,2023-05-19 17:03:29,52.2050371904975,0.086350210289167,25.918636,27.5262476,47.787497592192,75.313745192192,25.590552,0,49.645998964,54.265421684,26,5,16.804,75.313745192192,25.918636,10.737312,49.94914858,0,0,0,160.5, 4.9, 0.4,0,0,1024,1024,1024,1024,0,0,0,0,167.7,-11.7,0,98,4.199,4.204,4.204,4.199,0,0,7.151,76.82,75.313745192192,25.918636,6,P-GPS,
30800,2023-05-19 17:03:30,52.2050372135339,0.0863500588705967,26.24672,27.8543316,47.787497592192,75.641829192192,25.590552,0,49.638124948,54.300198588,26,5,16.804,75.641829192192,26.24672,10.737312,49.94914858,0,0,0,160.8, 4.7, 0.2,0,0,1024,1024,1024,1024,0,0,0,0,167.7,-9,0,98,4.199,4.204,4.204,4.199,0,0,7.151,76.82,75.641829192192,26.24672,6,P-GPS,
31000,2023-05-19 17:03:30,52.2050372317129,0.0863499337588057,25.918636,27.5262476,47.787497592192,75.313745192192,25.590552,0,49.631891352,54.32906998,26,5,16.805,75.641829192192,26.24672,10.737312,49.94914858,0,0,0,160.8, 4.4, 0.1,0,0,1024,1024,1024,1024,0,0,0,0,167.7,-6.1,0,98,4.197,4.201,4.198,4.191,0,0,7.37,77,75.313745192192,25.918636,6,P-GPS,
31200,2023-05-19 17:03:30,52.2050372390119,0.0863498818005195,26.24672,27.8543316,47.787497592192,75.641829192192,25.590552,0,49.629594764,54.340881004,26,5,16.805,75.641829192192,26.24672,10.737312,49.94914858,0,0,0,160.3, 4.3, 0.4,0,0,1024,1024,1024,1024,0,0,0,0,167.7,-4.2,0,98,4.197,4.201,4.198,4.191,0,0,7.37,77,75.641829192192,26.24672,6,P-GPS,
31400,2023-05-19 17:03:30,52.2050372453257,0.0863498043643735,26.24672,27.8543316,47.787497592192,75.641829192192,25.590552,0,49.627298176,54.358269456,26,5,16.805,75.641829192192,26.24672,10.737312,49.94914858,0,0,0,160.3, 4.1, 0.1,0,0,1024,1024,1024,1024,0,0,0,0,167.7,-3.7,0,98,4.197,4.201,4.198,4.191,0,0,7.37,77,75.641829192192,26.24672,6,P-GPS,
31600,2023-05-19 17:03:30,52.2050372243111,0.0863497221626506,26.24672,27.8543316,47.787497592192,75.641829192192,25.590552,0,49.635500276,54.37828258,26,5,16.805,75.641829192192,26.24672,10.737312,49.94914858,0,0,0,160.1, 4, 0.4,0,0,1024,1024,1024,1024,0,0,0,0,167.7,-4,0,98,4.197,4.201,4.198,4.191,0,0,7.37,77,75.641829192192,26.24672,6,P-GPS,
31800,2023-05-19 17:03:31,52.2050371807312,0.086349654029842,26.24672,27.8543316,47.787497592192,75.641829192192,25.918636,0,49.651576392,54.400264208,26,5,16.805,75.641829192192,26.24672,10.737312,49.94914858,0,0,0,160.1, 4, 0,0,0,1024,1024,1024,1024,0,0,0,0,167.7,-6.2,0,98,4.197,4.201,4.198,4.191,0,0,7.37,77,75.641829192192,26.24672,6,P-GPS,
32000,2023-05-19 17:03:31,52.2050371295267,0.0863496171069966,26.24672,27.8543316,47.787497592192,75.641829192192,25.262468,0,49.67027718,54.4209335,26,5,16.783,75.641829192192,26.24672,10.737312,49.94914858,0,0,0,160.2, 4.3, -0.1,0,0,1024,1024,1024,1024,0,0,0,0,167.7,-8.9,0,98,4.196,4.2,4.196,4.196,0,0,7.656,77,75.641829192192,26.24672,6,P-GPS,
32200,2023-05-19 17:03:31,52.2050370884312,0.0863496383994139,26.24672,27.8543316,47.787497592192,75.641829192192,25.262468,0,49.685369044,54.436681532,26,5,16.783,75.641829192192,26.24672,10.737312,49.94914858,0,0,0,160.3, 3.9, 1.1,0,0,1024,1024,1024,1024,0,0,0,0,167.7,-11.8,0,98,4.196,4.2,4.196,4.196,0,0,7.656,77,75.641829192192,26.24672,6,P-GPS,
32400,2023-05-19 17:03:31,52.2050370727623,0.0863496355402426,26.24672,27.8543316,47.787497592192,75.641829192192,25.590552,0,49.690946472,54.44225896,26,5,16.783,75.641829192192,26.24672,10.737312,49.94914858,0,0,0,160.3, 3.1, 1.2,0,0,1024,1024,1024,1024,0,0,0,0,167.7,-14.7,0,98,4.196,4.2,4.196,4.196,0,0,7.656,77,75.641829192192,26.24672,6,P-GPS,
32600,2023-05-19 17:03:32,52.2050370225688,0.0863495847773914,26.24672,27.8543316,47.787497592192,75.641829192192,25.262468,0,49.70964726,54.463912504,26,5,16.783,75.641829192192,26.24672,10.737312,49.94914858,0,0,0,160.3, 3, 1,0,0,1024,1024,1024,1024,0,0,0,0,167.7,-17.5,0,98,4.196,4.2,4.196,4.196,0,0,7.656,77,75.641829192192,26.24672,6,P-GPS,
32800,2023-05-19 17:03:32,52.2050369348864,0.0863495579721684,26.24672,27.8543316,47.787497592192,75.641829192192,25.590552,0,49.741799492,54.49639282,26,5,16.783,75.641829192192,26.24672,10.737312,49.94914858,0,0,0,160.2, 3.2, 0.9,0,0,1024,1024,1024,1024,0,0,0,0,167.7,-18.8,0,98,4.196,4.2,4.196,4.196,0,0,7.656,77,75.641829192192,26.24672,6,P-GPS,
