time(millisecond),datetime(utc),latitude,longitude,height_above_takeoff(feet),height_above_ground_at_drone_location(feet),ground_elevation_at_drone_location(feet),altitude_above_seaLevel(feet),height_sonar(feet),speed(mph),distance(feet),mileage(feet),satellites,gpslevel,voltage(v),max_altitude(feet),max_ascent(feet),max_speed(mph),max_distance(feet), xSpeed(mph), ySpeed(mph), zSpeed(mph), compass_heading(degrees), pitch(degrees), roll(degrees),isPhoto,isVideo,rc_elevator,rc_aileron,rc_throttle,rc_rudder,rc_elevator(percent),rc_aileron(percent),rc_throttle(percent),rc_rudder(percent),gimbal_heading(degrees),gimbal_pitch(degrees),gimbal_roll(degrees),battery_percent,voltageCell1,voltageCell2,voltageCell3,voltageCell4,voltageCell5,voltageCell6,current(A),battery_temperature(f),altitude(feet),ascent(feet),flycStateRaw,flycState,message
1300,2023-05-19 17:54:46,52.2056872126451,0.0821284636942812,0,0,50.722681413152,50.722681413152,0,0,0,0,22,5,15.485,50.722681413152,0,0,0,0,0,0,354.8, 3.3, -4,0,0,1024,1024,1024,1024,0,0,0,0,341.3,-2.5,-4.5,51,3.868,3.873,3.873,3.871,0,0,1.647,94.1,50.722681413152,0,41,Motors_Started,"Setting new Return-To-Home altitude to 26m (85 ft). Data Recorder File Index is 15. Setting new Maximum Flight Altitude to 120m (394 ft) Collision detected. Replace propellers before flying for enhanced safety (Code: 30319). Motor stuck. Check for objects blocking motor or contact DJI Support for assistance (Code: 30111). Motor unable to rotate. Check motor (Code: 30142). Gimbal motor"
1500,2023-05-19 17:54:46,52.2056873027569,0.0821284115060363,0,0,50.722681413152,50.722681413152,0,0,0.034886484056,0.034886484056,22,5,15.485,50.722681413152,0,0,0.034886484056,0,0,0,354.8, 3.3, -4,0,0,1024,1024,1024,1024,0,0,0,0,341.2,-2.4,-4.7,51,3.868,3.873,3.873,3.871,0,0,1.647,94.1,50.722681413152,0,41,Motors_Started,"Motor unable to rotate"
1700,2023-05-19 17:54:46,52.2056873982002,0.0821283222027333,0,0,50.722681413152,50.722681413152,0,0,0.074726708428,0.075027561456,22,5,15.485,50.722681413152,0,0,0.074726708428,0,0,0,354.3, 3.2, -4.3,0,0,1024,1024,1024,1024,0,0,0,0,342.4,-2,-5.7,51,3.868,3.873,3.873,3.871,0,0,1.647,94.1,50.722681413152,0,41,Motors_Started,
1900,2023-05-19 17:54:47,52.2056874900462,0.0821282689800197,0,0,50.722681413152,50.722681413152,0,0,0.110176184628,0.110587601964,22,5,15.485,50.722681413152,0,0,0.110176184628,0,0,0,354.4, 3.3, -4.3,0,0,1024,1024,1024,1024,0,0,0,0,341.7,-1.7,-4.2,51,3.868,3.873,3.873,3.871,0,0,1.647,94.1,50.722681413152,0,41,Motors_Started,
2100,2023-05-19 17:54:47,52.205687563998,0.0821281985767387,0,-0.032808399999999,50.755489813152,50.722681413152,0,0,0.141232944152,0.141825135772,22,5,15.485,50.722681413152,0,0,0.141232944152,0,0,0,354.4, 3.3, -4.3,0,0,1024,1024,1024,1024,0,0,0,0,341.6,-1.8,-4.2,51,3.868,3.873,3.873,3.871,0,0,1.647,94.1,50.722681413152,0,41,Motors_Started,
2300,2023-05-19 17:54:47,52.2056876423723,0.0821281060651849,0,-0.032808399999999,50.755489813152,50.722681413152,0,0,0.175999349464,0.177117131652,22,5,15.41,50.722681413152,0,0,0.175999349464,0,0,0,354.4, 3.3, -4.3,0,0,1024,1024,1024,1024,0,0,0,0,341.5,-1.9,-4.2,51,3.84,3.845,3.845,3.841,0,0,2.949,94.1,50.722681413152,0,41,Motors_Started,
2500,2023-05-19 17:54:47,52.2056877239299,0.0821280360323556,0,-0.032808399999999,50.755489813152,50.722681413152,0,0,0.209621725868,0.210742132728,22,5,15.41,50.722681413152,0,0,0.209621725868,0,0,0,354.4, 3.3, -4.3,0,0,1024,1024,1024,1024,0,0,0,0,342.1,-2.5,-3.8,51,3.84,3.845,3.845,3.841,0,0,2.949,94.1,50.722681413152,0,41,Motors_Started,
2700,2023-05-19 17:54:48,52.2056878096937,0.0821279495703466,0,-0.032808399999999,50.755489813152,50.722681413152,0,0,0.246303485572,0.2475229738,22,5,15.41,50.722681413152,0,0,0.246303485572,0,0,0,354.4, 3.2, -4.3,0,0,1024,1024,1024,1024,0,0,0,0,342.1,-2.6,-3.7,51,3.84,3.845,3.845,3.841,0,0,2.949,94.1,50.722681413152,0,41,Motors_Started,
2900,2023-05-19 17:54:48,52.2056878708249,0.0821278827073249,0,-0.032808399999999,50.755489813152,50.722681413152,0,0,0.273020678028,0.274373696444,22,5,15.41,50.722681413152,0,0,0.273020678028,0,0,0,354.4, 3.2, -4.3,0,0,1024,1024,1024,1024,0,0,0,0,342.2,-2.7,-3.6,51,3.84,3.845,3.845,3.841,0,0,2.949,94.1,50.722681413152,0,11,AutoTakeoff,
3100,2023-05-19 17:54:48,52.2056879374959,0.0821278028435485,0,-0.032808399999999,50.755489813152,50.722681413152,0,0,0.302940298408,0.304549222344,22,5,15.41,50.722681413152,0,0,0.302940298408,0,0,0,354.4, 3.1, -4.1,0,0,1024,1024,1024,1024,0,0,0,0,342.9,-5,-2.8,51,3.84,3.845,3.845,3.841,0,0,2.949,94.1,50.722681413152,0,11,AutoTakeoff,
3300,2023-05-19 17:54:48,52.2056880090255,0.0821277145851986,0,-0.032808399999999,50.755489813152,50.722681413152,0,0,0.33537730732,0.33726707116,22,5,15.422,50.722681413152,0,0,0.33537730732,0,0,0,354.4, 2.9, -3.4,0,0,1024,1024,1024,1024,0,0,0,0,346,-38.8,0,51,3.844,3.848,3.847,3.842,0,0,4.866,94.1,50.722681413152,0,11,AutoTakeoff,
3500,2023-05-19 17:54:48,52.2056880969662,0.0821276581053066,0,-0.032808399999999,50.755489813152,50.722681413152,0,0,0.36951772836,0.37174869956,22,5,15.422,50.722681413152,0,0,0.36951772836,0,0,-0.223694,354.6, 0.9, -1.2,0,0,1024,1024,1024,1024,0,0,0,0,345.9,-89.9,0,51,3.844,3.848,3.847,3.842,0,0,4.866,94.1,50.722681413152,0,11,AutoTakeoff,
3700,2023-05-19 17:54:49,52.2056881826008,0.0821275728175594,0,-0.032808399999999,50.755489813152,50.722681413152,0.328084,0,0.40609581352,0.40835303144,22,5,15.422,50.722681413152,0,0,0.40609581352,0,0,-0.894776,354.6, 0, 0,0,0,1024,1024,1024,1024,0,0,0,0,345.9,-90,0,51,3.844,3.848,3.847,3.842,0,0,4.866,94.1,50.722681413152,0,11,AutoTakeoff,"Collision detected. Replace propellers before flying for enhanced safety (Code: 30319). Motor stuck. Check for objects blocking motor or contact DJI Support for assistance (Code: 30111). Motor unable to rotate. Check motor (Code: 30142). Gimbal motor"
3900,2023-05-19 17:54:49,52.2056882694251,0.0821274725859337,0.328084,0.2952756,50.755489813152,51.050765413152,0.328084,0,0.44471130032,0.44715552612,22,5,15.422,51.050765413152,0.328084,0,0.44471130032,0,0,-1.11847,354.7, 0.4, 0.2,0,0,1024,1024,1024,1024,0,0,0,0,345.9,-89.9,0,51,3.844,3.848,3.847,3.842,0,0,4.866,94.1,51.050765413152,0.328084,11,AutoTakeoff,
4100,2023-05-19 17:54:49,52.2056883736281,0.0821274046150521,0.656168,0.6233596,50.755489813152,51.378849413152,0.656168,0,0.48528216776,0.48810040932,23,5,15.422,51.378849413152,0.656168,0,0.48528216776,0,0,-1.11847,354.8, 0.2, 0.1,0,0,1024,1024,1024,1024,0,0,0,0,345.9,-89.9,0,51,3.844,3.848,3.847,3.842,0,0,4.866,94.1,51.378849413152,0.656168,11,AutoTakeoff,
4300,2023-05-19 17:54:49,52.205688467984,0.0821273156507473,0.984252,0.9514436,50.755489813152,51.706933413152,1.312336,0,0.52503610604,0.52785762844,23,5,15.288,51.706933413152,0.984252,0,0.52503610604,0,0,-1.11847,354.7, 0.1, 0.5,0,0,1024,1024,1024,1024,0,0,0,0,345.9,-90,0,51,3.819,3.824,3.824,3.82,0,0,6.563,93.92,51.706933413152,0.984252,11,AutoTakeoff,"Collision detected. Replace propellers before flying for enhanced safety (Code: 30319). Motor stuck. Check for objects blocking motor or contact DJI Support for assistance (Code: 30111). Motor unable to rotate. Check motor (Code: 30142). Gimbal motor"
4500,2023-05-19 17:54:49,52.2056884956105,0.0821272119277899,1.312336,1.2795276,50.755489813152,52.035017413152,1.312336,0,0.54538387572,0.55314634316,24,5,15.288,52.035017413152,1.312336,0,0.54538387572,0,0,-0.894776,354.7, -0.1, 0.5,0,0,1024,1024,1024,1024,0,0,0,0,345.9,-90,0,51,3.819,3.824,3.824,3.82,0,0,6.563,93.92,52.035017413152,1.312336,11,AutoTakeoff,
4700,2023-05-19 17:54:50,52.2056885073503,0.0821271472175814,1.64042,1.6076116,50.755489813152,52.363101413152,1.64042,0,0.5565781018,0.56823492632,24,5,15.288,52.363101413152,1.64042,0,0.5565781018,0,0,-0.894776,354.7, -0.2, 0.4,0,0,1024,1024,1024,1024,0,0,0,0,345.9,-89.9,0,51,3.819,3.824,3.824,3.82,0,0,6.563,93.92,52.363101413152,1.64042,11,AutoTakeoff,
4900,2023-05-19 17:54:50,52.2056884956181,0.0821270940682591,1.968504,1.9356956,50.755489813152,52.691185413152,2.296588,0,0.5593668158,0.58086616032,25,5,15.288,52.691185413152,1.968504,0,0.5593668158,0,0,-0.894776,354.7, 0, 0.4,0,0,1024,1024,1024,1024,0,0,0,0,345.9,-89.9,0,51,3.819,3.824,3.824,3.82,0,0,6.563,93.92,52.691185413152,1.968504,11,AutoTakeoff,
5100,2023-05-19 17:54:50,52.2056885031786,0.0821270742945305,2.296588,2.2637796,50.755489813152,53.019269413152,2.296588,0,0.56409778708,0.58607613424,25,5,15.288,53.019269413152,2.296588,0,0.56409778708,0,0,-1.11847,354.6, -0.1, 0.4,0,0,1024,1024,1024,1024,0,0,0,0,345.9,-89.9,0,51,3.819,3.824,3.824,3.82,0,0,6.563,93.92,53.019269413152,2.296588,11,AutoTakeoff,
5300,2023-05-19 17:54:50,52.2056884449406,0.082127153431383,2.624672,2.5918636,50.755489813152,53.347353413152,2.952756,0,0.53662731376,0.61372705376,24,5,15.278,53.347353413152,2.624672,0,0.56409778708,0,0,-1.11847,354.7, -0.1, 0.3,0,0,1024,1024,1024,1024,0,0,0,0,345.8,-90,0,51,3.814,3.82,3.821,3.816,0,0,8.128,93.92,53.347353413152,2.624672,11,AutoTakeoff,
5500,2023-05-19 17:54:50,52.2056883740904,0.0821272214022647,2.952756,2.9199476,50.755489813152,53.675437413152,3.28084,0,0.50667324456,0.64371393136,24,5,15.278,53.675437413152,2.952756,0,0.56409778708,0,0,-1.11847,354.6, -0.2, 0.6,0,0,1024,1024,1024,1024,0,0,0,0,345.8,-89.9,0,51,3.814,3.82,3.821,3.816,0,0,8.128,93.92,53.675437413152,2.952756,11,AutoTakeoff,
5700,2023-05-19 17:54:50,52.2056882780553,0.0821272829461603,3.28084,3.2480316,50.755489813152,54.003521413152,3.608924,0,0.46989174732,0.68135828952,24,5,15.278,54.003521413152,3.28084,0,0.56409778708,0,0,-1.11847,354.7, -0.5, 0.5,0,0,1024,1024,1024,1024,0,0,0,0,345.8,-89.9,0,51,3.814,3.82,3.821,3.816,0,0,8.128,93.92,54.003521413152,3.28084,11,AutoTakeoff,
5900,2023-05-19 17:54:51,52.2056881995358,0.0821273067983516,3.608924,3.5761156,50.755489813152,54.331605413152,3.937008,0,0.44334975172,0.7104987104,24,5,15.278,54.331605413152,3.608924,0,0.56409778708,0,0,-0.671082,354.6, -0.4, 0.8,0,0,1024,1024,1024,1024,0,0,0,0,345.8,-90,0,51,3.814,3.82,3.821,3.816,0,0,8.128,93.92,54.331605413152,3.608924,6,P-GPS,
6100,2023-05-19 17:54:51,52.2056881685305,0.082127316461547,3.608924,3.5761156,50.755489813152,54.331605413152,3.937008,0,0.43292980388,0.7220144588,25,5,15.278,54.331605413152,3.608924,0,0.56409778708,0,0,0,354.8, -0.1, 0.7,0,0,1024,1024,1024,1024,0,0,0,0,345.8,-89.9,0,51,3.814,3.82,3.821,3.816,0,0,8.128,93.92,54.331605413152,3.608924,6,P-GPS,
6300,2023-05-19 17:54:51,52.2056881473145,0.0821273512210919,3.937008,3.9041996,50.755489813152,54.659689413152,3.937008,0,0.42208990852,0.73298230692,25,5,15.269,54.659689413152,3.937008,0,0.56409778708,0,0,0,354.9, -0.1, 0.6,0,0,1024,1024,1024,1024,0,0,0,0,345.8,-89.9,0,51,3.817,3.826,3.825,3.818,0,0,8.239,93.92,54.659689413152,3.937008,6,P-GPS,"Collision detected. Replace propellers before flying for enhanced safety (Code: 30319). Gimbal motor overloaded. Land aircraft and check whether gimbal can rotate freely on all three axes (Code: 40003). Home Point updated (Code: 3000001)"
6500,2023-05-19 17:54:51,52.2056881778319,0.0821273937985639,3.937008,3.9041996,50.755489813152,54.659689413152,3.937008,0,0.42571523672,0.74763125752,26,5,15.269,54.659689413152,3.937008,0,0.56409778708,0,0,0,354.9, -0.4, 0.1,0,0,1024,1024,1024,1024,0,0,0,0,345.8,-89.9,0,51,3.817,3.826,3.825,3.818,0,0,8.239,93.92,54.659689413152,3.937008,6,P-GPS,
6700,2023-05-19 17:54:51,52.2056881853341,0.0821273948679808,3.937008,3.9041996,50.755489813152,54.659689413152,3.937008,0,0.42784778272,0.75038060144,26,5,15.269,54.659689413152,3.937008,0,0.56409778708,0,0,0,354.9, -0.2, 0.1,0,0,1024,1024,1024,1024,0,0,0,0,345.8,-90,0,51,3.817,3.826,3.825,3.818,0,0,8.239,93.92,54.659689413152,3.937008,6,P-GPS,
6900,2023-05-19 17:54:52,52.2056881821912,0.0821273380665648,3.937008,3.9041996,50.755489813152,54.659689413152,3.937008,0,0.43413387216,0.76313322652,26,5,15.269,54.659689413152,3.937008,0,0.56409778708,0,0,0,354.8, -0.3, 0.2,0,0,1024,1024,1024,1024,0,0,0,0,345.8,-90,0,51,3.817,3.826,3.825,3.818,0,0,8.239,93.92,54.659689413152,3.937008,6,P-GPS,
7100,2023-05-19 17:54:52,52.205688169882,0.0821272670761529,3.937008,3.9041996,50.755489813152,54.659689413152,3.937008,0,0.43995080148,0.77962929004,26,5,15.269,54.659689413152,3.937008,0,0.56409778708,0,0,0,354.8, 0, 0.3,0,0,1024,1024,1024,1024,0,0,0,0,345.8,-90,0,51,3.817,3.826,3.825,3.818,0,0,8.239,93.92,54.659689413152,3.937008,6,P-GPS,
7300,2023-05-19 17:54:52,52.2056881414526,0.0821272087265288,3.937008,3.9041996,50.755489813152,54.659689413152,3.937008,0,0.43996720568,0.79629595724,26,5,15.27,54.659689413152,3.937008,0,0.56409778708,0,0,0,354.8, -0.1, 0.4,0,0,1024,1024,1024,1024,0,0,0,0,345.8,-90,0,51,3.812,3.819,3.82,3.814,0,0,7.527,93.92,54.659689413152,3.937008,6,P-GPS,"Gimbal motor overloaded. Land aircraft and check whether gimbal can rotate freely on all three axes (Code: 40003)"
7500,2023-05-19 17:54:52,52.2056881021037,0.082127159798957,3.937008,3.9041996,50.755489813152,54.659689413152,3.937008,0,0.43624017144,0.81434385808,26,5,15.27,54.659689413152,3.937008,0,0.56409778708,0,0,0,354.8, -0.1, 0.4,0,0,1024,1024,1024,1024,0,0,0,0,345.8,-89.9,0,51,3.812,3.819,3.82,3.814,0,0,7.527,93.92,54.659689413152,3.937008,6,P-GPS,"Gimbal motor overloaded"
7700,2023-05-19 17:54:52,52.2056880591254,0.0821271172249799,3.937008,3.9041996,50.755489813152,54.659689413152,3.937008,0,0.43129594556,0.83268703452,26,5,15.27,54.659689413152,3.937008,0,0.56409778708,0,0,0,354.7, -0.2, 0.6,0,0,1024,1024,1024,1024,0,0,0,0,345.8,-89.9,0,51,3.812,3.819,3.82,3.814,0,0,7.527,93.92,54.659689413152,3.937008,6,P-GPS,
7900,2023-05-19 17:54:53,52.2056880493757,0.0821270865823406,3.937008,3.9041996,50.755489813152,54.659689413152,3.937008,0,0.4335958144,0.84040685104,26,5,15.27,54.659689413152,3.937008,0,0.56409778708,0,0,0,354.8, -0.3, 0.7,0,0,1024,1024,1024,1024,0,0,0,0,345.8,-89.9,0,51,3.812,3.819,3.82,3.814,0,0,7.527,93.92,54.659689413152,3.937008,6,P-GPS,
8100,2023-05-19 17:54:53,52.2056880265871,0.0821270679898634,3.937008,3.9041996,50.755489813152,54.659689413152,3.937008,0,0.43078413452,0.8497047516,26,5,15.27,54.659689413152,3.937008,0,0.56409778708,0,0,0,354.9, 0, 1,0,0,1024,1024,1024,1024,0,0,0,0,345.8,-89.9,0,51,3.812,3.819,3.82,3.814,0,0,7.527,93.92,54.659689413152,3.937008,6,P-GPS,
8300,2023-05-19 17:54:53,52.2056880071846,0.0821270896997259,3.937008,3.9041996,50.755489813152,54.659689413152,3.937008,0,0.4223917458,0.85828742904,26,5,15.262,54.659689413152,3.937008,0,0.56409778708,0,0,0,355, -0.3, 0.9,0,0,1024,1024,1024,1024,0,0,0,0,345.8,-89.9,0,51,3.811,3.817,3.817,3.811,0,0,7.863,94.1,54.659689413152,3.937008,6,P-GPS,
8500,2023-05-19 17:54:53,52.2056880046014,0.0821271266784857,3.937008,3.9041996,50.755489813152,54.659689413152,3.937008,0,0.41576116816,0.86660763928,26,5,15.262,54.659689413152,3.937008,0,0.56409778708,0,0,0,355, -0.4, 0.9,0,0,1024,1024,1024,1024,0,0,0,0,345.8,-90,0,51,3.811,3.817,3.817,3.811,0,0,7.863,94.1,54.659689413152,3.937008,6,P-GPS,
8700,2023-05-19 17:54:53,52.2056879937822,0.0821272153981527,3.937008,3.9041996,50.755489813152,54.659689413152,3.937008,0,0.39890421224,0.88683401788,26,5,15.262,54.659689413152,3.937008,0,0.56409778708,0,0,0,355.1, -0.3, 0.4,0,0,1024,1024,1024,1024,0,0,0,0,345.8,-90,0,51,3.811,3.817,3.817,3.811,0,0,7.863,94.1,54.659689413152,3.937008,6,P-GPS,
8900,2023-05-19 17:54:54,52.20568799901,0.0821273151999146,3.937008,3.9041996,50.755489813152,54.659689413152,3.937008,0,0.3850393824,0.90923231256,26,5,15.262,54.659689413152,3.937008,0,0.56409778708,0,0,0,355, -0.5, 0.2,0,0,1024,1024,1024,1024,0,0,0,0,345.8,-90,0,51,3.811,3.817,3.817,3.811,0,0,7.863,94.1,54.659689413152,3.937008,6,P-GPS,
9100,2023-05-19 17:54:54,52.2056880277768,0.0821273785296666,3.937008,3.9041996,50.755489813152,54.659689413152,3.937008,0,0.38381890992,0.92685698504,26,5,15.262,54.659689413152,3.937008,0,0.56409778708,0,0,0,355, -0.2, 0.2,0,0,1024,1024,1024,1024,0,0,0,0,345.8,-90,0,51,3.811,3.817,3.817,3.811,0,0,7.863,94.1,54.659689413152,3.937008,6,P-GPS,
9300,2023-05-19 17:54:54,52.2056880677603,0.0821274288097363,3.937008,3.9041996,50.755489813152,54.659689413152,3.937008,0,0.38843177096,0.94527233996,26,5,15.254,54.659689413152,3.937008,0,0.56409778708,0,0,0,354.9, 0, -0.1,0,0,1024,1024,1024,1024,0,0,0,0,345.8,-90,0,51,3.808,3.815,3.815,3.81,0,0,7.953,94.1,54.659689413152,3.937008,6,P-GPS,
9500,2023-05-19 17:54:54,52.2056881020122,0.0821274190137375,3.937008,3.9041996,50.755489813152,54.659689413152,3.937008,0,0.39981300492,0.95796262908,26,5,15.254,54.659689413152,3.937008,0,0.56409778708,0,0,0,354.9, -0.1, -0.2,0,0,1024,1024,1024,1024,0,0,0,0,345.8,-89.9,0,51,3.808,3.815,3.815,3.81,0,0,7.953,94.1,54.659689413152,3.937008,6,P-GPS,
9700,2023-05-19 17:54:55,52.2056881461936,0.0821273108663297,3.937008,3.9041996,50.755489813152,54.659689413152,3.937008,0,0.42714568296,0.98702102896,26,5,15.254,54.659689413152,3.937008,0,0.56409778708,0,0,0,354.9, 0.2, 0.3,0,0,1024,1024,1024,1024,0,0,0,0,345.8,-90,0,51,3.808,3.815,3.815,3.81,0,0,7.953,94.1,54.659689413152,3.937008,6,P-GPS,
9900,2023-05-19 17:54:55,52.205688154779,0.0821271961521428,3.937008,3.9041996,50.755489813152,54.659689413152,3.937008,0,0.4455052636,1.0128609248,26,5,15.254,54.659689413152,3.937008,0,0.56409778708,0,0,0,354.9, -0.2, 0.8,0,0,1024,1024,1024,1024,0,0,0,0,345.8,-89.9,0,51,3.808,3.815,3.815,3.81,0,0,7.953,94.1,54.659689413152,3.937008,6,P-GPS,
10100,2023-05-19 17:54:55,52.2056881442775,0.0821271110251576,3.937008,3.9041996,50.755489813152,54.659689413152,3.937008,0,0.45498032952,1.03227693592,25,5,15.254,54.659689413152,3.937008,0,0.56409778708,0,0,0,354.9, -0.4, 0.6,0,0,1024,1024,1024,1024,0,0,0,0,345.8,-90,0,51,3.808,3.815,3.815,3.81,0,0,7.953,94.1,54.659689413152,3.937008,6,P-GPS,
10300,2023-05-19 17:54:55,52.205688135029,0.0821270253180311,3.937008,3.9041996,50.755489813152,54.659689413152,3.937008,0,0.46549214088,1.05173559796,26,5,15.248,54.659689413152,3.937008,0,0.56409778708,0,0,0,355, -0.4, 0.6,0,0,1024,1024,1024,1024,0,0,0,0,345.8,-90,0,51,3.807,3.816,3.815,3.809,0,0,7.963,94.1,54.659689413152,3.937008,6,P-GPS,
10500,2023-05-19 17:54:55,52.2056881355651,0.0821269884021782,3.937008,3.9041996,50.755489813152,54.659689413152,3.937008,0,0.471374687,1.0599901914,26,5,15.248,54.659689413152,3.937008,0,0.56409778708,0,0,0,355, -0.3, 0.5,0,0,1024,1024,1024,1024,0,0,0,0,345.8,-90,0,51,3.807,3.816,3.815,3.809,0,0,7.963,94.1,54.659689413152,3.937008,6,P-GPS,
10700,2023-05-19 17:54:56,52.20568810757,0.0821269788018896,3.937008,3.9041996,50.755489813152,54.659689413152,3.937008,0,0.46565946372,1.07042982428,26,5,15.248,54.659689413152,3.937008,0,0.56409778708,0,0,0,355, -0.3, 0.6,0,0,1024,1024,1024,1024,0,0,0,0,345.8,-90,0,51,3.807,3.816,3.815,3.809,0,0,7.963,94.1,54.659689413152,3.937008,6,P-GPS,
10900,2023-05-19 17:54:56,52.2056880776032,0.0821269947837315,3.937008,3.9041996,50.755489813152,54.659689413152,3.937008,0,0.45547573636,1.08193244932,26,5,15.248,54.659689413152,3.937008,0,0.56409778708,0,0,0,355, -0.3, 0.6,0,0,1024,1024,1024,1024,0,0,0,0,345.8,-89.9,0,51,3.807,3.816,3.815,3.809,0,0,7.963,94.1,54.659689413152,3.937008,6,P-GPS,
11100,2023-05-19 17:54:56,52.2056880551502,0.0821270586307178,3.937008,3.9041996,50.755489813152,54.659689413152,3.937008,0,0.43952429228,1.09838914276,26,5,15.248,54.659689413152,3.937008,0,0.56409778708,0,0,0,354.9, -0.4, 0.4,0,0,1024,1024,1024,1024,0,0,0,0,345.8,-90,0,51,3.807,3.816,3.815,3.809,0,0,7.963,94.1,54.659689413152,3.937008,6,P-GPS,
11300,2023-05-19 17:54:56,52.2056880408629,0.0821271228586403,3.937008,3.9041996,50.755489813152,54.659689413152,3.937008,0,0.42566274328,1.11366801464,26,5,15.244,54.659689413152,3.937008,0,0.56409778708,0,0,0,354.9, -0.4, 0.5,0,0,1024,1024,1024,1024,0,0,0,0,345.8,-89.9,0,51,3.805,3.814,3.812,3.808,0,0,7.875,94.28,54.659689413152,3.937008,6,P-GPS,
11500,2023-05-19 17:54:56,52.2056880066516,0.0821271993149609,3.937008,3.9041996,50.755489813152,54.659689413152,3.937008,0,0.404773635,1.13483599432,26,5,15.244,54.659689413152,3.937008,0,0.56409778708,0,0,0,354.9, -0.3, 0.1,0,0,1024,1024,1024,1024,0,0,0,0,345.8,-89.9,0,51,3.805,3.814,3.812,3.808,0,0,7.875,94.28,54.659689413152,3.937008,6,P-GPS,
11700,2023-05-19 17:54:57,52.2056879799679,0.0821272653951414,3.937008,3.9041996,50.755489813152,54.659689413152,3.937008,0,0.38750657408,1.15252956444,26,5,15.244,54.659689413152,3.937008,0,0.56409778708,0,0,0,354.9, -0.2, 0.2,0,0,1024,1024,1024,1024,0,0,0,0,345.8,-89.9,0,51,3.805,3.814,3.812,3.808,0,0,7.875,94.28,54.659689413152,3.937008,6,P-GPS,
11900,2023-05-19 17:54:57,52.2056879569059,0.0821273226858331,3.937008,3.9041996,50.755489813152,54.659689413152,3.937008,0,0.37258531376,1.16785436808,26,5,15.244,54.659689413152,3.937008,0,0.56409778708,0,0,0,354.9, -0.2, 0.5,0,0,1024,1024,1024,1024,0,0,0,0,345.8,-90,0,51,3.805,3.814,3.812,3.808,0,0,7.875,94.28,54.659689413152,3.937008,6,P-GPS,
12100,2023-05-19 17:54:57,52.2056879075545,0.0821273278791454,3.937008,3.9041996,50.755489813152,54.659689413152,3.937008,0,0.35885171752,1.18589898808,26,5,15.244,54.659689413152,3.937008,0,0.56409778708,0,0,0,354.9, -0.1, 0.7,0,0,1024,1024,1024,1024,0,0,0,0,345.8,-90,0,51,3.805,3.814,3.812,3.808,0,0,7.875,94.28,54.659689413152,3.937008,6,P-GPS,
12300,2023-05-19 17:54:57,52.2056878559151,0.0821273469958466,3.937008,3.9041996,50.755489813152,54.659689413152,3.937008,0,0.34267061464,1.205216574,26,5,15.236,54.659689413152,3.937008,0,0.56409778708,0,0,0,354.9, -0.3, 0.5,0,0,1024,1024,1024,1024,0,0,0,0,345.8,-90,0,51,3.804,3.813,3.81,3.807,0,0,7.951,94.28,54.659689413152,3.937008,6,P-GPS,
12500,2023-05-19 17:54:57,52.2056878106939,0.0821273753948072,3.937008,3.9041996,50.755489813152,54.659689413152,3.937008,0,0.326835312296,1.22289702076,26,5,15.236,54.659689413152,3.937008,0,0.56409778708,0,0,0,354.8, -0.3, 0.4,0,0,1024,1024,1024,1024,0,0,0,0,345.8,-90,0,51,3.804,3.813,3.81,3.807,0,0,7.951,94.28,54.659689413152,3.937008,6,P-GPS,
12700,2023-05-19 17:54:57,52.2056877732691,0.0821273989988658,3.937008,3.9041996,50.755489813152,54.659689413152,3.937008,0,0.313860574348,1.23753612884,26,5,15.236,54.659689413152,3.937008,0,0.56409778708,0,0,0,354.9, -0.3, 0.5,0,0,1024,1024,1024,1024,0,0,0,0,345.8,-90,0,51,3.804,3.813,3.81,3.807,0,0,7.951,94.28,54.659689413152,3.937008,6,P-GPS,
12900,2023-05-19 17:54:58,52.2056877183586,0.0821274019799528,3.937008,3.9041996,50.755489813152,54.659689413152,3.937008,0,0.30066109886,1.2575787804,26,5,15.236,54.659689413152,3.937008,0,0.56409778708,0,0,0,354.9, -0.3, 0.7,0,0,1024,1024,1024,1024,0,0,0,0,345.8,-89.9,0,51,3.804,3.813,3.81,3.807,0,0,7.951,94.28,54.659689413152,3.937008,6,P-GPS,
13100,2023-05-19 17:54:58,52.2056876740924,0.0821274463153225,3.937008,3.9041996,50.755489813152,54.659689413152,3.937008,0,0.283001649476,1.27652891224,26,5,15.236,54.659689413152,3.937008,0,0.56409778708,0,0,0,354.8, -0.2, 0.4,0,0,1024,1024,1024,1024,0,0,0,0,345.8,-90,0,51,3.804,3.813,3.81,3.807,0,0,7.951,94.28,54.659689413152,3.937008,6,P-GPS,
13300,2023-05-19 17:54:58,52.2056876081635,0.0821274964940422,3.937008,3.9041996,50.755489813152,54.659689413152,3.937008,0,0.2599819637,1.30307090784,26,5,15.234,54.659689413152,3.937008,0,0.56409778708,0,0,0,354.9, 0, 0.2,0,0,1024,1024,1024,1024,0,0,0,0,345.8,-90,0,51,3.802,3.81,3.809,3.806,0,0,7.921,94.28,54.659689413152,3.937008,6,P-GPS,
13500,2023-05-19 17:54:58,52.2056875354454,0.0821274979933228,3.937008,3.9041996,50.755489813152,54.659689413152,3.937008,0,0.245952435692,1.32960634176,26,5,15.234,54.659689413152,3.937008,0,0.56409778708,0,0,0,354.9, -0.2, 0.3,0,0,1024,1024,1024,1024,0,0,0,0,345.8,-90,0,51,3.802,3.81,3.809,3.806,0,0,7.921,94.28,54.659689413152,3.937008,6,P-GPS,
13700,2023-05-19 17:54:58,52.2056874404973,0.0821274407620431,3.937008,3.9041996,50.755489813152,54.659689413152,3.937008,0,0.243356963168,1.3665354768,26,5,15.234,54.659689413152,3.937008,0,0.56409778708,0,0,0,355, 0, 0.9,0,0,1024,1024,1024,1024,0,0,0,0,345.8,-90,0,51,3.802,3.81,3.809,3.806,0,0,7.921,94.28,54.659689413152,3.937008,6,P-GPS,
13900,2023-05-19 17:54:59,52.2056873508295,0.082127410136878,3.937008,3.9041996,50.755489813152,54.659689413152,3.937008,0,0.240899942092,1.39995739388,26,5,15.234,54.659689413152,3.937008,0,0.56409778708,0,0,0,354.9, -0.5, 1.5,0,0,1024,1024,1024,1024,0,0,0,0,345.8,-89.9,0,51,3.802,3.81,3.809,3.806,0,0,7.921,94.28,54.659689413152,3.937008,6,P-GPS,
14100,2023-05-19 17:54:59,52.205687265594,0.0821274575022623,3.937008,3.9041996,50.755489813152,54.659689413152,3.937008,0,0.225802500664,1.43281172564,26,5,15.234,54.659689413152,3.937008,0,0.56409778708,0,0,0,355, -0.6, 1,0,0,1024,1024,1024,1024,0,0,0,0,345.8,-90,0,51,3.802,3.81,3.809,3.806,0,0,7.921,94.28,54.659689413152,3.937008,6,P-GPS,
14300,2023-05-19 17:54:59,52.2056871937582,0.0821275690990639,3.937008,3.937008,50.722681413152,54.659689413152,3.937008,0,0.200141410604,1.46899939084,26,5,15.228,54.659689413152,3.937008,0,0.56409778708,0,0,0,355, -0.5, 0.2,0,0,1024,1024,1024,1024,0,0,0,0,345.8,-89.9,0,51,3.802,3.81,3.808,3.805,0,0,7.953,94.28,54.659689413152,3.937008,6,P-GPS,
14500,2023-05-19 17:54:59,52.2056871315876,0.082127639439438,3.937008,3.937008,50.722681413152,54.659689413152,3.937008,0,0.186652893112,1.49660109776,26,5,15.228,54.659689413152,3.937008,0,0.56409778708,0,0,0,355, -0.5, 0.3,0,0,1024,1024,1024,1024,0,0,0,0,345.8,-89.9,0,51,3.802,3.81,3.808,3.805,0,0,7.953,94.28,54.659689413152,3.937008,6,P-GPS,
14700,2023-05-19 17:54:59,52.2056870991607,0.0821276878777341,3.937008,3.937008,50.722681413152,54.659689413152,3.937008,0,0.178337932216,1.51264112452,26,5,15.228,54.659689413152,3.937008,0,0.56409778708,0,0,0,355, -0.5, 0.4,0,0,1024,1024,1024,1024,0,0,0,0,345.8,-90,0,51,3.802,3.81,3.808,3.805,0,0,7.953,94.28,54.659689413152,3.937008,6,P-GPS,
14900,2023-05-19 17:55:00,52.2056870591753,0.0821277185727957,3.937008,3.937008,50.722681413152,54.659689413152,3.937008,0,0.17575952006,1.52876317228,26,5,15.228,54.659689413152,3.937008,0,0.56409778708,0,0,0,355, -0.4, 0.4,0,0,1024,1024,1024,1024,0,0,0,0,345.8,-90,0,51,3.802,3.81,3.808,3.805,0,0,7.953,94.28,54.659689413152,3.937008,6,P-GPS,
15100,2023-05-19 17:55:00,52.2056870232195,0.0821277567677552,3.937008,3.937008,50.722681413152,54.659689413152,3.937008,0,0.172510832292,1.54441605992,26,5,15.228,54.659689413152,3.937008,0,0.56409778708,0,0,0,354.9, -0.4, 0.4,0,0,1024,1024,1024,1024,0,0,0,0,345.8,-90,0,51,3.802,3.81,3.808,3.805,0,0,7.953,94.28,54.659689413152,3.937008,6,P-GPS,
15300,2023-05-19 17:55:00,52.2056869696263,0.0821278009947852,3.937008,3.937008,50.722681413152,54.659689413152,3.937008,0,0.17267553046,1.56632550944,26,5,15.222,54.659689413152,3.937008,0,0.56409778708,0,0,0,354.9, -0.5, 0.2,0,0,1024,1024,1024,1024,0,0,0,0,345.8,-90,0,51,3.801,3.808,3.806,3.802,0,0,7.944,94.28,54.659689413152,3.937008,6,P-GPS,
15500,2023-05-19 17:55:00,52.2056869345574,0.08212782346652,3.937008,3.937008,50.722681413152,54.659689413152,3.937008,0,0.175458338948,1.58007222904,26,5,15.222,54.659689413152,3.937008,0,0.56409778708,0,0,0,354.9, -0.2, 0.1,0,0,1024,1024,1024,1024,0,0,0,0,345.8,-90,0,51,3.801,3.808,3.806,3.802,0,0,7.944,94.28,54.659689413152,3.937008,6,P-GPS,
15700,2023-05-19 17:55:00,52.2056869096088,0.0821278078411504,3.937008,3.937008,50.722681413152,54.659689413152,3.937008,0,0.183651908764,1.58982288552,26,5,15.222,54.659689413152,3.937008,0,0.56409778708,0,0,0,354.8, 0, 0.1,0,0,1024,1024,1024,1024,0,0,0,0,345.8,-90,0,51,3.801,3.808,3.806,3.802,0,0,7.944,94.28,54.659689413152,3.937008,6,P-GPS,
15900,2023-05-19 17:55:01,52.2056868779186,0.0821277589729907,3.937008,3.937008,50.722681413152,54.659689413152,3.937008,0,0.199354993256,1.60573167868,26,5,15.222,54.659689413152,3.937008,0,0.56409778708,0,0,0,354.9, -0.1, 0.3,0,0,1024,1024,1024,1024,0,0,0,0,345.8,-89.9,0,51,3.801,3.808,3.806,3.802,0,0,7.944,94.28,54.659689413152,3.937008,6,P-GPS,
16100,2023-05-19 17:55:01,52.2056868404895,0.0821277031571158,3.937008,3.937008,50.722681413152,54.659689413152,3.937008,0,0.217607290428,1.62423233544,26,5,15.222,54.659689413152,3.937008,0,0.56409778708,0,0,0,354.9, 0, 0.6,0,0,1024,1024,1024,1024,0,0,0,0,345.8,-90,0,51,3.801,3.808,3.806,3.802,0,0,7.944,94.28,54.659689413152,3.937008,6,P-GPS,
16300,2023-05-19 17:55:01,52.2056867947832,0.0821276611982281,3.937008,3.937008,50.722681413152,54.659689413152,3.937008,0,0.235453419608,1.64336291348,26,5,15.216,54.659689413152,3.937008,0,0.56409778708,0,0,0,355, 0, 0.5,0,0,1024,1024,1024,1024,0,0,0,0,345.8,-89.9,0,51,3.801,3.807,3.807,3.802,0,0,8.033,94.28,54.659689413152,3.937008,6,P-GPS,
16500,2023-05-19 17:55:01,52.2056867450992,0.0821276149441987,3.937008,3.937008,50.722681413152,54.659689413152,3.937008,0,0.255171268008,1.66423561756,26,5,15.216,54.659689413152,3.937008,0,0.56409778708,0,0,0,355, -0.3, 0.4,0,0,1024,1024,1024,1024,0,0,0,0,345.8,-90,0,51,3.801,3.807,3.807,3.802,0,0,8.033,94.28,54.659689413152,3.937008,6,P-GPS,
16700,2023-05-19 17:55:02,52.2056866789524,0.0821275685818296,3.937008,3.937008,50.722681413152,54.659689413152,3.937008,0,0.279231636232,1.69049874176,26,5,15.216,54.659689413152,3.937008,0,0.56409778708,0,0,0,354.9, -0.3, 1.1,0,0,1024,1024,1024,1024,0,0,0,0,345.8,-89.9,0,51,3.801,3.807,3.807,3.802,0,0,8.033,94.28,54.659689413152,3.937008,6,P-GPS,
16900,2023-05-19 17:55:02,52.2056866321707,0.0821275363525391,3.937008,3.937008,50.722681413152,54.659689413152,3.937008,0,0.296386492424,1.70902564524,26,5,15.216,54.659689413152,3.937008,0,0.56409778708,0,0,0,355, -0.2, 1.1,0,0,1024,1024,1024,1024,0,0,0,0,345.8,-89.9,0,51,3.801,3.807,3.807,3.802,0,0,8.033,94.28,54.659689413152,3.937008,6,P-GPS,
17100,2023-05-19 17:55:02,52.2056866001528,0.0821275635353,3.937008,3.937008,50.722681413152,54.659689413152,3.937008,0,0.300742463692,1.722194937,26,5,15.216,54.659689413152,3.937008,0,0.56409778708,0,0,0,354.9, 0, 0.8,0,0,1024,1024,1024,1024,0,0,0,0,345.8,-90,0,51,3.801,3.807,3.807,3.802,0,0,8.033,94.28,54.659689413152,3.937008,6,P-GPS,
17300,2023-05-19 17:55:02,52.2056865732368,0.0821276292904617,3.937008,3.937008,50.722681413152,54.659689413152,3.937008,0,0.298712936068,1.73987538376,26,5,15.216,54.659689413152,3.937008,0,0.56409778708,0,0,0,354.9, -0.4, 0.5,0,0,1024,1024,1024,1024,0,0,0,0,345.8,-89.9,0,51,3.801,3.807,3.805,3.801,0,0,7.906,94.46,54.659689413152,3.937008,6,P-GPS,
17500,2023-05-19 17:55:02,52.2056865639126,0.0821276986487895,3.937008,3.937008,50.722681413152,54.659689413152,3.937008,0,0.292031505408,1.75575136852,27,5,15.216,54.659689413152,3.937008,0,0.56409778708,0,0,0,354.9, -0.4, 0.1,0,0,1024,1024,1024,1024,0,0,0,0,345.8,-89.9,0,51,3.801,3.807,3.805,3.801,0,0,7.906,94.46,54.659689413152,3.937008,6,P-GPS,
17700,2023-05-19 17:55:03,52.2056865656811,0.0821277154064829,3.937008,3.937008,50.722681413152,54.659689413152,3.937008,0,0.289326124744,1.75955386208,27,5,15.216,54.659689413152,3.937008,0,0.56409778708,0,0,0,354.9, -0.1, 0,0,0,1024,1024,1024,1024,0,0,0,0,345.8,-90,0,51,3.801,3.807,3.805,3.801,0,0,7.906,94.46,54.659689413152,3.937008,6,P-GPS,
17900,2023-05-19 17:55:03,52.2056865393016,0.0821276951190147,3.937008,3.937008,50.722681413152,54.659689413152,3.937008,0,0.299807096208,1.7701936262,27,5,15.216,54.659689413152,3.937008,0,0.56409778708,0,0,0,354.9, -0.1, 0,0,0,1024,1024,1024,1024,0,0,0,0,345.8,-89.9,0,51,3.801,3.807,3.805,3.801,0,0,7.906,94.46,54.659689413152,3.937008,6,P-GPS,
18100,2023-05-19 17:55:03,52.2056865088609,0.0821276248695061,3.937008,3.937008,50.722681413152,54.659689413152,3.937008,0,0.31797737238,1.78943247196,27,5,15.216,54.659689413152,3.937008,0,0.56409778708,0,0,0,354.9, 0.1, 0.2,0,0,1024,1024,1024,1024,0,0,0,0,345.8,-90,0,51,3.801,3.807,3.805,3.801,0,0,7.906,94.46,54.659689413152,3.937008,6,P-GPS,
18300,2023-05-19 17:55:03,52.2056864666006,0.0821275282410466,3.937008,3.937008,50.722681413152,54.659689413152,3.937008,0,0.3432742892,1.81597446756,27,5,15.208,54.659689413152,3.937008,0,0.56409778708,0,0,0,354.9, 0, 0.9,0,0,1024,1024,1024,1024,0,0,0,0,345.8,-89.9,0,51,3.801,3.804,3.805,3.8,0,0,8.006,94.64,54.659689413152,3.937008,6,P-GPS,
18500,2023-05-19 17:55:03,52.2056864219027,0.0821274656277341,3.937008,3.937008,50.722681413152,54.659689413152,3.937008,0,0.36473754448,1.8374672504,27,5,15.208,54.659689413152,3.937008,0,0.56409778708,0,0,0,354.9, 0, 0.8,0,0,1024,1024,1024,1024,0,0,0,0,345.8,-89.9,0,51,3.801,3.804,3.805,3.8,0,0,8.006,94.64,54.659689413152,3.937008,6,P-GPS,
18700,2023-05-19 17:55:04,52.2056863826523,0.0821274018017167,3.937008,3.937008,50.722681413152,54.659689413152,3.937008,0,0.38480316192,1.85768378648,27,5,15.208,54.659689413152,3.937008,0,0.56409778708,0,0,0,354.8, 0, 1.3,0,0,1024,1024,1024,1024,0,0,0,0,345.8,-90,0,51,3.801,3.804,3.805,3.8,0,0,8.006,94.64,54.659689413152,3.937008,6,P-GPS,
18900,2023-05-19 17:55:04,52.2056863205314,0.0821274056879638,3.937008,3.937008,50.722681413152,54.659689413152,3.937008,0,0.40237206012,1.8803642334,27,5,15.208,54.659689413152,3.937008,0,0.56409778708,0,0,0,354.9, -0.1, 1.3,0,0,1024,1024,1024,1024,0,0,0,0,345.8,-89.9,0,51,3.801,3.804,3.805,3.8,0,0,8.006,94.64,54.659689413152,3.937008,6,P-GPS,
19100,2023-05-19 17:55:04,52.2056862753827,0.082127486988114,3.937008,3.937008,50.722681413152,54.659689413152,3.937008,0,0.4057414828,1.90489507408,27,5,15.208,54.659689413152,3.937008,0,0.56409778708,0,0,0,354.9, -0.3, 0.9,0,0,1024,1024,1024,1024,0,0,0,0,345.8,-90,0,51,3.801,3.804,3.805,3.8,0,0,8.006,94.64,54.659689413152,3.937008,6,P-GPS,
19300,2023-05-19 17:55:04,52.20568623441,0.0821276140180696,3.937008,3.937008,50.722681413152,54.659689413152,3.937008,0,0.40432087908,1.9369915318,27,5,15.208,54.659689413152,3.937008,0,0.56409778708,0,0,0,354.9, 0, 0.6,0,0,1024,1024,1024,1024,0,0,0,0,345.8,-90,0,51,3.8,3.804,3.806,3.798,0,0,7.925,94.64,54.659689413152,3.937008,6,P-GPS,
19500,2023-05-19 17:55:04,52.2056861780413,0.0821277344323186,3.937008,3.937008,50.722681413152,54.659689413152,3.937008,0,0.4111876772,1.97087276648,27,5,15.208,54.659689413152,3.937008,0,0.56409778708,0,0,0,354.8, -0.2, 0.3,0,0,1024,1024,1024,1024,0,0,0,0,345.8,-74.3,0,51,3.8,3.804,3.806,3.798,0,0,7.925,94.64,54.659689413152,3.937008,12,AutoLanding,
19700,2023-05-19 17:55:04,52.2056861366907,0.0821278016797712,3.937008,3.937008,50.722681413152,54.659689413152,3.937008,0,0.41954069584,1.99217197976,27,5,15.208,54.659689413152,3.937008,0,0.56409778708,0,0,0.223694,354.8, -0.4, 0.4,0,0,1024,1024,1024,1024,0,0,0,0,345.8,-56.4,0,51,3.8,3.804,3.806,3.798,0,0,7.925,94.64,54.659689413152,3.937008,12,AutoLanding,
19900,2023-05-19 17:55:05,52.2056860937043,0.082127834125741,3.608924,3.608924,50.722681413152,54.331605413152,3.937008,0,0.43183072248,2.00945216404,27,5,15.208,54.659689413152,3.937008,0,0.56409778708,0,0,0.223694,354.8, 0, 0.7,0,0,1024,1024,1024,1024,0,0,0,0,345.8,-38.5,0,51,3.8,3.804,3.806,3.798,0,0,7.925,94.64,54.331605413152,3.608924,12,AutoLanding,
20100,2023-05-19 17:55:05,52.2056860327922,0.0821278641567856,3.608924,3.608924,50.722681413152,54.331605413152,3.608924,0,0.45085631364,2.03266738788,27,5,15.208,54.659689413152,3.937008,0,0.56409778708,0,0,0.447388,354.8, -0.3, 0.6,0,0,1024,1024,1024,1024,0,0,0,0,345.8,-20.6,0,51,3.8,3.804,3.806,3.798,0,0,7.925,94.64,54.331605413152,3.608924,12,AutoLanding,
20300,2023-05-19 17:55:05,52.2056859925188,0.0821278731909122,3.608924,3.608924,50.722681413152,54.331605413152,3.608924,0,0.46433072352,2.04750006552,26,5,15.214,54.659689413152,3.937008,0,0.56409778708,0,0,0.447388,354.8, -0.2, 0.7,0,0,1024,1024,1024,1024,0,0,0,0,345.8,-2.7,0,51,3.799,3.805,3.805,3.8,0,0,7.733,94.64,54.331605413152,3.608924,12,AutoLanding,
20500,2023-05-19 17:55:05,52.2056859455507,0.0821278728414296,3.28084,3.28084,50.722681413152,54.003521413152,3.28084,0,0.48080382116,2.06463589284,26,5,15.214,54.659689413152,3.937008,0,0.56409778708,0,0,0.447388,354.9, 0, 0.7,0,0,1024,1024,1024,1024,0,0,0,0,345.8,0,0,51,3.799,3.805,3.805,3.8,0,0,7.733,94.64,54.003521413152,3.28084,12,AutoLanding,
20700,2023-05-19 17:55:05,52.2056858510645,0.082127880166586,3.28084,3.28084,50.722681413152,54.003521413152,3.28084,0,0.51361878284,2.09915032964,26,5,15.214,54.659689413152,3.937008,0,0.56409778708,0,0,0.447388,355, -0.1, 1.1,0,0,1024,1024,1024,1024,0,0,0,0,345.8,0,0,51,3.799,3.805,3.805,3.8,0,0,7.733,94.64,54.003521413152,3.28084,12,AutoLanding,
20900,2023-05-19 17:55:06,52.2056857720398,0.0821278961169744,2.952756,2.952756,50.722681413152,53.675437413152,3.28084,0,0.54070867872,2.12820216784,26,5,15.214,54.659689413152,3.937008,0,0.56409778708,0,0,0.223694,355, -0.1, 1,0,0,1024,1024,1024,1024,0,0,0,0,345.8,0,0,51,3.799,3.805,3.805,3.8,0,0,7.733,94.64,53.675437413152,2.952756,12,AutoLanding,
21100,2023-05-19 17:55:06,52.2056857142776,0.082127991392936,2.952756,2.952756,50.722681413152,53.675437413152,2.952756,0,0.55678479472,2.15816607956,26,5,15.214,54.659689413152,3.937008,0,0.56409778708,0,0,0.223694,354.9, -0.2, 0.8,0,0,1024,1024,1024,1024,0,0,0,0,345.8,0,0,51,3.799,3.805,3.805,3.8,0,0,7.733,94.64,53.675437413152,2.952756,6,P-GPS,
21300,2023-05-19 17:55:06,52.205685621148,0.0821281535528882,2.952756,2.952756,50.722681413152,53.675437413152,2.952756,0,0.58478348328,2.2078576822,26,5,15.202,54.659689413152,3.937008,0,0.58478348328,0,0,0,355, 0, 0.3,0,0,1024,1024,1024,1024,0,0,0,0,345.8,0,0,51,3.797,3.804,3.803,3.797,0,0,7.835,94.64,53.675437413152,2.952756,6,P-GPS,
21500,2023-05-19 17:55:06,52.2056855065622,0.0821283118161088,2.952756,2.952756,50.722681413152,53.675437413152,2.952756,0,0.62338912756,2.26262802516,25,5,15.202,54.659689413152,3.937008,0,0.62338912756,0,0,0,355, -0.1, 0.3,0,0,1024,1024,1024,1024,0,0,0,0,345.8,0,0,51,3.797,3.804,3.803,3.797,0,0,7.835,94.64,53.675437413152,2.952756,6,P-GPS,
21700,2023-05-19 17:55:06,52.2056854087465,0.082128430493429,2.952756,2.952756,50.722681413152,53.675437413152,2.952756,0,0.65819227828,2.30709981136,25,5,15.202,54.659689413152,3.937008,0,0.65819227828,0,0,0,355, -0.3, 0,0,0,1024,1024,1024,1024,0,0,0,0,345.8,0,0,51,3.797,3.804,3.803,3.797,0,0,7.835,94.64,53.675437413152,2.952756,6,P-GPS,
21900,2023-05-19 17:55:07,52.2056853350059,0.0821285184617082,2.952756,2.9855644,50.689873013152,53.675437413152,2.952756,0,0.68516406392,2.34042658408,25,5,15.202,54.659689413152,3.937008,0,0.68516406392,0,0,0,354.9, -0.3, 0,0,0,1024,1024,1024,1024,0,0,0,0,345.8,0,0,51,3.797,3.804,3.803,3.797,0,0,7.835,94.64,53.675437413152,2.952756,6,P-GPS,
22100,2023-05-19 17:55:07,52.2056852889577,0.0821285435161198,2.952756,2.9855644,50.689873013152,53.675437413152,2.952756,0,0.7020833558,2.3581365584,25,5,15.202,54.659689413152,3.937008,0,0.7020833558,0,0,0,355, -0.1, -0.2,0,0,1024,1024,1024,1024,0,0,0,0,345.8,0,0,51,3.797,3.804,3.803,3.797,0,0,7.835,94.64,53.675437413152,2.952756,6,P-GPS,
22300,2023-05-19 17:55:07,52.2056852598347,0.0821285130552115,2.952756,2.9855644,50.689873013152,53.675437413152,2.952756,0,0.7125656396,2.37075794988,24,5,15.193,54.659689413152,3.937008,0,0.7125656396,0,0,0,355, 0, 0.3,0,0,1024,1024,1024,1024,0,0,0,0,345.8,0,0,51,3.794,3.801,3.8,3.796,0,0,8.208,94.64,53.675437413152,2.952756,6,P-GPS,
22500,2023-05-19 17:55:07,52.2056852405503,0.0821284536152015,2.952756,2.952756,50.722681413152,53.675437413152,2.952756,0,0.7195210204,2.38579732044,24,5,15.193,54.659689413152,3.937008,0,0.7195210204,0,0,0,354.8, -0.2, 0.9,0,0,1024,1024,1024,1024,0,0,0,0,345.8,0,0,51,3.794,3.801,3.8,3.796,0,0,8.208,94.64,53.675437413152,2.952756,6,P-GPS,
22700,2023-05-19 17:55:07,52.205685210845,0.0821284017310064,2.952756,2.952756,50.722681413152,53.675437413152,2.952756,0,0.73048558768,2.4016733052,25,5,15.193,54.659689413152,3.937008,0,0.73048558768,0,0,0,354.9, 0, 0.7,0,0,1024,1024,1024,1024,0,0,0,0,345.8,0,0,51,3.794,3.801,3.8,3.796,0,0,8.208,94.64,53.675437413152,2.952756,6,P-GPS,
22900,2023-05-19 17:55:08,52.2056851898606,0.082128347274619,2.952756,2.952756,50.722681413152,53.675437413152,2.952756,0,0.73847115224,2.41605650776,25,5,15.193,54.659689413152,3.937008,0,0.73847115224,0,0,0,354.9, 0.2, 0.7,0,0,1024,1024,1024,1024,0,0,0,0,345.8,0,0,51,3.794,3.801,3.8,3.796,0,0,8.208,94.64,53.675437413152,2.952756,6,P-GPS,
23100,2023-05-19 17:55:08,52.2056851590738,0.08212827834266,2.952756,2.952756,50.722681413152,53.675437413152,2.952756,0,0.75039044396,2.43512803068,25,5,15.193,54.659689413152,3.937008,0,0.75039044396,0,0,0,355.1, 0, 1,0,0,1024,1024,1024,1024,0,0,0,0,345.8,0,0,51,3.794,3.801,3.8,3.796,0,0,8.208,94.64,53.675437413152,2.952756,6,P-GPS,
23300,2023-05-19 17:55:08,52.20568512321,0.0821282369778929,2.952756,2.952756,50.722681413152,53.675437413152,2.952756,0,0.76401249164,2.45115165324,25,5,15.193,54.659689413152,3.937008,0,0.76401249164,0,0,0,354.9, -0.3, 1.3,0,0,1024,1024,1024,1024,0,0,0,0,345.8,0,0,50,3.794,3.802,3.801,3.796,0,0,8.011,94.64,53.675437413152,2.952756,6,P-GPS,
23500,2023-05-19 17:55:08,52.2056850773261,0.0821282525333659,2.952756,2.952756,50.722681413152,53.675437413152,2.952756,0,0.78049871264,2.46824811048,25,5,15.193,54.659689413152,3.937008,0,0.78049871264,0,0,0,355, -0.3, 1.1,0,0,1024,1024,1024,1024,0,0,0,0,345.8,0,0,50,3.794,3.802,3.801,3.796,0,0,8.011,94.64,53.675437413152,2.952756,6,P-GPS,
23700,2023-05-19 17:55:09,52.2056850559498,0.0821283082024581,2.952756,2.952756,50.722681413152,53.675437413152,2.952756,0,0.78763782048,2.48293643116,25,5,15.193,54.659689413152,3.937008,0,0.78763782048,0,0,0,355, -0.3, 1,0,0,1024,1024,1024,1024,0,0,0,0,345.8,0,0,50,3.794,3.802,3.801,3.796,0,0,8.011,94.64,53.675437413152,2.952756,6,P-GPS,
23900,2023-05-19 17:55:09,52.2056850352725,0.0821283953389686,2.952756,2.952756,50.722681413152,53.675437413152,2.952756,0,0.79456039288,2.50382882028,25,5,15.193,54.659689413152,3.937008,0,0.79456039288,0,0,0,354.9, -0.2, 0.2,0,0,1024,1024,1024,1024,0,0,0,0,345.8,0,0,50,3.794,3.802,3.801,3.796,0,0,8.011,94.64,53.675437413152,2.952756,6,P-GPS,
24100,2023-05-19 17:55:09,52.2056850322601,0.0821284569842143,2.952756,2.952756,50.722681413152,53.675437413152,2.952756,0,0.79551511732,2.51765756088,25,5,15.193,54.659689413152,3.937008,0,0.79551511732,0,0,0,354.8, -0.2, 0.7,0,0,1024,1024,1024,1024,0,0,0,0,345.8,0,0,50,3.794,3.802,3.801,3.796,0,0,8.011,94.64,53.675437413152,2.952756,6,P-GPS,
24300,2023-05-19 17:55:09,52.2056850773743,0.0821285097106625,2.952756,2.9855644,50.689873013152,53.675437413152,2.952756,0,0.77912075984,2.53790362452,25,5,15.189,54.659689413152,3.937008,0,0.79551511732,0,0,0,354.9, -0.2, 0.5,0,0,1024,1024,1024,1024,0,0,0,0,345.8,0,0,50,3.794,3.802,3.8,3.795,0,0,7.987,94.82,53.675437413152,2.952756,6,P-GPS,
24500,2023-05-19 17:55:09,52.2056851380142,0.0821285327101161,2.952756,2.9855644,50.689873013152,53.675437413152,2.952756,0,0.7570866384,2.56061687984,25,5,15.189,54.659689413152,3.937008,0,0.79551511732,0,0,0,355, 0, 0.4,0,0,1024,1024,1024,1024,0,0,0,0,345.8,0,0,50,3.794,3.802,3.8,3.795,0,0,7.987,94.82,53.675437413152,2.952756,6,P-GPS,
24700,2023-05-19 17:55:10,52.2056851948752,0.0821285347650741,2.952756,2.9855644,50.689873013152,53.675437413152,2.952756,0,0.73635501044,2.58136819284,25,5,15.189,54.659689413152,3.937008,0,0.79551511732,0,0,0,355, -0.3, 0.8,0,0,1024,1024,1024,1024,0,0,0,0,345.8,0,0,50,3.794,3.802,3.8,3.795,0,0,7.987,94.82,53.675437413152,2.952756,6,P-GPS,
24900,2023-05-19 17:55:10,52.2056852498422,0.0821285479615392,2.952756,2.9855644,50.689873013152,53.675437413152,2.952756,0,0.71637469484,2.60163722236,25,5,15.189,54.659689413152,3.937008,0,0.79551511732,0,0,0,354.9, 0, 0.4,0,0,1024,1024,1024,1024,0,0,0,0,345.8,0,0,50,3.794,3.802,3.8,3.795,0,0,7.987,94.82,53.675437413152,2.952756,6,P-GPS,
25100,2023-05-19 17:55:10,52.2056852849992,0.0821285757139568,2.952756,2.9855644,50.689873013152,53.675437413152,2.952756,0,0.70374674168,2.61588919132,25,5,15.189,54.659689413152,3.937008,0,0.79551511732,0,0,0,354.9, -0.1, 0,0,0,1024,1024,1024,1024,0,0,0,0,345.8,0,0,50,3.794,3.802,3.8,3.795,0,0,7.987,94.82,53.675437413152,2.952756,6,P-GPS,
25300,2023-05-19 17:55:10,52.205685299027,0.0821285568139348,2.952756,2.9855644,50.689873013152,53.675437413152,2.952756,0,0.69849411684,2.6225230498,25,5,15.186,54.659689413152,3.937008,0,0.79551511732,0,0,0,354.9, -0.4, 0.1,0,0,1024,1024,1024,1024,0,0,0,0,345.8,0,0,50,3.792,3.801,3.799,3.795,0,0,7.982,94.82,53.675437413152,2.952756,6,P-GPS,
25500,2023-05-19 17:55:10,52.205685308686,0.0821285175670326,2.952756,2.9855644,50.689873013152,53.675437413152,2.952756,0,0.69476380176,2.63198171152,26,5,15.186,54.659689413152,3.937008,0,0.79551511732,0,0,0,354.9, -0.3, 0.4,0,0,1024,1024,1024,1024,0,0,0,0,345.8,0,0,50,3.792,3.801,3.799,3.795,0,0,7.982,94.82,53.675437413152,2.952756,6,P-GPS,
25700,2023-05-19 17:55:11,52.2056853150276,0.082128482318212,2.952756,2.952756,50.722681413152,53.675437413152,2.952756,0,0.6923556652,2.64019365404,26,5,15.186,54.659689413152,3.937008,0,0.79551511732,0,0,0,354.9, -0.5, 0.5,0,0,1024,1024,1024,1024,0,0,0,0,345.8,0,0,50,3.792,3.801,3.799,3.795,0,0,7.982,94.82,53.675437413152,2.952756,6,P-GPS,
25900,2023-05-19 17:55:11,52.2056853078491,0.0821284932814829,2.952756,2.952756,50.722681413152,53.675437413152,2.952756,0,0.6949967414,2.643782893,26,5,15.186,54.659689413152,3.937008,0,0.79551511732,0,0,0,354.9, -0.4, 0.6,0,0,1024,1024,1024,1024,0,0,0,0,345.8,0,0,50,3.792,3.801,3.799,3.795,0,0,7.982,94.82,53.675437413152,2.952756,6,P-GPS,
26100,2023-05-19 17:55:11,52.205685315086,0.0821285285128294,2.952756,2.9855644,50.689873013152,53.675437413152,2.952756,0,0.69247377544,2.65208997988,26,5,15.186,54.659689413152,3.937008,0,0.79551511732,0,0,0,354.9, -0.3, 0.3,0,0,1024,1024,1024,1024,0,0,0,0,345.8,0,0,50,3.792,3.801,3.799,3.795,0,0,7.982,94.82,53.675437413152,2.952756,6,P-GPS,
26300,2023-05-19 17:55:11,52.20568530305,0.0821285631011278,2.952756,2.9855644,50.689873013152,53.675437413152,2.952756,0,0.69707023228,2.66098433712,26,5,15.182,54.659689413152,3.937008,0,0.79551511732,0,0,0,354.8, -0.5, 0.2,0,0,1024,1024,1024,1024,0,0,0,0,345.8,0,0,50,3.791,3.8,3.798,3.793,0,0,7.983,94.82,53.675437413152,2.952756,6,P-GPS,
26500,2023-05-19 17:55:11,52.2056853035022,0.0821285987518535,2.952756,2.9855644,50.689873013152,53.675437413152,2.952756,0,0.69720474672,2.66895677832,26,5,15.182,54.659689413152,3.937008,0,0.79551511732,0,0,0,354.9, -0.2, 0.1,0,0,1024,1024,1024,1024,0,0,0,0,345.8,0,0,50,3.791,3.8,3.798,3.793,0,0,7.983,94.82,53.675437413152,2.952756,6,P-GPS,
26700,2023-05-19 17:55:11,52.2056853048988,0.0821286223663965,2.952756,2.9855644,50.689873013152,53.675437413152,2.952756,0,0.69694227952,2.6742618966,26,5,15.182,54.659689413152,3.937008,0,0.79551511732,0,0,0,354.9, -0.2, 0.6,0,0,1024,1024,1024,1024,0,0,0,0,345.8,0,0,50,3.791,3.8,3.798,3.793,0,0,7.983,94.82,53.675437413152,2.952756,6,P-GPS,
26900,2023-05-19 17:55:12,52.2056853006194,0.082128615687783,2.952756,2.9855644,50.689873013152,53.675437413152,2.952756,0,0.69842850004,2.67642068932,26,5,15.182,54.659689413152,3.937008,0,0.79551511732,0,0,0,354.9, -0.2, 0.6,0,0,1024,1024,1024,1024,0,0,0,0,345.8,0,0,50,3.791,3.8,3.798,3.793,0,0,7.983,94.82,53.675437413152,2.952756,6,P-GPS,
27100,2023-05-19 17:55:12,52.2056852648006,0.0821286407421946,2.952756,2.9855644,50.689873013152,53.675437413152,2.952756,0,0.71177167632,2.69063984988,26,5,15.182,54.659689413152,3.937008,0,0.79551511732,0,0,0,354.9, -0.2, 0.9,0,0,1024,1024,1024,1024,0,0,0,0,345.8,0,0,50,3.791,3.8,3.798,3.793,0,0,7.983,94.82,53.675437413152,2.952756,6,P-GPS,
27300,2023-05-19 17:55:12,52.2056852204684,0.0821287112677945,2.952756,2.9855644,50.689873013152,53.675437413152,2.952756,0,0.72895015456,2.71322843328,26,5,15.183,54.659689413152,3.937008,0,0.79551511732,0,0,0,355.1, -0.2, 0.8,0,0,1024,1024,1024,1024,0,0,0,0,345.8,0,0,50,3.791,3.8,3.799,3.794,0,0,7.991,95,53.675437413152,2.952756,6,P-GPS,
27500,2023-05-19 17:55:12,52.2056851753673,0.08212880716933,2.952756,2.9855644,50.689873013152,53.675437413152,2.952756,0,0.74725724176,2.74025927404,26,5,15.183,54.659689413152,3.937008,0,0.79551511732,0,0,0,355, -0.4, 0.8,0,0,1024,1024,1024,1024,0,0,0,0,345.8,0,0,50,3.791,3.8,3.799,3.794,0,0,7.991,95,53.675437413152,2.952756,6,P-GPS,
27700,2023-05-19 17:55:12,52.2056851333222,0.0821289168404822,2.952756,2.9855644,50.689873013152,53.675437413152,2.952756,0,0.76537404024,2.76918315948,26,5,15.183,54.659689413152,3.937008,0,0.79551511732,0,0,0,355, -0.6, 0.9,0,0,1024,1024,1024,1024,0,0,0,0,345.8,0,0,50,3.791,3.8,3.799,3.794,0,0,7.991,95,53.675437413152,2.952756,6,P-GPS,
27900,2023-05-19 17:55:13,52.205685090263,0.0821290637804647,2.952756,2.9855644,50.689873013152,53.675437413152,2.952756,0,0.78588913276,2.80560048348,26,5,15.183,54.659689413152,3.937008,0,0.79551511732,0,0,0,354.9, -0.4, 0.7,0,0,1024,1024,1024,1024,0,0,0,0,345.8,0,0,50,3.791,3.8,3.799,3.794,0,0,7.991,95,53.675437413152,2.952756,6,P-GPS,
28100,2023-05-19 17:55:13,52.2056850724564,0.0821292363829587,2.952756,2.9855644,50.689873013152,53.675437413152,2.952756,0,0.79973099672,2.844734343,25,5,15.183,54.659689413152,3.937008,0,0.79973099672,0,0,0,354.9, -0.3, 0.4,0,0,1024,1024,1024,1024,0,0,0,0,345.8,0,0,50,3.791,3.8,3.799,3.794,0,0,7.991,95,53.675437413152,2.952756,6,P-GPS,
28300,2023-05-19 17:55:13,52.2056850657723,0.0821293671628632,2.952756,2.9855644,50.689873013152,53.675437413152,2.952756,0,0.80891406788,2.87407817596,25,5,15.178,54.659689413152,3.937008,0,0.80891406788,0,0,0,354.9, 0, 0.3,0,0,1024,1024,1000,1024,0,0,-4,0,345.8,0,0,50,3.79,3.797,3.796,3.793,0,0,7.984,95,53.675437413152,2.952756,6,P-GPS,
28500,2023-05-19 17:55:13,52.2056850523145,0.0821294559279629,2.952756,2.9855644,50.689873013152,53.675437413152,2.952756,0,0.81882220468,2.89452437084,25,5,15.178,54.659689413152,3.937008,0,0.81882220468,0,0,0,354.9, -0.1, 0.5,0,0,1024,1024,958,1024,0,0,-10,0,345.8,0,0,50,3.79,3.797,3.796,3.793,0,0,7.984,95,53.675437413152,2.952756,6,P-GPS,
28700,2023-05-19 17:55:13,52.2056850565439,0.0821295134038804,2.952756,2.9855644,50.689873013152,53.675437413152,2.952756,0,0.82091866144,2.90746728464,26,5,15.178,54.659689413152,3.937008,0,0.82091866144,0,0,0,354.9, -0.4, 0.9,0,0,1024,1024,938,1024,0,0,-13,0,345.8,0,0,50,3.79,3.797,3.796,3.793,0,0,7.984,95,53.675437413152,2.952756,6,P-GPS,
28900,2023-05-19 17:55:14,52.2056850696743,0.0821295585116068,2.952756,2.9855644,50.689873013152,53.675437413152,2.952756,0,0.81928480312,2.91863198316,26,5,15.178,54.659689413152,3.937008,0,0.82091866144,0,0,0,354.9, -0.2, 1.1,0,0,1024,1024,975,1024,0,0,-7,0,345.8,0,0,50,3.79,3.797,3.796,3.793,0,0,7.984,95,53.675437413152,2.952756,6,P-GPS,
29100,2023-05-19 17:55:14,52.205685089632,0.0821296482482683,2.952756,2.9855644,50.689873013152,53.675437413152,2.952756,0,0.81860895008,2.9399771282,26,5,15.178,54.659689413152,3.937008,0,0.82091866144,0,0,0,354.9, -0.1, 0.8,0,0,1024,1024,960,1024,0,0,-10,0,345.8,0,0,50,3.79,3.797,3.796,3.793,0,0,7.984,95,53.675437413152,2.952756,6,P-GPS,
29300,2023-05-19 17:55:14,52.2056851079778,0.0821297592684235,2.952756,2.9855644,50.689873013152,53.675437413152,2.952756,0,0.82070868768,2.96568579044,26,5,15.18,54.659689413152,3.937008,0,0.82091866144,0,0,0,354.9, 0, 0.7,0,0,1024,1024,863,1024,0,0,-24,0,345.8,0,0,50,3.79,3.797,3.796,3.791,0,0,7.963,95,53.675437413152,2.952756,6,P-GPS,
29500,2023-05-19 17:55:14,52.2056851152843,0.0821298688487102,2.952756,2.9855644,50.689873013152,53.675437413152,2.952756,0,0.82720803172,2.99033146052,26,5,15.18,54.659689413152,3.937008,0,0.82720803172,0,0,0,354.9, 0.1, 0.4,0,0,1024,1024,823,1024,0,0,-30,0,345.8,0,0,50,3.79,3.797,3.796,3.791,0,0,7.963,95,53.675437413152,2.952756,6,P-GPS,
29700,2023-05-19 17:55:14,52.2056851041612,0.0821299613742432,2.952756,2.9855644,50.689873013152,53.675437413152,2.952756,0,0.83900265152,3.01141413836,25,5,15.18,54.659689413152,3.937008,0,0.83900265152,0,0,0,354.9, -0.1, 0.2,0,0,1024,1024,778,1024,0,0,-37,0,345.8,0,0,50,3.79,3.797,3.796,3.791,0,0,7.963,95,53.675437413152,2.952756,6,P-GPS,
29900,2023-05-19 17:55:15,52.205685082329,0.0821299675985293,2.952756,2.9855644,50.689873013152,53.675437413152,2.952756,0,0.84686354416,3.01950140896,25,5,15.18,54.659689413152,3.937008,0,0.84686354416,0,0,0,355, -0.2, 0.5,0,0,1024,1024,773,1024,0,0,-38,0,345.8,0,0,50,3.79,3.797,3.796,3.791,0,0,7.963,95,53.675437413152,2.952756,6,P-GPS,
30100,2023-05-19 17:55:15,52.2056850542779,0.0821299480379851,2.952756,2.9855644,50.689873013152,53.675437413152,2.952756,0,0.85455711396,3.03063001824,25,5,15.18,54.659689413152,3.937008,0,0.85455711396,0,0,0,355, -0.2, 1.1,0,0,1024,1024,810,1024,0,0,-32,0,345.8,0,0,50,3.79,3.797,3.796,3.791,0,0,7.963,95,53.675437413152,2.952756,6,P-GPS,
30300,2023-05-19 17:55:15,52.2056849990218,0.0821299836467729,2.952756,2.9855644,50.689873013152,53.675437413152,2.952756,0,0.87622706216,3.05230652812,25,5,15.172,54.659689413152,3.937008,0,0.87622706216,0,0,0,355, -0.2, 1,0,0,1024,1024,1024,1024,0,0,0,0,345.8,0,0,50,3.79,3.796,3.795,3.79,0,0,8.052,95,53.675437413152,2.952756,6,P-GPS,
30500,2023-05-19 17:55:15,52.205684948557,0.0821300583032577,2.952756,2.9855644,50.689873013152,53.675437413152,2.952756,0,0.89971131488,3.07715889112,25,5,15.172,54.659689413152,3.937008,0,0.89971131488,0,0,0,355, -0.3, 0.9,0,0,1024,1024,1024,1024,0,0,0,0,345.8,0,0,50,3.79,3.796,3.795,3.79,0,0,8.052,95,53.675437413152,2.952756,6,P-GPS,
30700,2023-05-19 17:55:16,52.2056848880762,0.0821301618724427,2.952756,2.9855644,50.689873013152,53.675437413152,2.952756,0,0.9292323132,3.10914380028,25,5,15.172,54.659689413152,3.937008,0,0.9292323132,0,0,0,355, -0.5, 0.8,0,0,1024,1024,1024,1024,0,0,0,0,345.8,0,0,50,3.79,3.796,3.795,3.79,0,0,8.052,95,53.675437413152,2.952756,6,P-GPS,
30900,2023-05-19 17:55:16,52.2056848608645,0.082130291450127,2.952756,2.9855644,50.689873013152,53.675437413152,2.952756,0,0.95039701204,3.13977044168,25,5,15.172,54.659689413152,3.937008,0,0.95039701204,0,0,0,354.8, -0.5, 0.4,0,0,1024,1024,1024,1024,0,0,0,0,345.8,0,0,50,3.79,3.796,3.795,3.79,0,0,8.052,95,53.675437413152,2.952756,6,P-GPS,
31100,2023-05-19 17:55:16,52.2056848666105,0.0821304361289567,2.952756,2.9855644,50.689873013152,53.675437413152,2.952756,0,0.96288388908,3.17218842172,25,5,15.172,54.659689413152,3.937008,0,0.96288388908,0,0,0,354.8, 0.1, -0.1,0,0,1024,1024,1024,1024,0,0,0,0,345.8,0,0,50,3.79,3.796,3.795,3.79,0,0,8.052,95,53.675437413152,2.952756,6,P-GPS,
31300,2023-05-19 17:55:16,52.205684840087,0.0821305147905129,2.952756,3.0183728,50.657064613152,53.675437413152,2.952756,0,0.97960633056,3.19226060084,25,5,15.171,54.659689413152,3.937008,0,0.97960633056,0,0,0,354.9, 0, 0,0,0,1024,1024,1024,1024,0,0,0,0,345.8,0,0,50,3.79,3.795,3.794,3.79,0,0,8.053,95,53.675437413152,2.952756,6,P-GPS,
31500,2023-05-19 17:55:16,52.2056848009919,0.0821305492774613,2.952756,3.0183728,50.657064613152,53.675437413152,2.952756,0,0.99582024184,3.20847779296,25,5,15.171,54.659689413152,3.937008,0,0.99582024184,0,0,0,355, -0.2, 0,0,0,1024,1024,1024,1024,0,0,0,0,345.8,0,0,50,3.79,3.795,3.794,3.79,0,0,8.053,95,53.675437413152,2.952756,6,P-GPS,
31700,2023-05-19 17:55:17,52.2056847594123,0.082130541969779,2.952756,3.0183728,50.657064613152,53.675437413152,2.952756,0,1.00849412676,3.22373369896,25,5,15.171,54.659689413152,3.937008,0,1.00849412676,0,0,0,355, -0.4, 0.4,0,0,1024,1024,1024,1024,0,0,0,0,345.8,0,0,50,3.79,3.795,3.794,3.79,0,0,8.053,95,53.675437413152,2.952756,6,P-GPS,
31900,2023-05-19 17:55:17,52.2056847330506,0.0821305410331654,2.952756,3.0183728,50.657064613152,53.675437413152,2.952756,0,1.0169455706,3.23335640268,25,5,15.171,54.659689413152,3.937008,0,1.0169455706,0,0,0,355, -0.4, 0.5,0,0,1024,1024,892,1024,0,0,-20,0,345.8,0,0,50,3.79,3.795,3.794,3.79,0,0,8.053,95,53.675437413152,2.952756,6,P-GPS,
32100,2023-05-19 17:55:17,52.2056847302567,0.0821305560958679,2.952756,3.0183728,50.657064613152,53.675437413152,2.952756,0,1.01939307724,3.23687346316,25,5,15.171,54.659689413152,3.937008,0,1.01939307724,0,0,0,354.9, -0.3, 0.5,0,0,1024,1024,808,1024,0,0,-33,0,345.8,0,0,50,3.79,3.795,3.794,3.79,0,0,8.053,95,53.675437413152,2.952756,6,P-GPS,
32300,2023-05-19 17:55:17,52.2056847185787,0.0821305868153933,2.952756,3.0183728,50.657064613152,53.675437413152,2.952756,0,1.02633861552,3.24495745292,25,5,15.169,54.659689413152,3.937008,0,1.02633861552,0,0,0,354.9, -0.4, 0.4,0,0,1024,1024,731,1024,0,0,-44,0,345.8,0,0,50,3.788,3.794,3.796,3.789,0,0,8.067,95,53.675437413152,2.952756,6,P-GPS,
32500,2023-05-19 17:55:17,52.2056847200771,0.0821305882832205,2.952756,3.0183728,50.657064613152,53.675437413152,2.952756,0,1.02600725068,3.24559393588,25,5,15.169,54.659689413152,3.937008,0,1.02633861552,0,0,0,354.9, -0.3, 0.3,0,0,1024,1024,627,1024,0,0,-60,0,345.8,0,0,50,3.788,3.794,3.796,3.789,0,0,8.067,95,53.675437413152,2.952756,6,P-GPS,
32700,2023-05-19 17:55:18,52.2056847266583,0.0821305721790597,2.952756,3.0183728,50.657064613152,53.675437413152,2.952756,0,1.02221459964,3.24992136384,25,5,15.169,54.659689413152,3.937008,0,1.02633861552,0,0,0,355, -0.2, 0.6,0,0,1024,1024,606,1024,0,0,-63,0,345.8,0,0,50,3.788,3.794,3.796,3.789,0,0,8.067,95,53.675437413152,2.952756,6,P-GPS,
32900,2023-05-19 17:55:18,52.2056847214239,0.0821305350709913,2.952756,3.0183728,50.657064613152,53.675437413152,2.952756,0,1.02011486204,3.25843514364,25,5,15.169,54.659689413152,3.937008,0,1.02633861552,0,0,0,354.9, -0.1, 1.1,0,0,1024,1024,585,1024,0,0,-67,0,345.8,0,0,50,3.788,3.794,3.796,3.789,0,0,8.067,95,53.675437413152,2.952756,6,P-GPS,
33100,2023-05-19 17:55:18,52.2056846746587,0.0821305407780431,2.952756,3.0183728,50.657064613152,53.675437413152,2.952756,0,1.03591866832,3.27554472424,26,5,15.169,54.659689413152,3.937008,0,1.03591866832,0,0,0,354.9, -0.3, 1.2,0,0,1024,1024,466,1024,0,0,-85,0,345.8,0,0,50,3.788,3.794,3.796,3.789,0,0,8.067,95,53.675437413152,2.952756,6,P-GPS,
33300,2023-05-19 17:55:18,52.2056846262318,0.082130601832663,2.952756,3.0183728,50.657064613152,53.675437413152,2.952756,0,1.0578412412,3.2978675596,26,5,15.164,54.659689413152,3.937008,0,1.0578412412,0,0,0,354.9, -0.5, 1.3,0,0,1024,1024,432,1024,0,0,-90,0,345.8,0,0,50,3.787,3.795,3.794,3.79,0,0,8.033,95.18,53.675437413152,2.952756,6,P-GPS,
33500,2023-05-19 17:55:18,52.205684596986,0.082130723718234,2.952756,3.0183728,50.657064613152,53.675437413152,2.952756,0,1.07984911592,3.3271326524,26,5,15.164,54.659689413152,3.937008,0,1.07984911592,0,0,0,354.8, -0.6, 1,0,0,1024,1024,433,1024,0,0,-90,0,345.8,0,0,50,3.787,3.795,3.794,3.79,0,0,8.033,95.18,53.675437413152,2.952756,6,P-GPS,
33700,2023-05-19 17:55:19,52.2056845943728,0.0821308700431271,2.952756,3.0183728,50.657064613152,53.675437413152,2.952756,0,1.09637142616,3.3598754356,26,5,15.164,54.659689413152,3.937008,0,1.09637142616,0,0,0,354.8, -0.3, 0.6,0,0,1024,1024,436,1024,0,0,-89,0,345.8,0,0,50,3.787,3.795,3.794,3.79,0,0,8.033,95.18,53.675437413152,2.952756,6,P-GPS,
33900,2023-05-19 17:55:19,52.2056846021317,0.0821310004875283,2.952756,3.0183728,50.657064613152,53.675437413152,2.952756,0,1.10854334256,3.3891733368,26,5,15.164,54.659689413152,3.937008,0,1.10854334256,0,0,0,354.9, -0.3, 0.3,0,0,1024,1024,414,1024,0,0,-92,0,345.8,0,0,50,3.787,3.795,3.794,3.79,0,0,8.033,95.18,53.675437413152,2.952756,6,P-GPS,
34100,2023-05-19 17:55:19,52.20568463705,0.0821311046019062,2.952756,3.0183728,50.657064613152,53.675437413152,2.952756,0,1.109826151,3.4157153324,26,5,15.164,54.659689413152,3.937008,0,1.109826151,0,0,0,354.8, -0.5, 0.5,0,0,1024,1024,372,1024,0,0,-99,0,345.8,0,0,50,3.787,3.795,3.794,3.79,0,0,8.033,95.18,53.675437413152,2.952756,6,P-GPS,
34300,2023-05-19 17:55:19,52.205684674814,0.0821311814496474,2.952756,3.0183728,50.657064613152,53.675437413152,2.952756,0,1.10751643964,3.4377297688,26,5,15.163,54.659689413152,3.937008,0,1.109826151,0,0,0,354.9, -0.1, 0.2,0,0,1024,1024,371,1024,0,0,-99,0,345.8,0,0,50,3.787,3.793,3.793,3.788,0,0,7.98,95.18,53.675437413152,2.952756,6,P-GPS,
34500,2023-05-19 17:55:19,52.2056846997384,0.0821312240550779,2.952756,3.0183728,50.657064613152,53.675437413152,2.952756,0,1.1052165708,3.4509187456,26,5,15.163,54.659689413152,3.937008,0,1.109826151,0,0,0,354.9, -0.4, 0.4,0,0,1024,1024,366,1024,0,0,-100,0,345.8,0,0,50,3.787,3.793,3.793,3.788,0,0,7.98,95.18,53.675437413152,2.952756,6,P-GPS,
