time(millisecond),datetime(utc),latitude,longitude,height_above_takeoff(feet),height_above_ground_at_drone_location(feet),ground_elevation_at_drone_location(feet),altitude_above_seaLevel(feet),height_sonar(feet),speed(mph),distance(feet),mileage(feet),satellites,gpslevel,voltage(v),max_altitude(feet),max_ascent(feet),max_speed(mph),max_distance(feet), xSpeed(mph), ySpeed(mph), zSpeed(mph), compass_heading(degrees), pitch(degrees), roll(degrees),isPhoto,isVideo,rc_elevator,rc_aileron,rc_throttle,rc_rudder,rc_elevator(percent),rc_aileron(percent),rc_throttle(percent),rc_rudder(percent),gimbal_heading(degrees),gimbal_pitch(degrees),gimbal_roll(degrees),battery_percent,voltageCell1,voltageCell2,voltageCell3,voltageCell4,voltageCell5,voltageCell6,current(A),battery_temperature(f),altitude(feet),ascent(feet),flycStateRaw,flycState,message
0,2023-05-26 16:31:52,52.2064028474725,0.0867393668271738,0,0,54.026183815452,54.026183815452,0.328084,0,0,0,25,5,0,54.026183815452,0,0,0,0,0,0,279.9, 5.1, 0.6,0,0,1024,1024,1024,1024,0,0,0,0,280,0,0,86,4.156,4.163,4.16,4.161,0,0,0,83.12,54.026183815452,0,41,Motors_Started,"Setting new Return-To-Home altitude to 26m (85 ft). Data Recorder File Index is 22. Setting new Maximum Flight Altitude to 120m (394 ft) Aircraft not in flight. Vision systems and obstacle avoidance disabled (Code: 180059)"
200,2023-05-26 16:31:52,52.2064029255826,0.0867393280540887,0,0,54.026183815452,54.026183815452,0.328084,0,0.0297877962288,0.0297877962288,25,5,0,54.026183815452,0,0,0.0297877962288,0,0,0,279.9, 5.1, 0.6,0,0,1024,1024,1024,1024,0,0,0,0,280,0,0,86,4.156,4.163,4.16,4.161,0,0,0,83.12,54.026183815452,0,41,Motors_Started,
400,2023-05-26 16:31:52,52.2064029885139,0.0867393110807616,0,0,54.026183815452,54.026183815452,0.328084,0,0.052946852088,0.053059712984,25,5,0,54.026183815452,0,0,0.052946852088,0,0,0,279.9, 5.1, 0.7,0,0,1024,1024,1024,1024,0,0,0,0,280,0,0,86,4.156,4.163,4.16,4.161,0,0,0,83.12,54.026183815452,0,41,Motors_Started,
600,2023-05-26 16:31:52,52.2064030661014,0.0867393123467823,0,0,54.026183815452,54.026183815452,0,0,0.080691275548,0.081369097092,25,5,0,54.026183815452,0,0,0.080691275548,0,0,0,279.9, 5.1, 0.6,0,0,1024,1024,1024,1024,0,0,0,0,280,0,0,86,4.156,4.163,4.16,4.161,0,0,0,83.12,54.026183815452,0,41,Motors_Started,
800,2023-05-26 16:31:52,52.2064031282485,0.0867392990605548,0,0,54.026183815452,54.026183815452,0,0,0.103555449508,0.104236879976,25,5,0,54.026183815452,0,0,0.103555449508,0,0,0,279.9, 5.1, 0.6,0,0,1024,1024,1024,1024,0,0,0,0,280,0,0,86,4.156,4.163,4.16,4.161,0,0,0,83.12,54.026183815452,0,41,Motors_Started,
1000,2023-05-26 16:31:53,52.2064032045399,0.0867393002662888,0,0,54.026183815452,54.026183815452,0,0,0.131123035692,0.132073166956,25,5,16.674,54.026183815452,0,0,0.131123035692,0,0,0,280, 5.1, 0.6,0,0,1024,1024,1024,1024,0,0,0,0,280,0,0,86,4.156,4.163,4.16,4.161,0,0,2.514,83.12,54.026183815452,0,41,Motors_Started,
1200,2023-05-26 16:31:53,52.2064032646645,0.0867393201373092,0,0,54.026183815452,54.026183815452,0,0,0.152569886772,0.154455057436,25,5,16.674,54.026183815452,0,0,0.152569886772,0,0,0,279.3, 5.2, 0.7,0,0,1024,1024,1024,1024,0,0,0,0,280,0,0,86,4.156,4.163,4.16,4.161,0,0,2.514,83.12,54.026183815452,0,41,Motors_Started,
1400,2023-05-26 16:31:53,52.2064033357387,0.0867393557151992,0,0,54.026183815452,54.026183815452,0,0,0.17816109494,0.181579074052,25,5,16.674,54.026183815452,0,0,0.17816109494,0,0,0,279.3, 5.2, 0.7,0,0,1024,1024,1024,1024,0,0,0,0,280,0,0,86,4.156,4.163,4.16,4.161,0,0,2.514,83.12,54.026183815452,0,41,Motors_Started,
1600,2023-05-26 16:31:53,52.2064033544992,0.08673940847043,0,0,54.026183815452,54.026183815452,0,0,0.185222446872,0.19521654168,24,5,16.674,54.026183815452,0,0,0.185222446872,0,0,0,279.2, 5.2, 0.7,0,0,1024,1024,1024,1024,0,0,0,0,279.9,0,0,86,4.156,4.163,4.16,4.161,0,0,2.514,83.12,54.026183815452,0,11,AutoTakeoff,
1800,2023-05-26 16:31:53,52.2064033358906,0.0867395162770286,0,0,54.026183815452,54.026183815452,0,0,0.181304795828,0.220258537232,24,5,16.674,54.026183815452,0,0,0.185222446872,0,0,0,279.4, 5.2, 0.7,0,0,1024,1024,1024,1024,0,0,0,0,279.9,0,0,86,4.156,4.163,4.16,4.161,0,0,2.514,83.12,54.026183815452,0,11,AutoTakeoff,
2000,2023-05-26 16:31:54,52.206403315756,0.0867396366866054,0,0,54.026183815452,54.026183815452,0,0,0.181193903436,0.248164706104,24,5,16.701,54.026183815452,0,0,0.185222446872,0,0,0,279.2, 3.1, 0.7,0,0,1024,1024,1024,1024,0,0,0,0,279.9,0,0,86,4.177,4.185,4.182,4.183,0,0,4.029,83.12,54.026183815452,0,11,AutoTakeoff,
2200,2023-05-26 16:31:54,52.2064032794632,0.0867398420982444,0,0,54.026183815452,54.026183815452,0,0,0.190088260676,0.29596293598,24,5,16.701,54.026183815452,0,0,0.190088260676,0,0,-0.671082,279.7, -1.6, 0.2,0,0,1024,1024,1024,1024,0,0,0,0,279.9,0,0,86,4.177,4.185,4.182,4.183,0,0,4.029,83.12,54.026183815452,0,11,AutoTakeoff,
2400,2023-05-26 16:31:54,52.2064032511655,0.0867398974296394,0.328084,0.328084,54.026183815452,54.354267815452,0.328084,0,0.1891240218,0.312076453556,24,5,16.701,54.354267815452,0.328084,0,0.190088260676,0,0,-0.894776,279.6, 0, 0.5,0,0,1024,1024,1024,1024,0,0,0,0,279.9,0,0,86,4.177,4.185,4.182,4.183,0,0,4.029,83.12,54.354267815452,0.328084,11,AutoTakeoff,
2600,2023-05-26 16:31:54,52.2064032084827,0.0867398734835876,0.656168,0.656168,54.026183815452,54.682351815452,0.656168,0,0.173728023932,0.3285433176,24,5,16.701,54.682351815452,0.656168,0,0.190088260676,0,0,-0.894776,279.5, 0.2, 0.6,0,0,1024,1024,1024,1024,0,0,0,0,279.9,0,0,86,4.177,4.185,4.182,4.183,0,0,4.029,83.12,54.682351815452,0.656168,11,AutoTakeoff,
2800,2023-05-26 16:31:54,52.2064031784764,0.0867398878506071,0.984252,0.984252,54.026183815452,55.010435815452,0.984252,0,0.167795609044,0.33995407912,24,5,16.701,55.010435815452,0.984252,0,0.190088260676,0,0,-0.894776,279.5, -0.1, 0.7,0,0,1024,1024,1024,1024,0,0,0,0,279.9,0,0,86,4.177,4.185,4.182,4.183,0,0,4.029,83.12,55.010435815452,0.984252,11,AutoTakeoff,
3000,2023-05-26 16:31:55,52.2064031803334,0.0867398320522085,1.312336,1.312336,54.026183815452,55.338519815452,1.312336,0,0.159901251836,0.35244751784,24,5,16.526,55.338519815452,1.312336,0,0.190088260676,0,0,-0.894776,279.6, -0.2, 0.3,0,0,1024,1024,1024,1024,0,0,0,0,279.9,0,0,86,4.122,4.131,4.128,4.13,0,0,5.45,83.12,55.338519815452,1.312336,11,AutoTakeoff,
3200,2023-05-26 16:31:55,52.2064031977122,0.0867398062944977,1.312336,1.312336,54.026183815452,55.338519815452,1.64042,0,0.161194887048,0.36101379108,25,5,16.526,55.338519815452,1.312336,0,0.190088260676,0,0,-0.894776,279.6, -0.5, -0.3,0,0,1024,1024,1024,1024,0,0,0,0,279.8,0,0,86,4.122,4.131,4.128,4.13,0,0,5.45,83.12,55.338519815452,1.312336,11,AutoTakeoff,
3400,2023-05-26 16:31:55,52.2064031798885,0.0867397318884782,1.64042,1.64042,54.026183815452,55.666603815452,1.968504,0,0.146189965308,0.37887468404,25,5,16.526,55.666603815452,1.64042,0,0.190088260676,0,0,-1.11847,279.6, -0.3, 0.4,0,0,1024,1024,1024,1024,0,0,0,0,279.8,0,0,86,4.122,4.131,4.128,4.13,0,0,5.45,83.12,55.666603815452,1.64042,11,AutoTakeoff,
3600,2023-05-26 16:31:55,52.2064031466249,0.0867396063654535,1.968504,1.968504,54.026183815452,55.994687815452,2.296588,0,0.121577759796,0.40945211284,25,5,16.526,55.994687815452,1.968504,0,0.190088260676,0,0,-1.11847,279.5, -0.3, 0.9,0,0,1024,1024,1684,1251,0,0,100,34,279.8,0,0,86,4.122,4.131,4.128,4.13,0,0,5.45,83.12,55.994687815452,1.968504,11,AutoTakeoff,
3800,2023-05-26 16:31:55,52.2064030770313,0.0867394715163384,2.624672,2.624672,54.026183815452,56.650855815452,2.624672,0,0.08696358546,0.4488681246,25,5,16.526,56.650855815452,2.624672,0,0.190088260676,0,0,-1.11847,279.5, -0.2, 0.8,0,0,1024,1024,1684,1024,0,0,100,0,279.8,0,0,86,4.122,4.131,4.128,4.13,0,0,5.45,83.12,56.650855815452,2.624672,11,AutoTakeoff,"Home Point updated (Code: 3000001)"
4000,2023-05-26 16:31:56,52.2064030530212,0.0867393803047461,2.952756,2.952756,54.026183815452,56.978939815452,3.28084,0,0.075054792428,0.47106628804,25,5,16.476,56.978939815452,2.952756,0,0.190088260676,0,0,-2.460634,279.7, 0, 0.4,0,0,1024,1024,1684,1024,0,0,100,0,279.8,0,0,86,4.112,4.123,4.12,4.124,0,0,7.473,83.12,56.978939815452,2.952756,11,AutoTakeoff,
4200,2023-05-26 16:31:56,52.2064030493255,0.0867392871460681,4.265092,4.265092,54.026183815452,58.291275815452,4.265092,0,0.075770015548,0.49193899212,26,5,16.476,58.291275815452,4.265092,0,0.190088260676,0,0,-4.697574,279.6, 0, 0.4,0,0,1024,1024,1674,1024,0,0,98,0,279.8,0,0,86,4.112,4.123,4.12,4.124,0,0,7.473,83.12,58.291275815452,4.265092,6,P-GPS,
4400,2023-05-26 16:31:56,52.2064030506431,0.0867392111494409,5.905512,5.905512,54.026183815452,59.931695815452,5.905512,0,0.081892062988,0.50893702416,26,5,16.476,59.931695815452,5.905512,0,0.190088260676,0,0,-6.934514,280, -0.4, 0,0,0,1024,1024,1636,1024,0,0,93,0,279.8,0,0,86,4.112,4.123,4.12,4.124,0,0,7.473,83.12,59.931695815452,5.905512,6,P-GPS,
4600,2023-05-26 16:31:56,52.2064030023242,0.0867390636370609,8.858268,8.858268,54.026183815452,62.884451815452,8.530184,0,0.088246065816,0.54633531932,27,5,16.476,62.884451815452,8.858268,0,0.190088260676,0,0,-9.171454,279.8, 0.3, 0.3,0,0,1024,1024,1591,1024,0,0,86,0,279.8,0,0,86,4.112,4.123,4.12,4.124,0,0,7.473,83.12,62.884451815452,8.858268,6,P-GPS,
4800,2023-05-26 16:31:56,52.206402923573,0.0867389285214611,12.795276,12.795276,54.026183815452,66.821459815452,11.48294,0,0.101856630556,0.5880249532,27,5,16.476,66.821459815452,12.795276,0,0.190088260676,0,0,-10.513618,279.9, 0.4, 0.6,0,0,1024,1024,1016,1024,0,0,-1,0,279.8,0,0,86,4.112,4.123,4.12,4.124,0,0,7.473,83.12,66.821459815452,12.795276,6,P-GPS,
5000,2023-05-26 16:31:57,52.2064027655428,0.086738737244432,17.060368,17.060368,54.026183815452,71.086551815452,14.435696,0,0.143905188332,0.65981301324,27,5,16.208,71.086551815452,17.060368,0,0.190088260676,0,0,-9.842536,279.5, 0, 1.4,0,0,1024,1024,1011,1024,0,0,-2,0,279.8,0,0,86,4.024,4.039,4.034,4.036,0,0,11.409,82.94,71.086551815452,17.060368,6,P-GPS,
5200,2023-05-26 16:31:57,52.2064025778507,0.0867383211281565,19.356956,19.356956,54.026183815452,73.383139815452,17.060368,0.223694,0.253655848012,0.77533467048,27,5,16.208,73.383139815452,19.356956,0.223694,0.253655848012,0,-0.223694,-7.82929,279.9, 1.7, 3.4,0,0,1024,1024,1024,1024,0,0,0,0,279.8,0,0,86,4.024,4.039,4.034,4.036,0,0,11.409,82.94,73.383139815452,19.356956,6,P-GPS,
5400,2023-05-26 16:31:57,52.206402380639,0.0867376543004663,20.341208,20.341208,54.026183815452,74.367391815452,19.028872,0.223694,0.41907153572,0.94088257604,27,5,16.208,74.367391815452,20.341208,0.223694,0.41907153572,0,-0.223694,-5.368656,280.1, 4.2, 4.2,0,0,1024,1024,1024,1024,0,0,0,0,279.8,0,0,86,4.024,4.039,4.034,4.036,0,0,11.409,82.94,74.367391815452,20.341208,6,P-GPS,
5600,2023-05-26 16:31:57,52.2064021928755,0.0867367092470361,21.981628,21.981628,54.026183815452,76.007811815452,20.341208,0.447388,0.64040028296,1.16301184824,27,5,16.208,76.007811815452,21.981628,0.447388,0.64040028296,0,-0.447388,-2.684328,280.6, 8, 5.5,0,0,1073,1024,1024,1024,7,0,0,0,279.8,0,0,86,4.024,4.039,4.034,4.036,0,0,11.409,82.94,76.007811815452,21.981628,6,P-GPS,
5800,2023-05-26 16:31:57,52.2064020228881,0.0867355309723238,22.637796,22.637796,54.026183815452,76.663979815452,20.669292,0.671082,0.90888126268,1.4336614632,27,5,16.208,76.663979815452,22.637796,0.671082,0.90888126268,0,-0.671082,-0.671082,281.9, 7, 3.5,0,0,1214,1024,1024,1024,29,0,0,0,279.8,0,0,86,4.024,4.039,4.034,4.036,0,0,11.409,82.94,76.663979815452,22.637796,6,P-GPS,
6000,2023-05-26 16:31:58,52.2064018491423,0.0867342261278699,22.96588,22.96588,54.026183815452,76.992063815452,20.997376,0.894776,1.2057251042,1.73221462236,27,5,16.588,76.992063815452,22.96588,0.894776,1.2057251042,0,-0.894776,0,284.4, 4.4, 2.8,0,0,1232,1024,1024,1024,32,0,0,0,279.8,0,0,86,4.138,4.154,4.149,4.156,0,0,7.598,83.3,76.992063815452,22.96588,6,P-GPS,
6200,2023-05-26 16:31:58,52.2064016035425,0.0867326625433857,23.293964,23.293964,54.026183815452,77.320147815452,20.997376,1.11847,1.56618771416,2.0931103032,27,5,16.588,77.320147815452,23.293964,1.11847,1.56618771416,0,-1.11847,0,286.1, 4.5, 3.4,0,0,1024,1024,1024,1024,0,0,0,0,279.8,0,0,86,4.138,4.154,4.149,4.156,0,0,7.598,83.3,77.320147815452,23.293964,6,P-GPS,
6400,2023-05-26 16:31:58,52.2064012022765,0.0867309091125893,23.293964,23.3267724,53.993375415452,77.320147815452,20.997376,1.1408394,1.98400924984,2.5115978494,27,5,16.588,77.320147815452,23.293964,1.1408394,1.98400924984,-0.223694,-1.11847,0,286.1, 4.3, 5,0,0,1024,1024,1024,1024,0,0,0,0,279.8,0,0,86,4.138,4.154,4.149,4.156,0,0,7.598,83.3,77.320147815452,23.293964,6,P-GPS,
6600,2023-05-26 16:31:58,52.2064007644076,0.0867291545511989,23.293964,23.3267724,53.993375415452,77.320147815452,20.997376,1.1408394,2.40648957832,2.93517725928,27,5,16.588,77.320147815452,23.293964,1.1408394,2.40648957832,-0.223694,-1.11847,0,286.4, 11.3, 7,0,0,1024,1024,1024,1024,0,0,0,0,279.8,0,0,86,4.138,4.154,4.149,4.156,0,0,7.598,83.3,77.320147815452,23.293964,6,P-GPS,
6800,2023-05-26 16:31:58,52.2064003526689,0.0867278835939863,23.622048,23.6548564,53.993375415452,77.648231815452,20.669292,0.447388,2.72406832864,3.25660771576,27,5,16.588,77.648231815452,23.622048,1.1408394,2.72406832864,0,-0.447388,0,283.5, 13.4, 8.9,0,0,1024,1024,1024,1024,0,0,0,0,279.8,0,0,86,4.138,4.154,4.149,4.156,0,0,7.598,83.3,77.648231815452,23.622048,6,P-GPS,
7000,2023-05-26 16:31:59,52.2064001518358,0.0867273940275413,23.622048,23.6548564,53.993375415452,77.648231815452,20.341208,0,2.85190625924,3.3883203184,27,5,16.446,77.648231815452,23.622048,1.1408394,2.85190625924,0,0,0,282.6, 11.4, 7.1,0,0,1024,1024,1024,1024,0,0,0,0,279.8,0,0,86,4.101,4.096,4.062,4.121,0,0,6.623,83.3,77.648231815452,23.622048,6,P-GPS,
7200,2023-05-26 16:31:59,52.206400112701,0.0867275046597512,23.622048,23.6548564,53.993375415452,77.648231815452,20.341208,0,2.83369759724,3.4168964348,27,5,16.446,77.648231815452,23.622048,1.1408394,2.85190625924,0,0,0,283.5, 9.6, 5.1,0,0,1024,1024,1024,1024,0,0,0,0,279.8,0,0,86,4.101,4.096,4.062,4.121,0,0,6.623,83.3,77.648231815452,23.622048,6,P-GPS,
7400,2023-05-26 16:31:59,52.2064000806977,0.0867279271646694,23.622048,23.6548564,53.993375415452,77.648231815452,20.341208,0.223694,2.74974746332,3.5120736032,27,5,16.446,77.648231815452,23.622048,1.1408394,2.85190625924,0,0.223694,0,284.5, 6.8, 3.5,0,0,1024,1024,1024,1024,0,0,0,0,279.8,0,0,86,4.101,4.096,4.062,4.121,0,0,6.623,83.3,77.648231815452,23.622048,6,P-GPS,
7600,2023-05-26 16:31:59,52.2064000624191,0.0867284166891759,23.622048,23.6548564,53.993375415452,77.648231815452,20.341208,0.223694,2.65079404808,3.621719276,27,5,16.446,77.648231815452,23.622048,1.1408394,2.85190625924,0,0.223694,0,284.4, 5.7, 2.7,0,0,1023,1057,1024,1024,-0,5,0,0,279.8,0,0,86,4.101,4.096,4.062,4.121,0,0,6.623,83.3,77.648231815452,23.622048,6,P-GPS,
7800,2023-05-26 16:31:59,52.2064000165112,0.0867288090804508,23.622048,23.6548564,53.993375415452,77.648231815452,20.341208,0,2.57665034492,3.7110565492,27,5,16.446,77.648231815452,23.622048,1.1408394,2.85190625924,0,0,0,284.3, 5.4, 2.3,0,0,1014,1560,1024,1024,-2,81,0,0,279.8,0,0,86,4.101,4.096,4.062,4.121,0,0,6.623,83.3,77.648231815452,23.622048,6,P-GPS,
8000,2023-05-26 16:32:00,52.2063999290746,0.0867290279159282,23.622048,23.6548564,53.993375415452,77.648231815452,20.341208,0,2.54508210244,3.7694555012,27,5,16.435,77.648231815452,23.622048,1.1408394,2.85190625924,0,0,0,284.4, 1.3, 5,0,0,936,1650,1024,1024,-13,95,0,0,279.8,0,0,86,4.103,4.112,4.112,4.115,0,0,7.769,83.3,77.648231815452,23.622048,6,P-GPS,
8200,2023-05-26 16:32:00,52.2064000030547,0.0867287781245411,23.622048,23.6548564,53.993375415452,77.648231815452,20.669292,0.4921268,2.5849574318,3.8314961856,27,5,16.435,77.648231815452,23.622048,1.1408394,2.85190625924,0.447388,-0.223694,0,284.3, 3.1, 12.6,0,0,927,1502,1024,1024,-15,72,0,0,279.8,0,0,86,4.103,4.112,4.112,4.115,0,0,7.769,83.3,77.648231815452,23.622048,6,P-GPS,
8400,2023-05-26 16:32:00,52.2064006669124,0.0867282118192434,23.622048,23.6548564,53.993375415452,77.648231815452,20.669292,1.3645334,2.61792331212,4.1047901576,27,5,16.435,77.648231815452,23.622048,1.3645334,2.85190625924,1.342164,-0.223694,0,284.3, 5.9, 16.7,0,0,1024,1024,1024,1024,0,0,0,0,279.8,0,0,86,4.103,4.112,4.112,4.115,0,0,7.769,83.3,77.648231815452,23.622048,6,P-GPS,
8600,2023-05-26 16:32:00,52.2064020911349,0.086727797523801,23.950132,23.950132,54.026183815452,77.976315815452,20.669292,2.23694,2.60141740608,4.6326116968,27,5,16.435,77.976315815452,23.950132,2.23694,2.85190625924,2.23694,-0.223694,0,283.5, 7.7, 10.1,0,0,1024,1024,1024,1024,0,0,0,0,279.8,0,0,86,4.103,4.112,4.112,4.115,0,0,7.769,83.3,77.976315815452,23.950132,6,P-GPS,
8800,2023-05-26 16:32:00,52.2064038850604,0.0867275151898281,23.950132,23.950132,54.026183815452,77.976315815452,20.669292,2.013246,2.6767717392,5.2901576496,27,5,16.435,77.976315815452,23.950132,2.23694,2.85190625924,2.013246,0,-0.223694,282.3, 8.2, -12.7,0,0,1024,1024,1024,1024,0,0,0,0,279.8,0,0,86,4.103,4.112,4.112,4.115,0,0,7.769,83.3,77.976315815452,23.950132,6,P-GPS,
9000,2023-05-26 16:32:01,52.206404935295,0.0867271493666396,23.950132,23.9173236,54.058992215452,77.976315815452,20.669292,0.671082,2.83587935584,5.6819883708,27,5,16.393,77.976315815452,23.950132,2.23694,2.85190625924,0.671082,0,0,285.4, 12.6, -8.5,0,0,1024,1024,1024,1024,0,0,0,0,279.8,0,0,86,4.101,4.109,4.105,4.107,0,0,7.626,83.3,77.976315815452,23.950132,6,P-GPS,
9200,2023-05-26 16:32:01,52.2064051235723,0.0867270227138945,23.622048,23.5892396,54.058992215452,77.648231815452,20.669292,0,2.88220481664,5.7562665884,27,5,16.393,77.976315815452,23.950132,2.23694,2.88220481664,0,0,0,286.3, 10.1, -0.9,0,0,1024,1024,1024,1024,0,0,0,0,279.8,0,0,86,4.101,4.109,4.105,4.107,0,0,7.626,83.3,77.648231815452,23.622048,6,P-GPS,
9400,2023-05-26 16:32:01,52.2064048633442,0.0867271776646922,23.622048,23.5892396,54.058992215452,77.648231815452,20.341208,0.223694,2.82283145516,5.8573492688,27,5,16.393,77.976315815452,23.950132,2.23694,2.88220481664,-0.223694,0,0,284.7, 7.8, 2.6,0,0,1024,1024,1024,1024,0,0,0,0,279.8,0,0,86,4.101,4.109,4.105,4.107,0,0,7.626,83.3,77.648231815452,23.622048,6,P-GPS,
9600,2023-05-26 16:32:01,52.206404510168,0.086727463294338,23.622048,23.5892396,54.058992215452,77.648231815452,20.341208,0.223694,2.72973105848,6.001148486,27,5,16.393,77.976315815452,23.950132,2.23694,2.88220481664,-0.223694,0,0,283.9, 6.2, 4.2,0,0,1024,1024,1024,1024,0,0,0,0,279.8,0,0,86,4.101,4.109,4.105,4.107,0,0,7.626,83.3,77.648231815452,23.622048,6,P-GPS,
9800,2023-05-26 16:32:01,52.2064041945149,0.0867277527491313,23.622048,23.622048,54.026183815452,77.648231815452,20.341208,0.223694,2.64285113444,6.1332679128,27,5,16.393,77.976315815452,23.950132,2.23694,2.88220481664,-0.223694,0,0,283.7, 5, 4.5,0,0,1024,1024,1024,787,0,0,0,-36,279.8,0,0,86,4.101,4.109,4.105,4.107,0,0,7.626,83.3,77.648231815452,23.622048,6,P-GPS,
10000,2023-05-26 16:32:02,52.2064039768252,0.086727924898239,23.622048,23.622048,54.026183815452,77.648231815452,20.341208,0,2.59123039788,6.2215225088,27,5,16.41,77.976315815452,23.950132,2.23694,2.88220481664,0,0,0,283.8, 5.3, 4.8,0,0,1024,1024,1024,364,0,0,0,-100,279.8,0,0,86,4.095,4.106,4.103,4.105,0,0,7.591,83.48,77.648231815452,23.622048,6,P-GPS,
10200,2023-05-26 16:32:02,52.2064038890451,0.0867279637927712,23.622048,23.622048,54.026183815452,77.648231815452,20.669292,0,2.57772974128,6.2546918012,27,5,16.41,77.976315815452,23.950132,2.23694,2.88220481664,0,0,0,283.2, 6.3, 4.6,0,0,1024,1024,936,364,0,0,-13,-100,273,0,0,86,4.095,4.106,4.103,4.105,0,0,7.591,83.48,77.648231815452,23.622048,6,P-GPS,
10400,2023-05-26 16:32:02,52.2064039000154,0.0867279735347524,23.622048,23.622048,54.026183815452,77.648231815452,20.341208,0,2.57617134228,6.2592521688,27,5,16.41,77.976315815452,23.950132,2.23694,2.88220481664,0,0,0,273, 7.3, 3.4,0,0,1024,1024,1024,883,0,0,0,-21,261.2,0,0,86,4.095,4.106,4.103,4.105,0,0,7.591,83.48,77.648231815452,23.622048,6,P-GPS,
10600,2023-05-26 16:32:02,52.2064040362196,0.0867280038493514,23.622048,23.622048,54.026183815452,77.648231815452,20.669292,0.223694,2.5773622872,6.3094162124,27,5,16.41,77.976315815452,23.950132,2.23694,2.88220481664,0.223694,0,0,260.6, 6.9, 2.6,0,0,1024,1024,1024,1684,0,0,0,100,250.6,0,0,86,4.095,4.106,4.103,4.105,0,0,7.591,83.48,77.648231815452,23.622048,6,P-GPS,
10800,2023-05-26 16:32:02,52.2064042925785,0.0867279923861413,23.293964,23.293964,54.026183815452,77.320147815452,20.669292,0.223694,2.59725073928,6.4029857692,27,5,16.41,77.976315815452,23.950132,2.23694,2.88220481664,0.223694,0,0,252.2, 6.2, 0.3,0,0,1024,1024,1024,1684,0,0,0,100,251.1,0,0,86,4.095,4.106,4.103,4.105,0,0,7.591,83.48,77.320147815452,23.293964,6,P-GPS,
11000,2023-05-26 16:32:03,52.2064045528512,0.0867279407684943,23.293964,23.2611556,54.058992215452,77.320147815452,20.341208,0.223694,2.62939312876,6.4986550636,27,5,16.41,77.976315815452,23.950132,2.23694,2.88220481664,0.223694,0,0,257.4, 6.4, -1.1,0,0,1024,1024,1024,1684,0,0,0,100,262.2,0,0,86,4.104,4.117,4.109,4.107,0,0,7.297,83.48,77.320147815452,23.293964,6,P-GPS,
11200,2023-05-26 16:32:03,52.2064047229678,0.0867279339866774,23.293964,23.2611556,54.058992215452,77.320147815452,20.341208,0,2.64623039964,6.5607285564,27,5,16.41,77.976315815452,23.950132,2.23694,2.88220481664,0,0,0,269.9, 7, -0.7,0,0,1024,1024,1024,1684,0,0,0,100,274.2,0,0,86,4.104,4.117,4.109,4.107,0,0,7.297,83.48,77.320147815452,23.293964,6,P-GPS,
11400,2023-05-26 16:32:03,52.2064047341414,0.0867279594189275,23.293964,23.2611556,54.058992215452,77.320147815452,20.669292,0,2.6417979848,6.5677167456,27,5,16.41,77.976315815452,23.950132,2.23694,2.88220481664,0,0,0,281.8, 7.8, 0.2,0,0,1024,1024,1019,1684,0,0,-1,100,286.2,0,0,86,4.104,4.117,4.109,4.107,0,0,7.297,83.48,77.320147815452,23.293964,6,P-GPS,
11600,2023-05-26 16:32:03,52.2064045828811,0.086728022842283,23.293964,23.2611556,54.058992215452,77.320147815452,20.669292,0.223694,2.61419627788,6.6247049364,27,5,16.41,77.976315815452,23.950132,2.23694,2.88220481664,-0.223694,0,0,293.9, 6.5, 1.8,0,0,1024,1024,1017,1684,0,0,-1,100,298.2,0,0,86,4.104,4.117,4.109,4.107,0,0,7.297,83.48,77.320147815452,23.293964,6,P-GPS,
11800,2023-05-26 16:32:03,52.2064042745802,0.0867281135117318,23.293964,23.293964,54.026183815452,77.320147815452,20.669292,0.223694,2.56939968852,6.739009402,27,5,16.41,77.976315815452,23.950132,2.23694,2.88220481664,-0.223694,0,0,306.1, 5.1, 3.7,0,0,1024,1024,999,1684,0,0,-4,100,310.2,0,0,86,4.104,4.117,4.109,4.107,0,0,7.297,83.48,77.320147815452,23.293964,6,P-GPS,
12000,2023-05-26 16:32:04,52.2064038697947,0.0867281333923632,23.293964,23.293964,54.026183815452,77.320147815452,20.669292,0.447388,2.5391897138,6.8867456272,27,5,16.416,77.976315815452,23.950132,2.23694,2.88220481664,-0.447388,0,0,317.9, 2.2, 5,0,0,1024,1024,987,1684,0,0,-6,100,322.2,0,0,86,4.096,4.106,4.104,4.107,0,0,7.215,83.48,77.320147815452,23.293964,6,P-GPS,
12200,2023-05-26 16:32:04,52.2064035221311,0.0867280419418084,23.293964,23.293964,54.026183815452,77.320147815452,20.669292,0.223694,2.5440289528,7.0152233216,27,5,16.416,77.976315815452,23.950132,2.23694,2.88220481664,-0.223694,0,0,330, 1.2, 6.5,0,0,1024,1024,979,1684,0,0,-7,100,334.2,0,0,86,4.096,4.106,4.104,4.107,0,0,7.215,83.48,77.320147815452,23.293964,6,P-GPS,
12400,2023-05-26 16:32:04,52.2064032816107,0.086727846642608,23.293964,23.293964,54.026183815452,77.320147815452,20.669292,0.223694,2.58062344216,7.1132548208,27,5,16.416,77.976315815452,23.950132,2.23694,2.88220481664,-0.223694,0,0,342.3, 1.1, 6.4,0,0,1024,1024,975,1684,0,0,-7,100,346.2,0,0,86,4.096,4.106,4.104,4.107,0,0,7.215,83.48,77.320147815452,23.293964,6,P-GPS,
12600,2023-05-26 16:32:04,52.2064030779603,0.0867276254917718,23.293964,23.293964,54.026183815452,77.320147815452,20.669292,0.223694,2.62655192132,7.2024936688,27,5,16.416,77.976315815452,23.950132,2.23694,2.88220481664,-0.223694,0,0,353.9, -0.2, 6.4,0,0,1024,1024,1024,825,0,0,0,-30,358.2,0,0,86,4.096,4.106,4.104,4.107,0,0,7.215,83.48,77.320147815452,23.293964,6,P-GPS,
12800,2023-05-26 16:32:04,52.2064029306416,0.0867273480086939,23.293964,23.293964,54.026183815452,77.320147815452,20.669292,0.223694,2.687418065,7.2845802856,27,5,16.416,77.976315815452,23.950132,2.23694,2.88220481664,0,-0.223694,0,5.2, -1.8, 6.4,0,0,1535,1053,1024,1171,77,4,0,22,5.5,0,0,86,4.096,4.106,4.104,4.107,0,0,7.215,83.48,77.320147815452,23.293964,6,P-GPS,
13000,2023-05-26 16:32:05,52.2064028581995,0.086727025155069,23.293964,23.293964,54.026183815452,77.320147815452,20.341208,0.223694,2.75943578384,7.3614503668,27,5,16.394,77.976315815452,23.950132,2.23694,2.88220481664,0,-0.223694,0,10.1, -0.9, 4.5,0,0,1660,1114,1024,940,96,14,0,-13,5.9,0,0,86,4.094,4.104,4.102,4.103,0,0,7.385,83.66,77.320147815452,23.293964,6,P-GPS,
13200,2023-05-26 16:32:05,52.2064028698514,0.0867265435447209,23.293964,23.293964,54.026183815452,77.320147815452,20.669292,0.447388,2.867126076,7.4692259608,27,5,16.394,77.976315815452,23.950132,2.23694,2.88220481664,0,-0.447388,0,9.1, -7, 3.8,0,0,1519,1024,1024,1024,75,0,0,0,6,0,0,86,4.094,4.104,4.102,4.103,0,0,7.385,83.66,77.320147815452,23.293964,6,P-GPS,
13400,2023-05-26 16:32:05,52.2064032175169,0.0867258527954431,23.293964,23.293964,54.026183815452,77.320147815452,20.669292,0.6263432,3.02457030676,7.6690947336,26,5,16.394,77.976315815452,23.950132,2.23694,3.02457030676,0.447388,-0.447388,0,8.9, -7.6, 5.9,0,0,1533,1024,1024,1024,77,0,0,0,6,0,0,86,4.094,4.104,4.102,4.103,0,0,7.385,83.66,77.320147815452,23.293964,6,P-GPS,
13600,2023-05-26 16:32:05,52.2064039579833,0.0867251434673771,23.293964,23.293964,54.026183815452,77.320147815452,20.669292,1.2079476,3.20585968264,7.9823493368,26,5,16.394,77.976315815452,23.950132,2.23694,3.20585968264,1.11847,-0.447388,0,9.1, -8.5, 6.2,0,0,1575,1057,1024,1024,83,5,0,0,6,0,0,86,4.094,4.104,4.102,4.103,0,0,7.385,83.66,77.320147815452,23.293964,6,P-GPS,
13800,2023-05-26 16:32:05,52.2064051869207,0.0867244791411482,23.293964,23.2611556,54.058992215452,77.320147815452,20.669292,1.8342908,3.4363846244,8.4546918716,26,5,16.394,77.976315815452,23.950132,2.23694,3.4363846244,1.789552,-0.447388,0,9.1, -11, 7.2,0,0,1579,1065,1024,1024,84,6,0,0,6,0,0,86,4.094,4.104,4.102,4.103,0,0,7.385,83.66,77.320147815452,23.293964,6,P-GPS,
14000,2023-05-26 16:32:06,52.206406954011,0.0867239396695479,23.293964,23.2283472,54.091800615452,77.320147815452,20.669292,2.460634,3.76066285,9.1105974044,26,5,16.374,77.976315815452,23.950132,2.460634,3.76066285,2.460634,-0.223694,0,8.7, -13, 7.2,0,0,1573,1056,1024,1024,83,5,0,0,6,0,0,86,4.088,4.097,4.094,4.1,0,0,7.577,83.66,77.320147815452,23.293964,6,P-GPS,
14200,2023-05-26 16:32:06,52.2064093588341,0.0867235907877958,23.293964,23.2283472,54.091800615452,77.320147815452,20.669292,3.35541,4.2527232332,9.991470136,26,5,16.374,77.976315815452,23.950132,3.35541,4.2527232332,3.35541,0,0,8.9, -14.7, 7.7,0,0,1573,1047,1024,1024,83,3,0,0,6,0,0,86,4.088,4.097,4.094,4.1,0,0,7.577,83.66,77.320147815452,23.293964,6,P-GPS,
14400,2023-05-26 16:32:06,52.2064124406996,0.0867235238520847,23.293964,23.1955388,54.124609015452,77.320147815452,20.669292,4.250186,4.9797901856,11.115978046,26,5,16.374,77.976315815452,23.950132,4.250186,4.9797901856,4.250186,0,0,8.5, -17, 6.6,0,0,1572,1053,1024,1024,83,4,0,0,6,0,0,86,4.088,4.097,4.094,4.1,0,0,7.577,83.66,77.320147815452,23.293964,6,P-GPS,
14600,2023-05-26 16:32:06,52.2064162940281,0.086723778081971,23.293964,23.129922,54.190225815452,77.320147815452,20.669292,5.144962,6.018044812,12.5229990884,26,5,16.374,77.976315815452,23.950132,5.144962,6.018044812,5.144962,0.223694,0,9.1, -18.9, 6.2,0,0,1571,1044,1024,1024,83,3,0,0,6,0,0,86,4.088,4.097,4.094,4.1,0,0,7.577,83.66,77.320147815452,23.293964,6,P-GPS,
14800,2023-05-26 16:32:06,52.2064210122915,0.086724451550809,23.293964,23.0643052,54.255842615452,77.320147815452,20.669292,6.3081708,7.4191603424,14.2510503248,27,5,16.374,77.976315815452,23.950132,6.3081708,7.4191603424,6.263432,0.671082,0,9.2, -15.8, 5.7,0,0,1568,1045,1024,1024,82,3,0,0,6,0,0,86,4.088,4.097,4.094,4.1,0,0,7.577,83.66,77.320147815452,23.293964,6,P-GPS,
15000,2023-05-26 16:32:07,52.2064264006161,0.0867254944250887,23.293964,23.0314968,54.288651015452,77.320147815452,20.997376,7.0016222,9.135991106,16.2307419892,27,5,16.348,77.976315815452,23.950132,7.0016222,9.135991106,6.934514,0.894776,0,9.2, -14.8, 4.5,0,0,1553,1040,1024,1024,80,2,0,0,6,0,0,86,4.076,4.088,4.082,4.082,0,0,7.808,83.66,77.320147815452,23.293964,6,P-GPS,
15200,2023-05-26 16:32:07,52.2064324060745,0.0867267259880011,23.293964,22.9330716,54.387076215452,77.320147815452,20.997376,7.8740288,11.1486552124,18.4390753932,27,5,16.348,77.976315815452,23.950132,7.8740288,11.1486552124,7.82929,0.894776,0,8.7, -12.9, 3.7,0,0,1551,1037,1024,1024,80,2,0,0,6,0,0,86,4.076,4.088,4.082,4.082,0,0,7.808,83.66,77.320147815452,23.293964,6,P-GPS,
15400,2023-05-26 16:32:07,52.2064389741007,0.0867279105762161,23.293964,22.8674548,54.452693015452,77.320147815452,20.997376,8.5451108,13.4273626344,20.8500006672,27,5,16.348,77.976315815452,23.950132,8.5451108,13.4273626344,8.500372,0.894776,0,9, -10.5, 5.1,0,0,1546,1035,1024,1024,79,2,0,0,6,0,0,86,4.076,4.088,4.082,4.082,0,0,7.808,83.66,77.320147815452,23.293964,6,P-GPS,
15600,2023-05-26 16:32:07,52.2064458911109,0.0867291193193021,22.96588,22.4409456,54.551118215452,76.992063815452,20.997376,8.7911742,15.8707026076,23.3880912996,27,5,16.348,77.976315815452,23.950132,8.7911742,15.8707026076,8.724066,1.11847,0,9.3, -9.2, 5.4,0,0,1542,1034,1024,1024,78,2,0,0,6,0,0,86,4.076,4.088,4.082,4.082,0,0,7.808,83.66,76.992063815452,22.96588,6,P-GPS,
15800,2023-05-26 16:32:07,52.2064530988886,0.0867305016059535,22.96588,22.3753288,54.616735015452,76.992063815452,20.669292,9.2385622,18.4410438972,26.0359588384,27,5,16.348,77.976315815452,23.950132,9.2385622,18.4410438972,9.171454,1.11847,0,9.5, -9.5, 4.2,0,0,1538,1031,1024,1024,78,1,0,0,6,0,0,86,4.076,4.088,4.082,4.082,0,0,7.808,83.66,76.992063815452,22.96588,6,P-GPS,
16000,2023-05-26 16:32:08,52.206460598087,0.0867319898189573,22.96588,22.2769036,54.715160215452,76.992063815452,20.669292,9.4846256,21.1347447708,28.7921925224,27,5,16.389,77.976315815452,23.950132,9.4846256,21.1347447708,9.395148,1.342164,0,9.4, -8.8, 4.6,0,0,1519,1024,1024,1024,75,0,0,0,6,0,0,86,4.087,4.099,4.096,4.102,0,0,7.449,83.66,76.992063815452,22.96588,6,P-GPS,
16200,2023-05-26 16:32:08,52.2064682913774,0.0867335387799851,22.637796,21.8832028,54.780777015452,76.663979815452,20.669292,9.9320136,23.9126976156,31.6203750276,27,5,16.389,77.976315815452,23.950132,9.9320136,23.9126976156,9.842536,1.342164,0,9.4, -8.5, 3.9,0,0,1497,1024,1024,1024,72,0,0,0,6,0,0,86,4.087,4.099,4.096,4.102,0,0,7.449,83.66,76.663979815452,22.637796,6,P-GPS,
16400,2023-05-26 16:32:08,52.2064761990506,0.0867350755700894,22.637796,21.7847776,54.879202215452,76.663979815452,20.341208,10.1557076,26.7794627992,34.52591974,27,5,16.389,77.976315815452,23.950132,10.1557076,26.7794627992,10.06623,1.342164,0,9.4, -8, 3.6,0,0,1141,1024,1024,1024,18,0,0,0,6,0,0,86,4.087,4.099,4.096,4.102,0,0,7.449,83.66,76.663979815452,22.637796,6,P-GPS,
16600,2023-05-26 16:32:08,52.2064843093099,0.0867366297681966,22.637796,21.6863524,54.977627415452,76.663979815452,20.341208,10.401771,29.7275928148,37.505250544,27,5,16.389,77.976315815452,23.950132,10.401771,29.7275928148,10.289924,1.565858,0,10, -3.5, 3.5,0,0,1024,1024,1024,1024,0,0,0,0,6,0,0,86,4.087,4.099,4.096,4.102,0,0,7.449,83.66,76.663979815452,22.637796,6,P-GPS,
16800,2023-05-26 16:32:08,52.2064923569493,0.0867382866100892,22.309712,21.2598432,55.076052615452,76.335895815452,20.669292,9.9767524,32.6583671868,40.464568224,27,5,16.389,77.976315815452,23.950132,10.401771,32.6583671868,9.842536,1.565858,0,10.1, 14.6, 2.7,0,0,1024,1024,1024,1024,0,0,0,0,6,0,0,86,4.087,4.099,4.096,4.102,0,0,7.449,83.66,76.335895815452,22.309712,6,P-GPS,
17000,2023-05-26 16:32:09,52.2064994634189,0.0867397171431378,22.309712,21.161418,55.174477815452,76.335895815452,20.669292,7.941137,35.250329212,43.077101116,27,5,16.4,77.976315815452,23.950132,10.401771,35.250329212,7.82929,1.342164,0,10.3, 29.2, 2.1,0,0,1024,1024,1024,1024,0,0,0,0,6,0,0,86,4.097,4.106,4.104,4.105,0,0,6.922,83.66,76.335895815452,22.309712,6,P-GPS,
17200,2023-05-26 16:32:09,52.2065046138307,0.086740523058797,21.981628,20.7677172,55.240094615452,76.007811815452,20.341208,5.4133948,37.130250532,44.964896452,27,5,16.4,77.976315815452,23.950132,10.401771,37.130250532,5.368656,0.671082,0.223694,10.9, 29.1, 3.7,0,0,1024,1024,1024,1024,0,0,0,0,6,0,0,86,4.097,4.106,4.104,4.105,0,0,6.922,83.66,76.007811815452,21.981628,6,P-GPS,
17400,2023-05-26 16:32:09,52.2065077878211,0.0867407289501084,21.981628,20.7349088,55.272903015452,76.007811815452,20.013124,2.9527608,38.288715136,46.12368914,27,5,16.4,77.976315815452,23.950132,10.401771,38.288715136,2.908022,0.447388,0.223694,11.2, 25.6, 5.6,0,0,1024,1031,1024,1024,0,1,0,0,6,0,0,86,4.097,4.106,4.104,4.105,0,0,6.922,83.66,76.007811815452,21.981628,6,P-GPS,
17600,2023-05-26 16:32:09,52.2065091359107,0.086740557037342,21.981628,20.7349088,55.272903015452,76.007811815452,20.013124,1.1408394,38.780184968,46.617127476,27,5,16.4,77.976315815452,23.950132,10.401771,38.780184968,1.11847,0.223694,0,10.1, 12.1, 5.1,0,0,1024,1024,1024,1024,0,0,0,0,6,0,0,86,4.097,4.106,4.104,4.105,0,0,6.922,83.66,76.007811815452,21.981628,6,P-GPS,
17800,2023-05-26 16:32:09,52.2065094306211,0.0867402415347628,21.981628,20.7349088,55.272903015452,76.007811815452,20.013124,0.223694,38.887140352,46.745736404,27,5,16.4,77.976315815452,23.950132,10.401771,38.887140352,0.223694,0,0,9.4, 3.8, 4.3,0,0,1024,1024,1024,1442,0,0,0,63,6,0,0,86,4.097,4.106,4.104,4.105,0,0,6.922,83.66,76.007811815452,21.981628,6,P-GPS,
18000,2023-05-26 16:32:10,52.206509337593,0.0867397894164061,21.981628,20.7349088,55.272903015452,76.007811815452,20.341208,0,38.853019616,46.852363704,27,5,16.386,77.976315815452,23.950132,10.401771,38.887140352,0,0,0,10.3, 0.3, 5.5,0,0,1024,1024,1024,1485,0,0,0,70,6.9,0,0,86,4.078,4.091,4.081,4.085,0,0,7.111,83.84,76.007811815452,21.981628,6,P-GPS,
18200,2023-05-26 16:32:10,52.2065090991758,0.0867395165277863,21.981628,20.7349088,55.272903015452,76.007811815452,20.341208,0,38.765749272,46.95866292,27,5,16.386,77.976315815452,23.950132,10.401771,38.887140352,0,0,0,11.4, -2.7, 4.2,0,0,1024,1024,1024,1024,0,0,0,0,11,0,0,86,4.078,4.091,4.081,4.085,0,0,7.111,83.84,76.007811815452,21.981628,6,P-GPS,
18400,2023-05-26 16:32:10,52.2065088761876,0.0867393866453342,21.981628,20.7349088,55.272903015452,76.007811815452,20.341208,0.223694,38.68438444,47.044949012,27,5,16.386,77.976315815452,23.950132,10.401771,38.887140352,0,0.223694,0,15.7, -2.6, 4,0,0,1024,1024,1024,1024,0,0,0,0,13.7,0,0,86,4.078,4.091,4.081,4.085,0,0,7.111,83.84,76.007811815452,21.981628,6,P-GPS,
18600,2023-05-26 16:32:10,52.2065087334714,0.0867394237697091,21.981628,20.7349088,55.272903015452,76.007811815452,20.669292,0.223694,38.632547168,47.097770536,27,5,16.386,77.976315815452,23.950132,10.401771,38.887140352,0,0.223694,0,17.4, -2.1, 3.5,0,0,900,1684,1024,1024,-19,100,0,0,13.9,0,0,86,4.078,4.091,4.081,4.085,0,0,7.111,83.84,76.007811815452,21.981628,6,P-GPS,
18800,2023-05-26 16:32:10,52.2065086164559,0.0867396031912277,22.309712,21.0629928,55.272903015452,76.335895815452,20.669292,0.223694,38.589896248,47.156497572,27,5,16.386,77.976315815452,23.950132,10.401771,38.887140352,0,0.223694,0,16.8, 1.7, 13.7,0,0,885,1684,1024,1024,-21,100,0,0,13.9,0,0,86,4.078,4.091,4.081,4.085,0,0,7.111,83.84,76.335895815452,22.309712,6,P-GPS,
19000,2023-05-26 16:32:11,52.2065081863625,0.0867406264579135,22.309712,21.0629928,55.272903015452,76.335895815452,20.669292,1.6329662,38.433728264,47.433728552,27,5,16.372,77.976315815452,23.950132,10.401771,38.887140352,-0.447388,1.565858,0,16.3, 1.4, 27,0,0,875,1684,1024,1024,-23,100,0,0,13.9,0,0,85,4.08,4.09,4.072,4.096,0,0,7.845,83.84,76.335895815452,22.309712,6,P-GPS,
19200,2023-05-26 16:32:11,52.2065071754238,0.0867439306085367,22.309712,21.0629928,55.272903015452,76.335895815452,20.341208,3.6238428,38.077757124,48.25951598,26,5,16.372,77.976315815452,23.950132,10.401771,38.887140352,-1.342164,3.35541,0,15.9, 1.8, 28.6,0,0,910,1684,1024,1024,-17,100,0,0,13.9,0,0,85,4.08,4.09,4.072,4.096,0,0,7.845,83.84,76.335895815452,22.309712,6,P-GPS,
19400,2023-05-26 16:32:11,52.2065055013802,0.0867498738382705,22.309712,21.0958012,55.240094615452,76.335895815452,20.341208,5.816044,37.526904088,49.722114452,26,5,16.372,77.976315815452,23.950132,10.401771,38.887140352,-2.23694,5.368656,0,15.5, 0.3, 28.8,0,0,913,1684,1024,1024,-17,100,0,0,13.9,0,0,85,4.08,4.09,4.072,4.096,0,0,7.845,83.84,76.335895815452,22.309712,6,P-GPS,
19600,2023-05-26 16:32:11,52.2065032436213,0.0867582897326704,22.309712,21.1286096,55.207286215452,76.335895815452,20.013124,7.717443,36.873032676,51.775920292,26,5,16.372,77.976315815452,23.950132,10.401771,38.887140352,-2.908022,7.158208,0,15.4, -1, 29.4,0,0,1024,1202,1024,1024,0,27,0,0,13.9,0,0,85,4.08,4.09,4.072,4.096,0,0,7.845,83.84,76.335895815452,22.309712,6,P-GPS,
19800,2023-05-26 16:32:11,52.2065004876364,0.0867691522933156,22.309712,21.161418,55.174477815452,76.335895815452,20.013124,9.5517338,36.241142892,54.4045293,26,5,16.372,77.976315815452,23.950132,10.401771,38.887140352,-3.35541,8.94776,0,15.3, -2.6, 27.1,0,0,1024,867,1024,1024,0,-24,0,0,13.9,0,0,85,4.08,4.09,4.072,4.096,0,0,7.845,83.84,76.335895815452,22.309712,6,P-GPS,
20000,2023-05-26 16:32:12,52.2064974881455,0.0867820856549135,22.637796,21.5223104,55.141669415452,76.663979815452,20.013124,10.401771,35.826116632,57.496392916,26,5,16.289,77.976315815452,23.950132,10.401771,38.887140352,-3.35541,9.842536,0,19.4, -5.7, -5.6,0,0,1024,1069,987,364,0,7,-6,-100,13.9,0,0,85,4.066,4.077,4.073,4.078,0,0,8.18,83.84,76.663979815452,22.637796,6,P-GPS,
20200,2023-05-26 16:32:12,52.206494964778,0.0867942926631319,22.637796,21.5551188,55.108861015452,76.663979815452,20.341208,8.6345884,35.78248146,60.376970436,26,5,16.289,77.976315815452,23.950132,10.401771,38.887140352,-2.460634,8.276678,0,18.1, -3, -27.8,0,0,1024,1024,999,364,0,0,-4,-100,11.6,0,0,85,4.066,4.077,4.073,4.078,0,0,8.18,83.84,76.663979815452,22.637796,6,P-GPS,
20400,2023-05-26 16:32:12,52.2064934216026,0.0868035566144678,22.637796,21.5879272,55.076052615452,76.663979815452,20.341208,5.6594582,36.027888292,62.523295964,27,5,16.289,77.976315815452,23.950132,10.401771,38.887140352,-0.894776,5.59235,0,17, -9.6, -39.5,0,0,1024,1024,1003,364,0,0,-3,-100,0.8,0,0,85,4.066,4.077,4.073,4.078,0,0,8.18,83.84,76.663979815452,22.637796,6,P-GPS,
20600,2023-05-26 16:32:12,52.2064932537425,0.086808476176915,22.637796,21.5879272,55.076052615452,76.663979815452,20.341208,2.0356154,36.424541848,63.625002036,27,5,16.289,77.976315815452,23.950132,10.401771,38.887140352,0.223694,2.013246,0,3.7, -4.2, -25.1,0,0,1024,1024,1007,364,0,0,-3,-100,349,0,0,85,4.066,4.077,4.073,4.078,0,0,8.18,83.84,76.663979815452,22.637796,6,P-GPS,
20800,2023-05-26 16:32:12,52.2064936743608,0.0868099623192018,22.637796,21.5551188,55.108861015452,76.663979815452,20.013124,0.4921268,36.705381752,63.99114378,27,5,16.289,77.976315815452,23.950132,10.401771,38.887140352,0.223694,0.447388,0.223694,347.2, -0.2, -6.2,0,0,1024,1024,999,565,0,0,-4,-70,336.9,0,0,85,4.066,4.077,4.073,4.078,0,0,8.18,83.84,76.663979815452,22.637796,6,P-GPS,
21000,2023-05-26 16:32:13,52.2064940284999,0.0868101476108101,22.637796,21.5551188,55.108861015452,76.663979815452,20.341208,0.223694,36.839896192,64.126642472,27,5,16.383,77.976315815452,23.950132,10.401771,38.887140352,0.223694,0,0,335.9, 0.1, 3.3,0,0,1024,1024,1024,1024,0,0,0,0,328.8,0,0,85,4.057,4.07,4.079,4.089,0,0,7.788,84.02,76.663979815452,22.637796,6,P-GPS,
21200,2023-05-26 16:32:13,52.2064943477631,0.0868099726151216,22.637796,21.5551188,55.108861015452,76.663979815452,20.669292,0.223694,36.928150788,64.249673972,27,5,16.383,77.976315815452,23.950132,10.401771,38.887140352,0.223694,0,0,330.7, 1.3, 4.6,0,0,1024,1024,1024,1024,0,0,0,0,328.2,0,0,85,4.057,4.07,4.079,4.089,0,0,7.788,84.02,76.663979815452,22.637796,6,P-GPS,
21400,2023-05-26 16:32:13,52.2064946967535,0.0868096940031972,22.637796,21.5551188,55.108861015452,76.663979815452,20.669292,0.223694,37.016733468,64.39140626,27,5,16.383,77.976315815452,23.950132,10.401771,38.887140352,0.223694,0,0,332, 2.8, 5.2,0,0,1024,1024,1024,364,0,0,0,-100,328.2,0,0,85,4.057,4.07,4.079,4.089,0,0,7.788,84.02,76.663979815452,22.637796,6,P-GPS,
21600,2023-05-26 16:32:13,52.2064949698068,0.0868094297692137,22.637796,21.5551188,55.108861015452,76.663979815452,20.997376,0,37.082022184,64.507219912,27,5,16.383,77.976315815452,23.950132,10.401771,38.887140352,0,0,0,332.2, 4.1, 4.8,0,0,1024,1024,1024,364,0,0,0,-100,325.2,0,0,85,4.057,4.07,4.079,4.089,0,0,7.788,84.02,76.663979815452,22.637796,6,P-GPS,
21800,2023-05-26 16:32:13,52.2064951094903,0.0868092879189779,22.309712,21.2270348,55.108861015452,76.335895815452,20.997376,0,37.114830584,64.567259284,27,5,16.383,77.976315815452,23.950132,10.401771,38.887140352,0,0,0,326.5, 3.4, 4.1,0,0,1024,1024,1024,1024,0,0,0,0,314.1,0,0,85,4.057,4.07,4.079,4.089,0,0,7.788,84.02,76.335895815452,22.309712,6,P-GPS,
22000,2023-05-26 16:32:14,52.2064951867125,0.0868092805447787,22.309712,21.2270348,55.108861015452,76.335895815452,20.997376,0,37.139764968,64.595474508,27,5,16.383,77.976315815452,23.950132,10.401771,38.887140352,0,0,0,313.6, 1.9, 3.1,0,0,1024,1024,1024,1024,0,0,0,0,307.7,0,0,85,4.078,4.09,4.086,4.091,0,0,7.788,84.02,76.335895815452,22.309712,6,P-GPS,
22200,2023-05-26 16:32:14,52.2064952732383,0.0868093721665827,22.309712,21.2270348,55.108861015452,76.335895815452,20.997376,0,37.177166544,64.633204168,27,5,16.383,77.976315815452,23.950132,10.401771,38.887140352,0,0,0,310.3, 2, 1.9,0,0,1024,1024,1024,1024,0,0,0,0,307.5,0,0,85,4.078,4.09,4.086,4.091,0,0,7.788,84.02,76.335895815452,22.309712,6,P-GPS,
22400,2023-05-26 16:32:14,52.2064953093393,0.0868094600558536,22.309712,21.2270348,55.108861015452,76.335895815452,20.997376,0,37.197179668,64.656826216,27,5,16.383,77.976315815452,23.950132,10.401771,38.887140352,0,0,0,311.2, 3.3, 0,0,0,1024,1024,1024,1024,0,0,0,0,307.5,0,0,85,4.078,4.09,4.086,4.091,0,0,7.788,84.02,76.335895815452,22.309712,6,P-GPS,
22600,2023-05-26 16:32:14,52.206495174813,0.0868094813536593,22.309712,21.2270348,55.108861015452,76.335895815452,20.997376,0,37.154856832,64.706038816,27,5,16.383,77.976315815452,23.950132,10.401771,38.887140352,0,0,0,310.7, 1.4, 1.4,0,0,1024,1024,1024,1024,0,0,0,0,307.5,0,0,85,4.078,4.09,4.086,4.091,0,0,7.788,84.02,76.335895815452,22.309712,6,P-GPS,
22800,2023-05-26 16:32:14,52.2064949671767,0.0868094038511751,22.309712,21.2270348,55.108861015452,76.335895815452,21.32546,0,37.078741344,64.783794724,27,5,16.383,77.976315815452,23.950132,10.401771,38.887140352,0,0,0,310.9, 2, 2.4,0,0,1024,1024,1024,1024,0,0,0,0,307.5,0,0,85,4.078,4.09,4.086,4.091,0,0,7.788,84.02,76.335895815452,22.309712,6,P-GPS,
23000,2023-05-26 16:32:15,52.2064947432547,0.0868092812157959,22.309712,21.2270348,55.108861015452,76.335895815452,20.997376,0.223694,36.99311142,64.870080816,27,5,16.338,77.976315815452,23.950132,10.401771,38.887140352,-0.223694,0,0,310.8, 1.4, 3.2,0,0,1024,1024,1024,1024,0,0,0,0,307.5,0,0,85,4.08,4.089,4.088,4.091,0,0,8.338,84.02,76.335895815452,22.309712,6,P-GPS,
23200,2023-05-26 16:32:15,52.206494503561,0.0868091145588939,21.981628,20.8989508,55.108861015452,76.007811815452,20.997376,0,36.89796706,64.964897092,27,5,16.338,77.976315815452,23.950132,10.401771,38.887140352,0,0,0,310.7, 1.7, 4.1,0,0,1024,1024,1024,1024,0,0,0,0,307.5,0,0,85,4.08,4.089,4.088,4.091,0,0,8.338,84.02,76.007811815452,21.981628,6,P-GPS,
23400,2023-05-26 16:32:15,52.2064943783984,0.086808993265549,21.981628,20.8989508,55.108861015452,76.007811815452,20.997376,0,36.845145536,65.0180467,27,5,16.338,77.976315815452,23.950132,10.401771,38.887140352,0,0,0,311.1, 3.5, 3.4,0,0,1024,1024,1024,1024,0,0,0,0,307.5,0,0,85,4.08,4.089,4.088,4.091,0,0,8.338,84.02,76.007811815452,21.981628,6,P-GPS,
23600,2023-05-26 16:32:15,52.2064942768376,0.0868088790598231,21.981628,20.8989508,55.108861015452,76.007811815452,20.997376,0,36.800854196,65.062994208,27,5,16.338,77.976315815452,23.950132,10.401771,38.887140352,0,0,0,311.3, 3.7, 3.4,0,0,1024,1024,1024,1024,0,0,0,0,307.5,0,0,85,4.08,4.089,4.088,4.091,0,0,8.338,84.02,76.007811815452,21.981628,6,P-GPS,
23800,2023-05-26 16:32:15,52.2064940999309,0.0868088358211537,21.981628,20.8989508,55.108861015452,76.007811815452,20.997376,0,36.738190152,65.128282924,27,5,16.338,77.976315815452,23.950132,10.401771,38.887140352,0,0,0,311.3, 3.1, 3.5,0,0,1024,1024,1024,1024,0,0,0,0,307.5,0,0,85,4.08,4.089,4.088,4.091,0,0,8.338,84.02,76.007811815452,21.981628,6,P-GPS,
24000,2023-05-26 16:32:16,52.2064938857923,0.0868088912010402,21.981628,20.8989508,55.108861015452,76.007811815452,20.997376,0,36.672901436,65.207351168,27,5,16.35,77.976315815452,23.950132,10.401771,38.887140352,0,0,0,310.7, 1.6, 3.9,0,0,1081,1024,1024,1024,9,0,0,0,307.5,0,0,85,4.077,4.087,4.084,4.09,0,0,7.145,84.02,76.007811815452,21.981628,6,P-GPS,
24200,2023-05-26 16:32:16,52.2064936850695,0.0868090125922417,21.981628,20.8989508,55.108861015452,76.007811815452,20.669292,0,36.618111408,65.28543516,27,5,16.35,77.976315815452,23.950132,10.401771,38.887140352,0,0,0,310.7, -1.4, 0.6,0,0,1357,1024,1024,1024,50,0,0,0,307.5,0,0,85,4.077,4.087,4.084,4.09,0,0,7.145,84.02,76.007811815452,21.981628,6,P-GPS,
24400,2023-05-26 16:32:16,52.2064935417022,0.0868089220957895,21.981628,20.8989508,55.108861015452,76.007811815452,20.669292,0.223694,36.562009044,65.341537524,27,5,16.35,77.976315815452,23.950132,10.401771,38.887140352,0,-0.223694,0,310.2, -3.7, 1,0,0,1288,1024,1024,1024,40,0,0,0,307.5,0,0,85,4.077,4.087,4.084,4.09,0,0,7.145,84.02,76.007811815452,21.981628,6,P-GPS,
24600,2023-05-26 16:32:16,52.2064935126003,0.0868082242099644,21.653544,20.5708668,55.108861015452,75.679727815452,20.669292,0.671082,36.48622164,65.498033592,27,5,16.35,77.976315815452,23.950132,10.401771,38.887140352,0,-0.671082,0,310.3, -4.6, 2.8,0,0,1024,1024,1024,1024,0,0,0,0,307.5,0,0,85,4.077,4.087,4.084,4.09,0,0,7.145,84.02,75.679727815452,21.653544,6,P-GPS,
24800,2023-05-26 16:32:16,52.2064936787642,0.0868069703794167,21.653544,20.5708668,55.108861015452,75.679727815452,20.341208,1.1408394,36.424213764,65.784779008,27,5,16.35,77.976315815452,23.950132,10.401771,38.887140352,0.223694,-1.11847,-0.223694,309.9, -1.2, 3,0,0,1024,1024,1024,1024,0,0,0,0,307.5,0,0,85,4.077,4.087,4.084,4.09,0,0,7.145,84.02,75.679727815452,21.653544,6,P-GPS,
25000,2023-05-26 16:32:17,52.2064939882697,0.0868053967532653,21.653544,20.5708668,55.108861015452,75.679727815452,20.341208,1.1408394,36.382547096,66.154529676,27,5,16.345,77.976315815452,23.950132,10.401771,38.887140352,0.223694,-1.11847,0,310.5, 10.9, 5.8,0,0,1024,1024,1024,1024,0,0,0,0,307.5,0,0,85,4.074,4.085,4.083,4.085,0,0,7.232,84.02,75.679727815452,21.653544,6,P-GPS,
25200,2023-05-26 16:32:17,52.2064941388846,0.0868043445074618,21.653544,20.5708668,55.108861015452,75.679727815452,20.341208,0.447388,36.338255756,66.3959995,27,5,16.345,77.976315815452,23.950132,10.401771,38.887140352,0,-0.447388,0,310.2, 10.4, 5,0,0,1180,1024,1024,1024,24,0,0,0,307.5,0,0,85,4.074,4.085,4.083,4.085,0,0,7.232,84.02,75.679727815452,21.653544,6,P-GPS,
25400,2023-05-26 16:32:17,52.2064940119144,0.0868038857728583,21.653544,20.5708668,55.108861015452,75.679727815452,20.341208,0,36.25492242,66.508532312,27,5,16.345,77.976315815452,23.950132,10.401771,38.887140352,0,0,0,310.4, 2.8, 3.1,0,0,1024,1024,1024,1024,0,0,0,0,307.5,0,0,85,4.074,4.085,4.083,4.085,0,0,7.232,84.02,75.679727815452,21.653544,6,P-GPS,
25600,2023-05-26 16:32:17,52.2064938296533,0.0868034619241582,21.981628,20.8989508,55.108861015452,76.007811815452,20.341208,0.447388,36.156169136,66.624345964,27,5,16.345,77.976315815452,23.950132,10.401771,38.887140352,0,-0.447388,0,310.2, 0.3, 2.7,0,0,1024,1024,1371,1024,0,0,53,0,307.5,0,0,85,4.074,4.085,4.083,4.085,0,0,7.232,84.02,76.007811815452,21.981628,6,P-GPS,
25800,2023-05-26 16:32:17,52.2064936918716,0.0868027238821488,21.981628,20.8989508,55.108861015452,76.007811815452,20.669292,0.447388,36.04494866,66.796918148,27,5,16.345,77.976315815452,23.950132,10.401771,38.887140352,0,-0.447388,0,310.9, 5.9, 6.2,0,0,1024,1024,1505,1024,0,0,73,0,307.5,0,0,85,4.074,4.085,4.083,4.085,0,0,7.232,84.02,76.007811815452,21.981628,6,P-GPS,
26000,2023-05-26 16:32:18,52.2064935715578,0.0868021689893855,21.981628,20.8989508,55.108861015452,76.007811815452,20.669292,0.223694,35.955709812,66.928479832,27,5,16.336,77.976315815452,23.950132,10.401771,38.887140352,0,-0.223694,-1.342164,310.7, 6.1, 5.8,0,0,1024,1024,1487,1024,0,0,70,0,307.5,0,0,85,4.07,4.081,4.068,4.083,0,0,7.316,84.2,76.007811815452,21.981628,6,P-GPS,
26200,2023-05-26 16:32:18,52.2064934260745,0.0868021081015663,22.96588,21.9160112,55.076052615452,76.992063815452,21.32546,0,35.901575952,66.98326986,27,5,16.336,77.976315815452,23.950132,10.401771,38.887140352,0,0,-3.579104,310.7, 4.5, 5,0,0,1024,1024,1480,1024,0,0,69,0,307.5,0,0,85,4.07,4.081,4.068,4.083,0,0,7.316,84.2,76.992063815452,22.96588,6,P-GPS,
26400,2023-05-26 16:32:18,52.2064932836067,0.0868023362753662,24.278216,23.2283472,55.076052615452,78.304399815452,22.96588,0,35.873688812,67.056104508,27,5,16.336,78.304399815452,24.278216,10.401771,38.887140352,0,0,-5.368656,311, 3, 4.6,0,0,1024,1024,1469,1024,0,0,67,0,307.5,0,0,85,4.07,4.081,4.068,4.083,0,0,7.316,84.2,78.304399815452,24.278216,6,P-GPS,
26600,2023-05-26 16:32:18,52.20649316355,0.0868025254218284,26.24672,25.1968512,55.076052615452,80.272903815452,24.6063,0,35.850066764,67.116800048,27,5,16.336,80.272903815452,26.24672,10.401771,38.887140352,0,0,-6.039738,311, 3, 4.9,0,0,1024,1024,1449,1024,0,0,64,0,307.5,0,0,85,4.07,4.081,4.068,4.083,0,0,7.316,84.2,80.272903815452,26.24672,6,P-GPS,
26800,2023-05-26 16:32:18,52.2064931111547,0.086802677477117,27.88714,26.8372712,55.076052615452,81.913323815452,26.574804,0,35.846129756,67.155842044,27,5,16.336,81.913323815452,27.88714,10.401771,38.887140352,0,0,-6.039738,310.8, 2.8, 5,0,0,1024,1024,1431,1024,0,0,62,0,307.5,0,0,85,4.07,4.081,4.068,4.083,0,0,7.316,84.2,81.913323815452,27.88714,6,P-GPS,
27000,2023-05-26 16:32:19,52.2064931085675,0.0868027707030714,29.855644,28.8057752,55.076052615452,83.881827815452,28.215224,0,35.853347604,67.17683942,27,5,16.3,83.881827815452,29.855644,10.401771,38.887140352,0,0,-5.59235,310.7, 3.5, 4.5,0,0,1024,1024,1409,1024,0,0,58,0,307.5,0,0,85,4.048,4.061,4.063,4.071,0,0,8.002,84.2,83.881827815452,29.855644,6,P-GPS,
27200,2023-05-26 16:32:19,52.206493211439,0.0868027456028351,31.496064,30.4461952,55.076052615452,85.522247815452,29.855644,0,35.885499836,67.214897164,27,5,16.3,85.522247815452,31.496064,10.401771,38.887140352,0,0,-5.144962,311, 5.1, 3.8,0,0,1024,1024,1115,1024,0,0,14,0,307.5,0,0,85,4.048,4.061,4.063,4.071,0,0,8.002,84.2,85.522247815452,31.496064,6,P-GPS,
27400,2023-05-26 16:32:19,52.2064933324124,0.0868026804023325,32.8084,31.7585312,55.076052615452,86.834583815452,31.496064,0,35.92027674,67.261157008,27,5,16.3,86.834583815452,32.8084,10.401771,38.887140352,0,0,-4.250186,310.7, 6.6, 3.8,0,0,1024,1024,1024,1024,0,0,0,0,307.5,0,0,85,4.048,4.061,4.063,4.071,0,0,8.002,84.2,86.834583815452,32.8084,6,P-GPS,
27600,2023-05-26 16:32:19,52.2064934216197,0.0868026583810865,33.792652,32.7427832,55.076052615452,87.818835815452,32.480316,0,35.948491964,67.294293492,27,5,16.3,87.818835815452,33.792652,10.401771,38.887140352,0,0,-2.23694,310.4, 8.1, 3.9,0,0,1024,1024,1024,1024,0,0,0,0,307.5,0,0,85,4.048,4.061,4.063,4.071,0,0,8.002,84.2,87.818835815452,33.792652,6,P-GPS,
27800,2023-05-26 16:32:19,52.206493422742,0.0868026029522716,34.120736,33.0708672,55.076052615452,88.146919815452,33.136484,0,35.943898788,67.3064326,27,5,16.3,88.146919815452,34.120736,10.401771,38.887140352,0,0,-0.447388,310.4, 6.8, 3.6,0,0,1024,1024,1024,1024,0,0,0,0,307.5,0,0,85,4.048,4.061,4.063,4.071,0,0,8.002,84.2,88.146919815452,34.120736,6,P-GPS,
28000,2023-05-26 16:32:20,52.2064933644356,0.0868026155513181,34.44882,33.3989512,55.076052615452,88.475003815452,33.136484,0,35.925526084,67.328086144,27,5,16.151,88.475003815452,34.44882,10.401771,38.887140352,0,0,0,310.5, 5.9, 4.1,0,0,1024,1024,1024,1024,0,0,0,0,307.5,0,0,85,4.104,4.111,4.107,4.109,0,0,11.408,84.2,88.475003815452,34.44882,6,P-GPS,
28200,2023-05-26 16:32:20,52.2064932391616,0.0868026910722047,34.44882,33.3989512,55.076052615452,88.475003815452,33.136484,0,35.890093012,67.376642576,27,5,16.151,88.475003815452,34.44882,10.401771,38.887140352,0,0,0,310.6, 5.5, 4.3,0,0,1024,1024,1024,1024,0,0,0,0,307.5,0,0,85,4.104,4.111,4.107,4.109,0,0,11.408,84.2,88.475003815452,34.44882,6,P-GPS,
28400,2023-05-26 16:32:20,52.2064930709759,0.0868028311924742,34.44882,33.3989512,55.076052615452,88.475003815452,30.511812,0,35.846129756,67.445540216,27,5,16.151,88.475003815452,34.44882,10.401771,38.887140352,0,0,0,310.7, 5.2, 4.4,0,0,1024,1024,970,1024,0,0,-8,0,307.5,0,0,85,4.104,4.111,4.107,4.109,0,0,11.408,84.2,88.475003815452,34.44882,6,P-GPS,
28600,2023-05-26 16:32:20,52.2064929329543,0.0868030569757754,34.44882,33.3989512,55.076052615452,88.475003815452,30.511812,0,35.819883036,67.517062528,26,5,16.151,88.475003815452,34.44882,10.401771,38.887140352,0,0,0,310.7, 4.6, 4.5,0,0,1024,1024,1024,1024,0,0,0,0,307.5,0,0,85,4.104,4.111,4.107,4.109,0,0,11.408,84.2,88.475003815452,34.44882,6,P-GPS,
28800,2023-05-26 16:32:20,52.2064927930309,0.0868032592979395,34.44882,33.3989512,55.076052615452,88.475003815452,30.511812,0,35.791011644,67.585304,26,5,16.151,88.475003815452,34.44882,10.401771,38.887140352,0,0,0,310.7, 4.7, 4.5,0,0,1024,1024,1024,1024,0,0,0,0,307.5,0,0,85,4.104,4.111,4.107,4.109,0,0,11.408,84.2,88.475003815452,34.44882,6,P-GPS,
29000,2023-05-26 16:32:21,52.206492687221,0.0868034485108044,34.44882,33.3989512,55.076052615452,88.475003815452,30.511812,0,35.77263894,67.642390616,26,5,16.396,88.475003815452,34.44882,10.401771,38.887140352,0,0,0,310.7, 4.1, 4.3,0,0,1024,1024,1024,1024,0,0,0,0,307.5,0,0,85,4.072,4.085,4.084,4.087,0,0,6.599,84.56,88.475003815452,34.44882,6,P-GPS,
29200,2023-05-26 16:32:21,52.2064925772561,0.0868035879286028,34.44882,33.3989512,55.076052615452,88.475003815452,30.511812,0,35.748360724,67.693243636,26,5,16.396,88.475003815452,34.44882,10.401771,38.887140352,0,0,0,310.8, 3.9, 4.4,0,0,1024,1024,1023,1024,0,0,-0,0,307.5,0,0,85,4.072,4.085,4.084,4.087,0,0,6.599,84.56,88.475003815452,34.44882,6,P-GPS,
29400,2023-05-26 16:32:21,52.2064924904133,0.0868036543103752,34.776904,33.7270352,55.076052615452,88.803087815452,30.511812,0,35.725394844,67.728348624,26,5,16.396,88.803087815452,34.776904,10.401771,38.887140352,0,0,0,310.9, 4.4, 4.5,0,0,1024,1024,1024,1024,0,0,0,0,307.5,0,0,85,4.072,4.085,4.084,4.087,0,0,6.599,84.56,88.803087815452,34.776904,6,P-GPS,
29600,2023-05-26 16:32:21,52.2064924126171,0.0868036981886079,34.776904,33.7270352,55.076052615452,88.803087815452,30.511812,0,35.703413216,67.758204268,26,5,16.396,88.803087815452,34.776904,10.401771,38.887140352,0,0,0,310.9, 4.4, 4.7,0,0,1024,1024,1024,1024,0,0,0,0,307.5,0,0,85,4.072,4.085,4.084,4.087,0,0,6.599,84.56,88.803087815452,34.776904,6,P-GPS,
29800,2023-05-26 16:32:21,52.2064923739546,0.0868037207131169,34.776904,33.7270352,55.076052615452,88.803087815452,30.511812,0,35.692586444,67.773296132,26,5,16.396,88.803087815452,34.776904,10.401771,38.887140352,0,0,0,310.8, 4.5, 4.8,0,0,1024,1024,1024,1024,0,0,0,0,307.5,0,0,85,4.072,4.085,4.084,4.087,0,0,6.599,84.56,88.803087815452,34.776904,6,P-GPS,
30000,2023-05-26 16:32:22,52.2064923730465,0.0868037218244891,34.776904,33.7270352,55.076052615452,88.803087815452,30.511812,0,35.69225836,67.773624216,26,5,16.32,88.803087815452,34.776904,10.401771,38.887140352,0,0,0,310.8, 4.8, 4.4,0,0,1024,1024,1024,1024,0,0,0,0,307.5,0,0,85,4.072,4.083,4.081,4.084,0,0,6.663,84.38,88.803087815452,34.776904,6,P-GPS,
30200,2023-05-26 16:32:22,52.2064923768931,0.0868037393722873,34.776904,33.7270352,55.076052615452,88.803087815452,30.511812,0,35.695211116,67.777889308,26,5,16.32,88.803087815452,34.776904,10.401771,38.887140352,0,0,0,310.8, 5.2, 4,0,0,1024,1024,1024,1024,0,0,0,0,307.5,0,0,85,4.072,4.083,4.081,4.084,0,0,6.663,84.38,88.803087815452,34.776904,6,P-GPS,
30400,2023-05-26 16:32:22,52.2064923809795,0.0868037548091773,34.776904,33.7270352,55.076052615452,88.803087815452,30.511812,0,35.697835788,67.781498232,26,5,16.32,88.803087815452,34.776904,10.401771,38.887140352,0,0,0,310.7, 5.1, 3.9,0,0,1024,1024,1024,1024,0,0,0,0,307.5,0,0,85,4.072,4.083,4.081,4.084,0,0,6.663,84.38,88.803087815452,34.776904,6,P-GPS,
30600,2023-05-26 16:32:22,52.2064923623807,0.0868037707598148,34.776904,33.7270352,55.076052615452,88.803087815452,30.511812,0,35.692914528,67.789372248,26,5,16.32,88.803087815452,34.776904,10.401771,38.887140352,0,0,0,310.7, 4.8, 4,0,0,1024,1024,1024,1024,0,0,0,0,307.5,0,0,85,4.072,4.083,4.081,4.084,0,0,6.663,84.38,88.803087815452,34.776904,6,P-GPS,
30800,2023-05-26 16:32:22,52.2064923224418,0.0868037579405908,34.776904,33.7270352,55.076052615452,88.803087815452,30.839896,0,35.678478832,67.804136028,26,5,16.32,88.803087815452,34.776904,10.401771,38.887140352,0,0,0,310.7, 4.8, 4,0,0,1024,1024,1024,1024,0,0,0,0,307.5,0,0,85,4.072,4.083,4.081,4.084,0,0,6.663,84.38,88.803087815452,34.776904,6,P-GPS,
31000,2023-05-26 16:32:23,52.2064922693526,0.086803741996943,34.776904,33.7270352,55.076052615452,88.803087815452,30.839896,0,35.65944996,67.823821068,27,5,16.319,88.803087815452,34.776904,10.401771,38.887140352,0,0,0,310.7, 4.7, 4.4,0,0,1024,1024,1024,1024,0,0,0,0,307.5,0,0,85,4.07,4.083,4.078,4.083,0,0,7.213,84.56,88.803087815452,34.776904,6,P-GPS,
31200,2023-05-26 16:32:23,52.2064922296278,0.0868037081944526,34.776904,33.7270352,55.076052615452,88.803087815452,30.839896,0,35.64304576,67.840225268,27,5,16.319,88.803087815452,34.776904,10.401771,38.887140352,0,0,0,310.8, 4.6, 4.8,0,0,1024,1024,1024,1024,0,0,0,0,307.5,0,0,85,4.07,4.083,4.078,4.083,0,0,7.213,84.56,88.803087815452,34.776904,6,P-GPS,
31400,2023-05-26 16:32:23,52.2064922005346,0.0868037025991479,34.776904,33.7270352,55.076052615452,88.803087815452,30.839896,0,35.632875156,67.850723956,27,5,16.319,88.803087815452,34.776904,10.401771,38.887140352,0,0,0,310.8, 4.8, 4.4,0,0,1024,1024,1024,1024,0,0,0,0,307.5,0,0,85,4.07,4.083,4.078,4.083,0,0,7.213,84.56,88.803087815452,34.776904,6,P-GPS,
31600,2023-05-26 16:32:23,52.2064921912994,0.0868037123813203,34.776904,33.7270352,55.076052615452,88.803087815452,30.839896,0,35.630578568,67.854989048,27,5,16.319,88.803087815452,34.776904,10.401771,38.887140352,0,0,0,310.7, 4.6, 4.3,0,0,1024,1024,1024,1024,0,0,0,0,307.5,0,0,85,4.07,4.083,4.078,4.083,0,0,7.213,84.56,88.803087815452,34.776904,6,P-GPS,
31800,2023-05-26 16:32:23,52.2064921673121,0.0868037016135915,34.776904,33.7270352,55.076052615452,88.803087815452,30.839896,0,35.6217203,67.863847316,27,5,16.319,88.803087815452,34.776904,10.401771,38.887140352,0,0,0,310.7, 4.9, 4.3,0,0,1024,1024,1024,1024,0,0,0,0,307.5,0,0,85,4.07,4.083,4.078,4.083,0,0,7.213,84.56,88.803087815452,34.776904,6,P-GPS,
32000,2023-05-26 16:32:24,52.2064921458263,0.0868036939108734,34.776904,33.7270352,55.076052615452,88.803087815452,30.839896,0,35.613846284,67.872049416,27,5,16.314,88.803087815452,34.776904,10.401771,38.887140352,0,0,0,310.8, 5.2, 4,0,0,1024,1024,1024,1024,0,0,0,0,307.5,0,0,85,4.071,4.081,4.078,4.081,0,0,7.264,84.56,88.803087815452,34.776904,6,P-GPS,
32200,2023-05-26 16:32:24,52.206492094836,0.0868036943372489,34.776904,33.7270352,55.076052615452,88.803087815452,30.839896,0,35.596785916,67.89042212,27,5,16.314,88.803087815452,34.776904,10.401771,38.887140352,0,0,0,310.7, 5, 4.3,0,0,1024,1024,1024,1024,0,0,0,0,307.5,0,0,85,4.071,4.081,4.078,4.081,0,0,7.264,84.56,88.803087815452,34.776904,6,P-GPS,
32400,2023-05-26 16:32:24,52.2064920101006,0.0868036630440832,34.776904,33.7270352,55.076052615452,88.803087815452,30.511812,0,35.565617936,67.922246268,27,5,16.314,88.803087815452,34.776904,10.401771,38.887140352,0,0,0,310.7, 4.2, 4.6,0,0,1024,1024,1024,1024,0,0,0,0,307.5,0,0,85,4.071,4.081,4.078,4.081,0,0,7.264,84.56,88.803087815452,34.776904,6,P-GPS,
