time(millisecond),datetime(utc),latitude,longitude,height_above_takeoff(feet),height_above_ground_at_drone_location(feet),ground_elevation_at_drone_location(feet),altitude_above_seaLevel(feet),height_sonar(feet),speed(mph),distance(feet),mileage(feet),satellites,gpslevel,voltage(v),max_altitude(feet),max_ascent(feet),max_speed(mph),max_distance(feet), xSpeed(mph), ySpeed(mph), zSpeed(mph), compass_heading(degrees), pitch(degrees), roll(degrees),isPhoto,isVideo,rc_elevator,rc_aileron,rc_throttle,rc_rudder,rc_elevator(percent),rc_aileron(percent),rc_throttle(percent),rc_rudder(percent),gimbal_heading(degrees),gimbal_pitch(degrees),gimbal_roll(degrees),battery_percent,voltageCell1,voltageCell2,voltageCell3,voltageCell4,voltageCell5,voltageCell6,current(A),battery_temperature(f),altitude(feet),ascent(feet),flycStateRaw,flycState,message
1209000,2023-05-26 16:53:13,52.2064037177852,0.0867309895577634,0,0,54.026183815452,54.026183815452,0,0,0,0,24,5,0,54.026183815452,0,0,0,0,0,0,283.5, 4.2, 0.3,0,1,1024,1024,1024,1024,0,0,0,0,280.9,0,0,30,3.735,3.742,3.739,3.737,0,0,0,109.76,54.026183815452,0,6,P-GPS,"Aircraft not in flight. Vision systems and obstacle avoidance disabled (Code: 180059)"
1209200,2023-05-26 16:53:13,52.2064037470503,0.0867310314701255,0,0,54.026183815452,54.026183815452,0,0,0.0142064309008,0.0142064309008,24,5,0,54.026183815452,0,0,0.0142064309008,0,0,0,283.5, 4.2, 0.3,0,1,1024,1024,1024,1024,0,0,0,0,280.9,0,0,30,3.735,3.742,3.739,3.737,0,0,0,109.76,54.026183815452,0,41,Motors_Started,
1209400,2023-05-26 16:53:14,52.2064037700736,0.0867310678815446,0,0,54.026183815452,54.026183815452,0,0,0.0258963919048,0.025904200304,24,5,0,54.026183815452,0,0,0.0258963919048,0,0,0,283.5, 4.2, 0.3,0,1,1024,1024,1024,1024,0,0,0,0,280.9,0,0,30,3.735,3.742,3.739,3.737,0,0,0,109.76,54.026183815452,0,41,Motors_Started,"Setting new Return-To-Home altitude to 26m (85 ft). Data Recorder File Index is 22. Setting new Maximum Flight Altitude to 120m (394 ft)"
1209600,2023-05-26 16:53:14,52.2064037875303,0.0867310944583683,0,0,54.026183815452,54.026183815452,0,0,1.9422244716,0.034614830504,24,5,0,54.026183815452,0,0,1.9422244716,0,0,0,283.5, 4.2, 0.3,0,1,1024,1024,1024,1024,0,0,0,0,280.9,0,0,30,3.735,3.742,3.739,3.737,0,0,0,109.76,54.026183815452,0,41,Motors_Started,
1209800,2023-05-26 16:53:14,52.2064037993161,0.0867310920224361,0,0,54.026183815452,54.026183815452,0,0,1.94316607268,0.038949148228,25,5,0,54.026183815452,0,0,1.94316607268,0,0,0,283.5, 4.2, 0.3,0,1,1024,1024,1024,1024,0,0,0,0,280.9,0,0,30,3.735,3.742,3.739,3.737,0,0,0,109.76,54.026183815452,0,41,Motors_Started,
1210000,2023-05-26 16:53:14,52.2064038069521,0.0867311136277913,0,0,54.026183815452,54.026183815452,0,0,1.93862210928,0.044525591976,25,5,0,54.026183815452,0,0,1.94316607268,0,0,0,283.5, 4.2, 0.3,0,1,1024,1024,1024,1024,0,0,0,0,280.9,0,0,30,3.735,3.742,3.739,3.737,0,0,0,109.76,54.026183815452,0,41,Motors_Started,
1210200,2023-05-26 16:53:15,52.2064038097293,0.0867311321489139,0,0,54.026183815452,54.026183815452,0,0,1.9345965186,0.048789043556,25,5,0,54.026183815452,0,0,1.94316607268,0,0,0,283.6, 4.2, 0.3,0,1,1024,1024,1024,1024,0,0,0,0,280.9,0,0,30,3.735,3.742,3.739,3.737,0,0,0,109.76,54.026183815452,0,41,Motors_Started,
1210400,2023-05-26 16:53:15,52.2064038110165,0.0867311447601925,0,0,54.026183815452,54.026183815452,0,0,1.93183405132,0.051647639448,25,5,15.005,54.026183815452,0,0,1.94316607268,0,0,0,283.6, 4.2, 0.3,0,1,1024,1024,1024,1024,0,0,0,0,280.9,0,0,30,3.736,3.744,3.742,3.741,0,0,1.658,109.76,54.026183815452,0,41,Motors_Started,
1210600,2023-05-26 16:53:15,52.2064038093847,0.086731152280303,0,0,54.026183815452,54.026183815452,0,0,1.93010504864,0.053431104072,25,5,15.005,54.026183815452,0,0,1.94316607268,0,0,0,283.6, 4.2, 0.3,0,1,1024,1024,1024,1024,0,0,0,0,280.9,0,0,30,3.736,3.744,3.742,3.741,0,0,1.658,109.76,54.026183815452,0,11,AutoTakeoff,
1210800,2023-05-26 16:53:15,52.2064038074231,0.0867311629798816,0,0,54.026183815452,54.026183815452,0,0,1.92765426116,0.055928151396,25,5,15.005,54.026183815452,0,0,1.94316607268,0,0,0,283.6, 4.2, 0.3,0,1,1024,1024,1024,1024,0,0,0,0,280.9,0,0,30,3.736,3.744,3.742,3.741,0,0,1.658,109.76,54.026183815452,0,11,AutoTakeoff,
1211000,2023-05-26 16:53:15,52.2064038064324,0.0867311975093073,0,0,54.026183815452,54.026183815452,0,0,1.91993444464,0.063657154268,24,5,15.005,54.026183815452,0,0,1.94316607268,0,0,0,283.8, 4.1, 0.3,0,1,1024,1024,1024,1024,0,0,0,0,280.9,0,0,30,3.736,3.744,3.742,3.741,0,0,1.658,109.76,54.026183815452,0,11,AutoTakeoff,
1211200,2023-05-26 16:53:15,52.2064038119215,0.0867312989858024,0,0,54.026183815452,54.026183815452,0,0,1.89754927332,0.086434057884,24,5,15.005,54.026183815452,0,0,1.94316607268,0,0,0,284.2, 0.6, 0.4,0,1,1024,1024,1024,1024,0,0,0,0,280.9,0,0,30,3.736,3.744,3.742,3.741,0,0,1.658,109.76,54.026183815452,0,11,AutoTakeoff,
1211400,2023-05-26 16:53:16,52.2064038495802,0.0867314693665003,0,0,54.026183815452,54.026183815452,0.328084,0,1.86107617504,0.12693077834,24,5,14.922,54.026183815452,0,0,1.94316607268,0,0,-0.671082,284.4, -1.6, 0,0,1,1024,1024,1024,1024,0,0,0,0,280.9,0,0,30,3.718,3.726,3.721,3.715,0,0,4.853,109.58,54.026183815452,0,11,AutoTakeoff,
1211600,2023-05-26 16:53:16,52.2064039198012,0.0867315011777821,0.328084,0.328084,54.026183815452,54.354267815452,0.328084,0,1.85695872084,0.153520018036,25,5,14.922,54.354267815452,0.328084,0,1.94316607268,0,0,-0.894776,284.2, 0.8, -0.4,0,1,1024,1024,1024,1024,0,0,0,0,281,0,0,30,3.718,3.726,3.721,3.715,0,0,4.853,109.58,54.354267815452,0.328084,11,AutoTakeoff,
1211800,2023-05-26 16:53:16,52.20640395908,0.0867315105327052,0.656168,0.656168,54.026183815452,54.682351815452,0.656168,0,1.85668641112,0.168002630048,25,5,14.922,54.682351815452,0.656168,0,1.94316607268,0,0,-0.894776,284.3, 0.5, 0,0,1,1024,1024,1024,1024,0,0,0,0,281,0,0,30,3.718,3.726,3.721,3.715,0,0,4.853,109.58,54.682351815452,0.656168,11,AutoTakeoff,
1212000,2023-05-26 16:53:16,52.2064040043711,0.086731588914152,0.984252,0.984252,54.026183815452,55.010435815452,0.984252,0,1.84154861536,0.192089573076,26,5,14.922,55.010435815452,0.984252,0,1.94316607268,0,0,-0.894776,284.3, 0, -0.3,0,1,1024,1024,1024,1024,0,0,0,0,281,0,0,30,3.718,3.726,3.721,3.715,0,0,4.853,109.58,55.010435815452,0.984252,11,AutoTakeoff,
1212200,2023-05-26 16:53:16,52.2064040445991,0.0867316528975622,1.312336,1.312336,54.026183815452,55.338519815452,1.312336,0,1.82950793256,0.21258530864,26,5,14.922,55.338519815452,1.312336,0,1.94316607268,0,0,-0.894776,284.4, 0, -0.9,0,1,1024,1024,1024,1024,0,0,0,0,281,0,0,30,3.718,3.726,3.721,3.715,0,0,4.853,109.58,55.338519815452,1.312336,11,AutoTakeoff,
1212400,2023-05-26 16:53:17,52.2064040270033,0.0867316790235461,1.312336,1.312336,54.026183815452,55.338519815452,1.64042,0,1.8227854914,0.221265098944,26,5,14.955,55.338519815452,1.312336,0,1.94316607268,0,0,-0.894776,284.3, -0.2, -0.2,0,1,1024,1024,1024,1024,0,0,0,0,281.1,0,0,30,3.708,3.717,3.714,3.71,0,0,3.777,109.58,55.338519815452,1.312336,11,AutoTakeoff,"Home Point updated (Code: 3000001)"
1212600,2023-05-26 16:53:17,52.206404002481,0.0867317591646656,1.64042,1.64042,54.026183815452,55.666603815452,1.968504,0,1.80376646192,0.241292986724,26,5,14.955,55.666603815452,1.64042,0,1.94316607268,0,0,-0.894776,284.4, -0.7, 0.4,0,1,1024,1024,1024,1024,0,0,0,0,281.1,0,0,30,3.708,3.717,3.714,3.71,0,0,3.777,109.58,55.666603815452,1.64042,11,AutoTakeoff,
1212800,2023-05-26 16:53:17,52.2064039706405,0.0867318188790785,1.968504,1.968504,54.026183815452,55.994687815452,2.296588,0,1.78892394176,0.258990821936,26,5,14.955,55.994687815452,1.968504,0,1.94316607268,0,0,-1.11847,284.4, -0.5, 0.3,0,1,1024,1024,1355,1024,0,0,50,0,281.1,0,0,30,3.708,3.717,3.714,3.71,0,0,3.777,109.58,55.994687815452,1.968504,11,AutoTakeoff,
1213000,2023-05-26 16:53:17,52.2064039685969,0.0867318694648618,2.296588,2.296588,54.026183815452,56.322771815452,2.624672,0,1.77761816712,0.270325796052,26,5,14.955,56.322771815452,2.296588,0,1.94316607268,0,0,-1.11847,284.3, -0.2, 0,0,1,1024,1024,1684,1232,0,0,100,32,281.1,0,0,30,3.708,3.717,3.714,3.71,0,0,3.777,109.58,56.322771815452,2.296588,11,AutoTakeoff,
1213200,2023-05-26 16:53:17,52.2064039794553,0.0867319238766663,2.952756,2.952756,54.026183815452,56.978939815452,3.28084,0,1.76611882292,0.2831200878,27,5,14.955,56.978939815452,2.952756,0,1.94316607268,0,0,-2.013246,284.8, -0.3, 0,0,1,1024,1024,1684,1077,0,0,100,8,281.1,0,0,30,3.708,3.717,3.714,3.71,0,0,3.777,109.58,56.978939815452,2.952756,11,AutoTakeoff,
1213400,2023-05-26 16:53:18,52.2064039824072,0.0867320198251331,3.937008,3.937008,54.026183815452,57.963191815452,3.937008,0,1.74503614508,0.304600075364,27,5,14.862,57.963191815452,3.937008,0,1.94316607268,0,0,-3.802798,285.5, -0.8, 0,0,1,1024,1024,1684,1024,0,0,100,0,281.2,0,0,30,3.685,3.695,3.69,3.679,0,0,7.609,109.4,57.963191815452,3.937008,6,P-GPS,
1213600,2023-05-26 16:53:18,52.2064039867123,0.0867320799134983,5.249344,5.249344,54.026183815452,59.275527815452,5.577428,0,1.73196855936,0.318126322516,27,5,14.862,59.275527815452,5.249344,0,1.94316607268,0,0,-6.039738,285.5, -0.5, -0.4,0,1,1024,1024,1684,1024,0,0,100,0,281.2,0,0,30,3.685,3.695,3.69,3.679,0,0,7.609,109.4,59.275527815452,5.249344,6,P-GPS,
1213800,2023-05-26 16:53:18,52.2064039785504,0.0867320751595862,7.545932,7.545932,54.026183815452,61.572115815452,7.874016,0,1.73259191896,0.321288396108,27,5,14.862,61.572115815452,7.545932,0,1.94316607268,0,0,-8.276678,285, -0.2, 0.7,0,1,1024,1024,1214,1024,0,0,29,0,281.2,0,0,30,3.685,3.695,3.69,3.679,0,0,7.609,109.4,61.572115815452,7.545932,6,P-GPS,
1214000,2023-05-26 16:53:18,52.2064040400454,0.086732011910101,11.154856,11.154856,54.026183815452,65.181039815452,10.826772,0,1.74991475416,0.34780841008,27,5,14.862,65.181039815452,11.154856,0,1.94316607268,0,0,-10.289924,284.9, 0.3, 0.6,0,1,1024,1024,1024,1024,0,0,0,0,281.2,0,0,30,3.685,3.695,3.69,3.679,0,0,7.609,109.4,65.181039815452,11.154856,6,P-GPS,
1214200,2023-05-26 16:53:18,52.2064041634716,0.0867318142990367,14.76378,14.76378,54.026183815452,68.789963815452,13.779528,0,1.8009186928,0.41089568244,27,5,14.862,68.789963815452,14.76378,0,1.94316607268,0,0,-9.395148,284.5, 1.4, 0,0,1,1024,1024,1036,1024,0,0,2,0,281.2,0,0,30,3.685,3.695,3.69,3.679,0,0,7.609,109.4,68.789963815452,14.76378,6,P-GPS,
1214400,2023-05-26 16:53:19,52.2064042822893,0.0867314563393308,18.04462,18.04462,54.026183815452,72.070803815452,16.076116,0.223694,1.88752958796,0.5019193074,27,5,14.842,72.070803815452,18.04462,0.223694,1.94316607268,0,-0.223694,-7.381902,284.7, 2.4, 3.1,0,1,1024,1024,1024,1024,0,0,0,0,281.2,0,0,29,3.697,3.714,3.714,3.71,0,0,8.444,109.4,72.070803815452,18.04462,6,P-GPS,
1214600,2023-05-26 16:53:19,52.2064044631118,0.0867309555193685,18.700788,18.700788,54.026183815452,72.726971815452,18.04462,0.223694,2.01047578612,0.63188322232,27,5,14.842,72.726971815452,18.700788,0.223694,2.01047578612,0,-0.223694,-5.144962,285.1, 5.1, 5.5,0,1,1011,651,1007,935,-2,-57,-3,-13,281.2,0,0,29,3.697,3.714,3.714,3.71,0,0,8.444,109.4,72.726971815452,18.700788,6,P-GPS,
1214800,2023-05-26 16:53:19,52.2064048466437,0.0867305275624357,20.013124,19.9803156,54.058992215452,74.039307815452,19.028872,0.3131716,2.1367454752,0.80140422512,27,5,14.842,74.039307815452,20.013124,0.3131716,2.1367454752,0.223694,-0.223694,-2.684328,285.4, 5.2, 2,0,1,982,364,999,674,-6,-100,-4,-53,281.2,0,0,29,3.697,3.714,3.714,3.71,0,0,8.444,109.4,74.039307815452,20.013124,6,P-GPS,
1215000,2023-05-26 16:53:19,52.2064052953442,0.0867301091972042,20.669292,20.6364836,54.058992215452,74.695475815452,19.68504,0.3131716,2.2741306502,0.98995081908,28,5,14.842,74.695475815452,20.669292,0.3131716,2.2741306502,0.223694,-0.223694,-0.894776,284.5, 1.8, -16,0,1,1016,536,1024,1024,-1,-74,0,0,279.8,0,0,29,3.697,3.714,3.714,3.71,0,0,8.444,109.4,74.695475815452,20.669292,6,P-GPS,
1215200,2023-05-26 16:53:19,52.2064051250407,0.0867292989264862,20.669292,20.6364836,54.058992215452,74.695475815452,19.68504,1.11847,2.42866149504,1.18147641576,28,5,14.842,74.695475815452,20.669292,1.11847,2.42866149504,-0.894776,-0.671082,0,283.6, 2.1, -24.6,0,1,1024,770,1024,1024,0,-38,0,0,278.8,0,0,29,3.697,3.714,3.714,3.71,0,0,8.444,109.4,74.695475815452,20.669292,6,P-GPS,
1215400,2023-05-26 16:53:20,52.2064036132871,0.0867278088716801,20.669292,20.669292,54.026183815452,74.695475815452,19.356956,2.796175,2.67110244768,1.82584651512,28,5,14.656,74.695475815452,20.669292,2.796175,2.67110244768,-2.460634,-1.342164,0,283.3, 5.1, -11.5,0,1,1024,1024,1024,1024,0,0,0,0,278.8,0,0,29,3.705,3.715,3.71,3.704,0,0,14.902,108.86,74.695475815452,20.669292,6,P-GPS,
1215600,2023-05-26 16:53:20,52.2064012044745,0.086726027820838,20.669292,20.7021004,53.993375415452,74.695475815452,19.356956,3.1988242,3.16061689904,2.79071203156,28,5,14.656,74.695475815452,20.669292,3.1988242,3.16061689904,-2.908022,-1.342164,0,282.9, 6.6, 1.6,0,1,1024,1024,1024,1024,0,0,0,0,278.8,0,0,29,3.705,3.715,3.71,3.704,0,0,14.902,108.86,74.695475815452,20.669292,6,P-GPS,
1215800,2023-05-26 16:53:20,52.206398861893,0.0867245379163117,20.669292,20.7021004,53.993375415452,74.695475815452,19.356956,2.1922012,3.7656825352,3.7080381764,28,5,14.656,74.695475815452,20.669292,3.1988242,3.7656825352,-2.013246,-0.894776,0,283, 10.7, 23.2,0,1,1024,1024,1024,1024,0,0,0,0,278.8,0,0,29,3.705,3.715,3.71,3.704,0,0,14.902,108.86,74.695475815452,20.669292,6,P-GPS,
1216000,2023-05-26 16:53:20,52.2063977593921,0.0867239712423041,20.669292,20.7349088,53.960567015452,74.695475815452,19.028872,0.4921268,4.0647639096,4.12975735,28,5,14.656,74.695475815452,20.669292,3.1988242,4.0647639096,-0.447388,-0.223694,0,280.6, 9.8, 10.4,0,1,1587,1024,1024,1024,85,0,0,0,278.8,0,0,29,3.705,3.715,3.71,3.704,0,0,14.902,108.86,74.695475815452,20.669292,6,P-GPS,
1216200,2023-05-26 16:53:21,52.2063973711133,0.0867241107736862,20.669292,20.7349088,53.960567015452,74.695475815452,19.028872,0,4.1104660108,4.2748032864,28,5,14.656,74.695475815452,20.669292,3.1988242,4.1104660108,0,0,0,282.1, -0.9, 2.1,0,1,1684,1021,1024,1024,100,-0,0,0,278.8,0,0,29,3.705,3.715,3.71,3.704,0,0,14.902,108.86,74.695475815452,20.669292,6,P-GPS,
1216400,2023-05-26 16:53:21,52.2063972586383,0.0867238312548401,20.669292,20.7349088,53.960567015452,74.695475815452,19.356956,0.894776,4.185203546,4.34957363,28,5,14.884,74.695475815452,20.669292,3.1988242,4.185203546,0,-0.894776,0,282.3, -22, 0.3,0,1,1684,1024,1024,1024,100,0,0,0,278.8,0,0,29,3.704,3.712,3.708,3.704,0,0,6.194,109.76,74.695475815452,20.669292,6,P-GPS,
1216600,2023-05-26 16:53:21,52.2063974149754,0.0867213925774562,20.669292,20.7349088,53.960567015452,74.695475815452,19.356956,2.9527608,4.6308728516,4.897801994,28,5,14.884,74.695475815452,20.669292,3.1988242,4.6308728516,0.447388,-2.908022,0,282.2, -20.3, 2.9,0,1,1669,1024,1024,1024,98,0,0,0,278.8,0,0,29,3.704,3.712,3.708,3.704,0,0,6.194,109.76,74.695475815452,20.669292,6,P-GPS,
1216800,2023-05-26 16:53:21,52.2063979683879,0.0867165251830998,20.669292,20.7349088,53.960567015452,74.695475815452,19.68504,4.5633576,5.5438321984,6.0046589848,28,5,14.884,74.695475815452,20.669292,4.5633576,5.5438321984,0.894776,-4.47388,0,282.5, -16.5, 0.9,0,1,1584,1024,1024,1024,85,0,0,0,278.8,0,0,29,3.704,3.712,3.708,3.704,0,0,6.194,109.76,74.695475815452,20.669292,6,P-GPS,
1217000,2023-05-26 16:53:21,52.2063988951262,0.0867096344308022,20.669292,20.7021004,53.993375415452,74.695475815452,19.68504,5.9726298,6.921260064,7.58202124,28,5,14.884,74.695475815452,20.669292,5.9726298,6.921260064,1.342164,-5.816044,0,282, -17.8, 0.4,0,1,1615,1024,1024,1024,90,0,0,0,278.8,0,0,29,3.704,3.712,3.708,3.704,0,0,6.194,109.76,74.695475815452,20.669292,6,P-GPS,
1217200,2023-05-26 16:53:21,52.2064001396873,0.0867007414436249,20.669292,20.7021004,53.993375415452,74.695475815452,20.013124,7.605596,8.7963913576,9.621555426,28,5,14.884,74.695475815452,20.669292,7.605596,8.7963913576,1.789552,-7.381902,0,282.7, -16.1, -0.9,0,1,1538,1024,1024,1024,78,0,0,0,278.8,0,0,29,3.704,3.712,3.708,3.704,0,0,6.194,109.76,74.695475815452,20.669292,6,P-GPS,
1217400,2023-05-26 16:53:22,52.2064015365439,0.0866900474428445,20.669292,20.669292,54.026183815452,74.695475815452,20.013124,8.9030212,11.1301840832,12.0663061604,28,5,14.807,74.695475815452,20.669292,8.9030212,11.1301840832,1.789552,-8.724066,0,282.6, -15, -1.5,0,1,1024,1024,1024,759,0,0,0,-40,278.8,0,0,29,3.697,3.705,3.701,3.694,0,0,8.518,109.4,74.695475815452,20.669292,6,P-GPS,
1217600,2023-05-26 16:53:22,52.2064029819183,0.0866777945608162,20.341208,20.341208,54.026183815452,74.367391815452,19.68504,9.8201666,13.8516408632,14.8561684544,28,5,14.807,74.695475815452,20.669292,9.8201666,13.8516408632,2.013246,-9.618842,0,282.4, -0.1, -0.9,0,1,1024,1024,978,364,0,0,-7,-100,278.3,0,0,29,3.697,3.705,3.701,3.694,0,0,8.518,109.4,74.367391815452,20.341208,6,P-GPS,
1217800,2023-05-26 16:53:22,52.2064042293432,0.0866654271270688,20.341208,20.341208,54.026183815452,74.367391815452,19.68504,8.6345884,16.6198168048,17.6585635572,28,5,14.807,74.695475815452,20.669292,9.8201666,16.6198168048,1.565858,-8.500372,0,281.3, 28.7, -1.9,0,1,1024,1024,1024,900,0,0,0,-19,269.3,0,0,29,3.697,3.705,3.701,3.694,0,0,8.518,109.4,74.367391815452,20.341208,6,P-GPS,
1218000,2023-05-26 16:53:22,52.2064048680368,0.0866556949525271,20.341208,20.3083996,54.058992215452,74.367391815452,19.356956,6.3081708,18.8010504704,19.8469822624,28,5,14.807,74.695475815452,20.669292,9.8201666,18.8010504704,0.671082,-6.263432,0,266.9, 27.6, -9.1,0,1,1024,1024,1024,1069,0,0,0,7,261.4,0,0,29,3.697,3.705,3.701,3.694,0,0,8.518,109.4,74.367391815452,20.341208,6,P-GPS,
1218200,2023-05-26 16:53:22,52.2064048778767,0.0866489196920716,20.341208,20.3083996,54.058992215452,74.367391815452,19.028872,4.026492,20.3153549808,21.3618445156,28,5,14.807,74.695475815452,20.669292,9.8201666,20.3153549808,0,-4.026492,0,261, 27.7, -8.8,0,1,1024,995,1024,1056,0,-4,0,5,260.4,0,0,29,3.697,3.705,3.701,3.694,0,0,8.518,109.4,74.367391815452,20.341208,6,P-GPS,
1218400,2023-05-26 16:53:23,52.2064044977498,0.0866451391043982,20.341208,20.341208,54.026183815452,74.367391815452,18.700788,1.789552,21.1570216744,22.2184390312,28,5,14.798,74.695475815452,20.669292,9.8201666,21.1570216744,0,-1.789552,0,262.9, 18.2, -1.8,0,1,1024,928,1024,1684,0,-15,0,100,260.4,0,0,29,3.689,3.695,3.693,3.686,0,0,9.048,109.76,74.367391815452,20.341208,6,P-GPS,
1218600,2023-05-26 16:53:23,52.2064040842747,0.0866433495085718,20.013124,20.013124,54.026183815452,74.039307815452,18.700788,1.1408394,21.5545282488,22.6460637168,28,5,14.798,74.695475815452,20.669292,9.8201666,21.5545282488,0.223694,-1.11847,0,265, 9, 2.8,0,1,1024,892,1024,1157,0,-20,0,20,267.8,0,0,29,3.689,3.695,3.693,3.686,0,0,9.048,109.76,74.039307815452,20.013124,6,P-GPS,
1218800,2023-05-26 16:53:23,52.2064039496984,0.0866422952497168,20.013124,20.013124,54.026183815452,74.039307815452,18.700788,0.4921268,21.7896332432,22.8868445644,28,5,14.798,74.695475815452,20.669292,9.8201666,21.7896332432,0.223694,-0.447388,0,275.2, 6.5, -2.2,0,1,1024,995,1024,1024,0,-4,0,0,274.3,0,0,29,3.689,3.695,3.693,3.686,0,0,9.048,109.76,74.039307815452,20.013124,6,P-GPS,
1219000,2023-05-26 16:53:23,52.206403781793,0.0866417144284304,20.013124,20.013124,54.026183815452,74.039307815452,19.028872,0.223694,21.9188983392,23.0304469312,28,5,14.798,74.695475815452,20.669292,9.8201666,21.9188983392,0,-0.223694,0,278.8, 3.8, -3.6,0,1,1116,364,1024,1024,14,-100,0,0,274.7,0,0,29,3.689,3.695,3.693,3.686,0,0,9.048,109.76,74.039307815452,20.013124,6,P-GPS,
1219200,2023-05-26 16:53:23,52.2064035037359,0.0866412821326026,20.013124,20.013124,54.026183815452,74.039307815452,19.028872,0.223694,22.0149941428,23.1705387992,28,5,14.798,74.695475815452,20.669292,9.8201666,22.0149941428,0,-0.223694,0,277.2, 3.9, -10.7,0,1,1109,364,1024,1024,13,-100,0,0,274.7,0,0,29,3.689,3.695,3.693,3.686,0,0,9.048,109.76,74.039307815452,20.013124,6,P-GPS,
1219400,2023-05-26 16:53:24,52.2064027016963,0.0866409520061301,20.013124,20.013124,54.026183815452,74.039307815452,19.028872,1.3645334,22.089731678,23.4723432708,28,5,14.768,74.695475815452,20.669292,9.8201666,22.089731678,-1.342164,-0.223694,0,279.3, 2.5, -24.6,0,1,1082,364,1024,1024,9,-100,0,0,274.7,0,0,29,3.698,3.706,3.704,3.699,0,0,9.324,109.58,74.039307815452,20.013124,6,P-GPS,
1219600,2023-05-26 16:53:24,52.2064004435242,0.086640311338499,19.68504,19.7178484,53.993375415452,73.711223815452,18.700788,3.3777794,22.2562999248,24.3085965784,28,5,14.768,74.695475815452,20.669292,9.8201666,22.2562999248,-3.35541,-0.447388,0,280.2, 2.4, -26.3,0,1,1071,364,1024,1024,7,-100,0,0,274.7,0,0,29,3.698,3.706,3.704,3.699,0,0,9.324,109.58,73.711223815452,19.68504,6,P-GPS,
1219800,2023-05-26 16:53:24,52.2063965224518,0.0866392236336315,19.68504,19.7506568,53.960567015452,73.711223815452,18.700788,5.6594582,22.6106962616,25.7597121104,28,5,14.768,74.695475815452,20.669292,9.8201666,22.6106962616,-5.59235,-0.894776,0,279.5, 2.6, -26.9,0,1,1024,364,1024,1024,0,-100,0,0,274.7,0,0,29,3.698,3.706,3.704,3.699,0,0,9.324,109.58,73.711223815452,19.68504,6,P-GPS,
1220000,2023-05-26 16:53:24,52.2063909734022,0.0866377401264851,19.68504,19.8162736,53.894950215452,73.711223815452,18.700788,7.4713796,23.245899694,27.8112869792,28,5,14.768,74.695475815452,20.669292,9.8201666,23.245899694,-7.381902,-1.11847,0,279.9, 3, -25.6,0,1,1028,364,1024,1024,1,-100,0,0,274.7,0,0,29,3.698,3.706,3.704,3.699,0,0,9.324,109.58,73.711223815452,19.68504,6,P-GPS,
1220200,2023-05-26 16:53:24,52.2063839311791,0.0866359579747556,19.68504,19.849082,53.862141815452,73.711223815452,18.372704,9.5293644,24.2573170492,30.4113526792,28,5,14.768,74.695475815452,20.669292,9.8201666,24.2573170492,-9.395148,-1.565858,0,280.7, 2.1, -26.9,0,1,1024,364,1024,1024,0,-100,0,0,274.7,0,0,29,3.698,3.706,3.704,3.699,0,0,9.324,109.58,73.711223815452,19.68504,6,P-GPS,
1220400,2023-05-26 16:53:25,52.2063754576569,0.0866336759152277,20.013124,20.177166,53.862141815452,74.039307815452,18.700788,11.3636552,25.799377466,33.544620496,28,5,14.8,74.695475815452,20.669292,11.3636552,25.799377466,-11.1847,-2.013246,0,279.1, 6.2, -26.7,0,1,1024,364,1024,1024,0,-100,0,0,274.7,0,0,29,3.692,3.7,3.698,3.69,0,0,9.089,109.76,74.039307815452,20.013124,6,P-GPS,
1220600,2023-05-26 16:53:25,52.2063655028703,0.0866310327226418,20.013124,20.177166,53.862141815452,74.039307815452,18.700788,13.1755766,27.9457686108,37.22441064,28,5,14.8,74.695475815452,20.669292,13.1755766,27.9457686108,-12.974252,-2.23694,0,279.4, 6.5, -24,0,1,1015,554,1024,1024,-1,-71,0,0,274.7,0,0,29,3.692,3.7,3.698,3.69,0,0,9.089,109.76,74.039307815452,20.013124,6,P-GPS,
1220800,2023-05-26 16:53:25,52.2063541870901,0.0866282218666282,20.013124,20.177166,53.862141815452,74.039307815452,18.700788,14.7414346,30.70538156,41.400591876,28,5,14.8,74.695475815452,20.669292,14.7414346,30.70538156,-14.54011,-2.460634,0,279.1, 5.5, -22.1,0,1,1024,1024,1024,1024,0,0,0,0,274.7,0,0,29,3.692,3.7,3.698,3.69,0,0,9.089,109.76,74.039307815452,20.013124,6,P-GPS,
1221000,2023-05-26 16:53:25,52.2063418311923,0.0866253697919864,20.013124,20.177166,53.862141815452,74.039307815452,18.700788,15.4572554,34.013452532,45.953413544,28,5,14.8,74.695475815452,20.669292,15.4572554,34.013452532,-15.211192,-2.684328,-0.223694,280.5, 4, 8.7,0,1,976,1112,1024,1024,-7,13,0,0,274.7,0,0,29,3.692,3.7,3.698,3.69,0,0,9.089,109.76,74.039307815452,20.013124,6,P-GPS,
1221200,2023-05-26 16:53:25,52.20633006935,0.0866228290413565,20.341208,20.50525,53.862141815452,74.367391815452,19.356956,13.645334,37.378938204,50.28215384,28,5,14.8,74.695475815452,20.669292,15.4572554,37.378938204,-13.42164,-2.460634,-0.223694,277.8, 5.4, 27.9,0,1,951,1229,1024,1024,-11,31,0,0,274.7,0,0,29,3.692,3.7,3.698,3.69,0,0,9.089,109.76,74.367391815452,20.341208,6,P-GPS,
1221400,2023-05-26 16:53:26,52.2063201637696,0.0866211124675766,20.341208,20.50525,53.862141815452,74.367391815452,19.68504,11.0952224,40.29363646,53.916668392,28,5,14.773,74.695475815452,20.669292,15.4572554,40.29363646,-10.961006,-1.789552,0,276.1, 5.9, 30.3,0,1,839,1684,1024,1024,-28,100,0,0,274.7,0,0,29,3.69,3.698,3.7,3.696,0,0,9.018,109.76,74.367391815452,20.341208,6,P-GPS,
1221600,2023-05-26 16:53:26,52.2063124269379,0.0866202047630674,20.341208,20.50525,53.862141815452,74.367391815452,20.013124,8.388525,42.586287452,56.746720976,28,5,14.773,74.695475815452,20.669292,15.4572554,42.586287452,-8.276678,-1.342164,0,275.8, 5, 30.2,0,1,790,1684,1024,1024,-35,100,0,0,274.7,0,0,29,3.69,3.698,3.7,3.696,0,0,9.018,109.76,74.367391815452,20.341208,6,P-GPS,
1221800,2023-05-26 16:53:26,52.206306863241,0.0866199440589139,20.341208,20.50525,53.862141815452,74.367391815452,20.341208,5.6594582,44.220145772,58.777560936,28,5,14.773,74.695475815452,20.669292,15.4572554,44.220145772,-5.59235,-0.894776,0,275.9, 4.5, 29.7,0,1,829,1640,1024,1024,-30,93,0,0,274.7,0,0,29,3.69,3.698,3.7,3.696,0,0,9.018,109.76,74.367391815452,20.341208,6,P-GPS,
1222000,2023-05-26 16:53:26,52.2063033895885,0.0866201020834595,20.013124,20.177166,53.862141815452,74.039307815452,20.669292,3.1988242,45.214240292,60.045277512,28,5,14.773,74.695475815452,20.669292,15.4572554,45.214240292,-3.131716,-0.671082,0,276.3, 5.4, 28.4,0,1,996,1247,1024,1024,-4,34,0,0,274.7,0,0,29,3.69,3.698,3.7,3.696,0,0,9.018,109.76,74.039307815452,20.013124,6,P-GPS,
1222200,2023-05-26 16:53:26,52.2063018781621,0.0866205925410992,20.013124,20.177166,53.862141815452,74.039307815452,20.669292,1.006623,45.595801984,60.607613488,28,5,14.773,74.695475815452,20.669292,15.4572554,45.595801984,-0.894776,-0.447388,0,278.2, 8, 26.2,0,1,1024,1024,1024,1024,0,0,0,0,274.7,0,0,29,3.69,3.698,3.7,3.696,0,0,9.018,109.76,74.039307815452,20.013124,6,P-GPS,
1222400,2023-05-26 16:53:27,52.2063020992399,0.0866215231860082,20.013124,20.177166,53.862141815452,74.039307815452,20.997376,1.11847,45.408794104,60.830710608,28,5,14.732,74.695475815452,20.669292,15.4572554,45.595801984,1.11847,0,0,275.7, 9.2, 17.5,0,1,1024,1024,1024,1024,0,0,0,0,274.7,0,0,29,3.686,3.697,3.695,3.688,0,0,9.79,109.76,74.039307815452,20.013124,6,P-GPS,
1222600,2023-05-26 16:53:27,52.2063034427034,0.0866227781978257,20.013124,20.177166,53.862141815452,74.039307815452,20.997376,1.342164,44.847114296,61.395671256,28,5,14.732,74.695475815452,20.669292,15.4572554,45.595801984,1.342164,0,0,276.2, 7, -18,0,1,1024,1024,1024,1024,0,0,0,0,274.7,0,0,29,3.686,3.697,3.695,3.688,0,0,9.79,109.76,74.039307815452,20.013124,6,P-GPS,
1222800,2023-05-26 16:53:27,52.206303955536,0.0866237151614798,19.68504,19.849082,53.862141815452,73.711223815452,21.32546,0,44.572836072,61.67651116,28,5,14.732,74.695475815452,20.669292,15.4572554,45.595801984,0,0,0,280, 7.7, -12.5,0,1,1024,1024,1024,1024,0,0,0,0,274.7,0,0,29,3.686,3.697,3.695,3.688,0,0,9.79,109.76,73.711223815452,19.68504,6,P-GPS,
1223000,2023-05-26 16:53:27,52.2063035723123,0.0866242786761149,19.68504,19.849082,53.862141815452,73.711223815452,20.997376,0.671082,44.613518488,61.864503292,28,5,14.732,74.695475815452,20.669292,15.4572554,45.595801984,-0.671082,0,0,279, 7.9, -3.4,0,1,1024,1024,1024,1024,0,0,0,0,274.7,0,0,29,3.686,3.697,3.695,3.688,0,0,9.79,109.76,73.711223815452,19.68504,6,P-GPS,
1223200,2023-05-26 16:53:28,52.2063029069286,0.0866246237187401,19.68504,19.849082,53.862141815452,73.711223815452,20.997376,0.671082,44.767389884,62.11942456,28,5,14.732,74.695475815452,20.669292,15.4572554,45.595801984,-0.671082,0,0,278.6, 7.9, 0.9,0,1,1024,1024,1024,1024,0,0,0,0,274.7,0,0,29,3.686,3.697,3.695,3.688,0,0,9.79,109.76,73.711223815452,19.68504,6,P-GPS,
1223400,2023-05-26 16:53:28,52.2063022548922,0.0866247974562713,19.68504,19.849082,53.862141815452,73.711223815452,20.997376,0.671082,44.939962068,62.360238216,28,5,14.782,74.695475815452,20.669292,15.4572554,45.595801984,-0.671082,0,0,278.5, 7.7, 1.4,0,1,1024,1024,1024,1024,0,0,0,0,274.7,0,0,29,3.692,3.703,3.7,3.692,0,0,7.815,109.94,73.711223815452,19.68504,6,P-GPS,
1223600,2023-05-26 16:53:28,52.2063016944789,0.0866248864079861,19.68504,19.849082,53.862141815452,73.711223815452,20.997376,0.447388,45.09678622,62.565946884,28,5,14.782,74.695475815452,20.669292,15.4572554,45.595801984,-0.447388,0,0,278.4, 8.1, 2,0,1,1024,1024,1024,1024,0,0,0,0,274.7,0,0,29,3.692,3.703,3.7,3.692,0,0,7.815,109.94,73.711223815452,19.68504,6,P-GPS,
1223800,2023-05-26 16:53:28,52.2063012732094,0.0866249211051661,20.013124,20.177166,53.862141815452,74.039307815452,20.997376,0.447388,45.218505384,62.71981828,28,5,14.782,74.695475815452,20.669292,15.4572554,45.595801984,-0.447388,0,0,278.4, 8.4, 2.1,0,1,1024,1024,1024,1024,0,0,0,0,274.7,0,0,29,3.692,3.703,3.7,3.692,0,0,7.815,109.94,74.039307815452,20.013124,6,P-GPS,
1224000,2023-05-26 16:53:28,52.2063009704119,0.0866249155832539,20.013124,20.177166,53.862141815452,74.039307815452,21.32546,0.223694,45.310368904,62.830054504,28,5,14.782,74.695475815452,20.669292,15.4572554,45.595801984,-0.223694,0,0,278.4, 8.4, 1.6,0,1,1024,1024,1024,1024,0,0,0,0,274.7,0,0,29,3.692,3.703,3.7,3.692,0,0,7.815,109.94,74.039307815452,20.013124,6,P-GPS,
1224200,2023-05-26 16:53:29,52.2063008005985,0.0866249072794163,20.013124,20.177166,53.862141815452,74.039307815452,20.997376,0,45.36253426,62.89206238,28,5,14.782,74.695475815452,20.669292,15.4572554,45.595801984,0,0,0,278.4, 8.4, 1.6,0,1,1024,1024,1024,1024,0,0,0,0,274.7,0,0,29,3.692,3.703,3.7,3.692,0,0,7.815,109.94,74.039307815452,20.013124,6,P-GPS,
1224400,2023-05-26 16:53:29,52.2063007604968,0.0866249127593899,20.013124,20.177166,53.862141815452,74.039307815452,20.997376,0,45.373689116,62.90682616,28,5,14.78,74.695475815452,20.669292,15.4572554,45.595801984,0,0,0,278.6, 8.1, 0.6,0,1,1024,1024,1024,1024,0,0,0,0,274.7,0,0,29,3.69,3.7,3.697,3.692,0,0,8.783,110.12,74.039307815452,20.013124,6,P-GPS,
1224600,2023-05-26 16:53:29,52.2063007549882,0.086624978854582,20.013124,20.177166,53.862141815452,74.039307815452,20.997376,0.223694,45.367127436,62.921918024,28,5,14.78,74.695475815452,20.669292,15.4572554,45.595801984,0,0.223694,0,278.2, 6.2, 0.9,0,1,1024,1024,1024,1024,0,0,0,0,274.7,0,0,29,3.69,3.7,3.697,3.692,0,0,8.783,110.12,74.039307815452,20.013124,6,P-GPS,
1224800,2023-05-26 16:53:29,52.2063007546113,0.0866250625360161,20.013124,20.177166,53.862141815452,74.039307815452,20.997376,0,45.356628748,62.940618812,28,5,14.78,74.695475815452,20.669292,15.4572554,45.595801984,0,0,0,278.3, 6.4, 0.3,0,1,1024,1024,1024,1024,0,0,0,0,274.7,0,0,29,3.69,3.7,3.697,3.692,0,0,8.783,110.12,74.039307815452,20.013124,6,P-GPS,
1225000,2023-05-26 16:53:29,52.2063007120594,0.0866251139806664,20.013124,20.177166,53.862141815452,74.039307815452,20.997376,0,45.362862344,62.959647684,28,5,14.78,74.695475815452,20.669292,15.4572554,45.595801984,0,0,0,278.1, 5.7, 1,0,1,1024,1024,1024,1024,0,0,0,0,274.7,0,0,29,3.69,3.7,3.697,3.692,0,0,8.783,110.12,74.039307815452,20.013124,6,P-GPS,
1225200,2023-05-26 16:53:29,52.2063006443551,0.0866251367393324,20.013124,20.177166,53.862141815452,74.039307815452,20.997376,0,45.38057888,62.984910152,28,5,14.78,74.695475815452,20.669292,15.4572554,45.595801984,0,0,0,278, 5.1, 1.5,0,1,1024,1024,1024,1024,0,0,0,0,274.7,0,0,29,3.69,3.7,3.697,3.692,0,0,8.783,110.12,74.039307815452,20.013124,6,P-GPS,
1225400,2023-05-26 16:53:30,52.2063005809342,0.0866251029508215,20.013124,20.177166,53.862141815452,74.039307815452,20.997376,0,45.403872844,63.009516452,28,5,14.78,74.695475815452,20.669292,15.4572554,45.595801984,0,0,0,278.4, 4.5, 1.9,0,1,1024,1024,1024,1024,0,0,0,0,274.7,0,0,29,3.692,3.701,3.698,3.692,0,0,7.98,109.94,74.039307815452,20.013124,6,P-GPS,
1225600,2023-05-26 16:53:30,52.2063005325312,0.0866249863615867,19.68504,19.849082,53.862141815452,73.711223815452,20.997376,0,45.43307232,63.040684432,28,5,14.78,74.695475815452,20.669292,15.4572554,45.595801984,0,0,0,278.2, 5, 2.9,0,1,1024,1024,1024,1024,0,0,0,0,274.7,-1.3,0,29,3.692,3.701,3.698,3.692,0,0,7.98,109.94,73.711223815452,19.68504,6,P-GPS,
1225800,2023-05-26 16:53:30,52.2063005667389,0.0866248322652875,19.68504,19.849082,53.862141815452,73.711223815452,20.669292,0,45.442258672,63.07742984,28,5,14.78,74.695475815452,20.669292,15.4572554,45.595801984,0,0,0,278.7, 5.2, 1.9,0,1,1024,1024,1024,1024,0,0,0,0,274.7,-3.8,0,29,3.692,3.701,3.698,3.692,0,0,7.98,109.94,73.711223815452,19.68504,6,P-GPS,
1226000,2023-05-26 16:53:30,52.2063006133257,0.0866246870180273,19.68504,19.849082,53.862141815452,73.711223815452,20.669292,0,45.446523764,63.114175248,28,5,14.78,74.695475815452,20.669292,15.4572554,45.595801984,0,0,0,278, 4.5, 1.4,0,1,1024,1024,1024,1024,0,0,0,0,274.7,-6.7,0,29,3.692,3.701,3.698,3.692,0,0,7.98,109.94,73.711223815452,19.68504,6,P-GPS,
1226200,2023-05-26 16:53:31,52.2063006192712,0.0866245534017315,19.68504,19.849082,53.862141815452,73.711223815452,20.669292,0,45.461943712,63.144030892,28,5,14.78,74.695475815452,20.669292,15.4572554,45.595801984,0,0,0,278.4, 4.3, 1.9,0,1,1024,1024,1024,1024,0,0,0,0,274.7,-9.6,0,29,3.692,3.701,3.698,3.692,0,0,7.98,109.94,73.711223815452,19.68504,6,P-GPS,
1226400,2023-05-26 16:53:31,52.2063006084255,0.086624456034343,19.68504,19.849082,53.862141815452,73.711223815452,20.669292,0,45.47736366,63.166340604,28,5,14.783,74.695475815452,20.669292,15.4572554,45.595801984,0,0,0,278.1, 3.1, 2.1,0,1,1024,1024,1024,1024,0,0,0,0,274.7,-12.5,0,29,3.689,3.7,3.696,3.691,0,0,7.791,110.12,73.711223815452,19.68504,6,P-GPS,
1226600,2023-05-26 16:53:31,52.2063006526993,0.0866242782846882,19.68504,19.849082,53.862141815452,73.711223815452,20.669292,0,45.486550012,63.208991524,28,5,14.783,74.695475815452,20.669292,15.4572554,45.595801984,0,0,0,278, 4.3, 3.2,0,1,1024,1024,1024,1024,0,0,0,0,274.7,-15.5,0,29,3.689,3.7,3.696,3.691,0,0,7.791,110.12,73.711223815452,19.68504,6,P-GPS,
1226800,2023-05-26 16:53:31,52.2063007986452,0.0866240044397816,19.68504,19.849082,53.862141815452,73.711223815452,20.997376,0.223694,45.477691744,63.290356356,28,5,14.783,74.695475815452,20.669292,15.4572554,45.595801984,0.223694,0,0,278.1, 5.3, 1.3,0,1,1024,1024,1024,1024,0,0,0,0,274.7,-18.4,0,29,3.689,3.7,3.696,3.691,0,0,7.791,110.12,73.711223815452,19.68504,6,P-GPS,
1227000,2023-05-26 16:53:31,52.2063009758604,0.0866237124494521,19.68504,19.849082,53.862141815452,73.711223815452,20.997376,0,45.461615628,63.382219876,28,5,14.783,74.695475815452,20.669292,15.4572554,45.595801984,0,0,0,278.5, 6.5, 0.2,0,1,1024,1024,1024,1024,0,0,0,0,274.7,-21.3,0,29,3.689,3.7,3.696,3.691,0,0,7.791,110.12,73.711223815452,19.68504,6,P-GPS,
1227200,2023-05-26 16:53:31,52.2063011226117,0.0866234617546381,19.68504,19.849082,53.862141815452,73.711223815452,20.997376,0.223694,45.449804604,63.4596477,28,5,14.783,74.695475815452,20.669292,15.4572554,45.595801984,0.223694,0,0,278.2, 6.5, 1.3,0,1,1024,1024,1024,1024,0,0,0,0,274.7,-24.2,0,29,3.689,3.7,3.696,3.691,0,0,7.791,110.12,73.711223815452,19.68504,6,P-GPS,
1227400,2023-05-26 16:53:32,52.2063012922794,0.0866232967962483,19.68504,19.849082,53.862141815452,73.711223815452,20.669292,0.223694,45.420277044,63.53182618,28,5,14.78,74.695475815452,20.669292,15.4572554,45.595801984,0.223694,0,0,278.4, 5.8, -0.1,0,1,1024,1024,1024,1024,0,0,0,0,274.7,-27.1,0,29,3.688,3.7,3.695,3.689,0,0,8.006,110.12,73.711223815452,19.68504,6,P-GPS,
1227600,2023-05-26 16:53:32,52.2063014443421,0.0866231686459467,19.68504,19.849082,53.862141815452,73.711223815452,20.669292,0,45.391077568,63.59416214,28,5,14.78,74.695475815452,20.669292,15.4572554,45.595801984,0,0,0,278.6, 5.6, -1.4,0,1,1024,1024,1024,1024,0,0,0,0,274.7,-30.1,0,29,3.688,3.7,3.695,3.689,0,0,8.006,110.12,73.711223815452,19.68504,6,P-GPS,
1227800,2023-05-26 16:53:32,52.2063014397417,0.086623008328759,19.68504,19.849082,53.862141815452,73.711223815452,20.997376,0,45.413059196,63.629923296,28,5,14.78,74.695475815452,20.669292,15.4572554,45.595801984,0,0,0,277.9, 6.9, -0.1,0,1,1024,1024,1024,1024,0,0,0,0,274.7,-33,0,29,3.688,3.7,3.695,3.689,0,0,8.006,110.12,73.711223815452,19.68504,6,P-GPS,
1228000,2023-05-26 16:53:32,52.2063013733995,0.0866228222473076,19.68504,19.849082,53.862141815452,73.711223815452,20.997376,0,45.456694368,63.678151644,28,5,14.78,74.695475815452,20.669292,15.4572554,45.595801984,0,0,0,278.5, 7.6, 1.4,0,1,1024,1024,1024,1024,0,0,0,0,274.7,-35.9,0,29,3.688,3.7,3.695,3.689,0,0,8.006,110.12,73.711223815452,19.68504,6,P-GPS,
1228200,2023-05-26 16:53:32,52.2063012673582,0.0866227090550972,19.68504,19.849082,53.862141815452,73.711223815452,20.669292,0,45.502954212,63.724411488,28,5,14.78,74.695475815452,20.669292,15.4572554,45.595801984,0,0,0,278.7, 6.4, 0.7,0,1,1024,1024,1024,1024,0,0,0,0,274.7,-38.8,0,29,3.688,3.7,3.695,3.689,0,0,8.006,110.12,73.711223815452,19.68504,6,P-GPS,
1228400,2023-05-26 16:53:33,52.2063010996181,0.0866226443019394,19.68504,19.849082,53.862141815452,73.711223815452,20.997376,0,45.561353164,63.787403616,28,5,14.779,74.695475815452,20.669292,15.4572554,45.595801984,0,0,0,278.1, 6.8, 2.5,0,1,1024,1024,1024,1024,0,0,0,0,274.7,-41.7,0,29,3.688,3.697,3.695,3.689,0,0,8.038,110.12,73.711223815452,19.68504,6,P-GPS,
1228600,2023-05-26 16:53:33,52.2063009588808,0.0866225682113873,19.68504,19.849082,53.862141815452,73.711223815452,20.997376,0,45.613190436,63.841537476,28,5,14.779,74.695475815452,20.669292,15.4572554,45.613190436,0,0,0,278.3, 6.6, 2.6,0,1,1024,1024,1024,1024,0,0,0,0,274.7,-44.7,0,29,3.688,3.697,3.695,3.689,0,0,8.038,110.12,73.711223815452,19.68504,6,P-GPS,
1228800,2023-05-26 16:53:33,52.206300841891,0.0866225434816083,19.68504,19.849082,53.862141815452,73.711223815452,20.997376,0,45.65124818,63.88451648,28,5,14.779,74.695475815452,20.669292,15.4572554,45.65124818,0,0,0,278.3, 6.6, 2.7,0,1,1024,1024,1024,1024,0,0,0,0,274.7,-47.6,0,29,3.688,3.697,3.695,3.689,0,0,8.038,110.12,73.711223815452,19.68504,6,P-GPS,
1229000,2023-05-26 16:53:33,52.2063007570957,0.0866226218088844,19.68504,19.849082,53.862141815452,73.711223815452,20.669292,0,45.666668128,63.919949552,28,5,14.779,74.695475815452,20.669292,15.4572554,45.666668128,0,0,0,278.3, 5.6, 2.6,0,1,1024,1024,1024,1024,0,0,0,0,274.7,-50.3,0,29,3.688,3.697,3.695,3.689,0,0,8.038,110.12,73.711223815452,19.68504,6,P-GPS,
1229200,2023-05-26 16:53:33,52.206300745479,0.0866227209516726,19.68504,19.849082,53.862141815452,73.711223815452,20.669292,0,45.657481776,63.942587348,28,5,14.779,74.695475815452,20.669292,15.4572554,45.666668128,0,0,0,278.5, 5.5, 2,0,1,1024,1024,1024,1024,0,0,0,0,274.7,-51.5,0,29,3.688,3.697,3.695,3.689,0,0,8.038,110.12,73.711223815452,19.68504,6,P-GPS,
1229400,2023-05-26 16:53:34,52.206300736518,0.086622842140171,19.68504,19.849082,53.862141815452,73.711223815452,20.997376,0,45.6446865,63.96981832,28,5,14.773,74.695475815452,20.669292,15.4572554,45.666668128,0,0,0,278, 4.9, 1.8,0,1,1024,1024,1024,1024,0,0,0,0,274.7,-52.8,0,29,3.688,3.699,3.696,3.69,0,0,8.092,110.3,73.711223815452,19.68504,6,P-GPS,
1229600,2023-05-26 16:53:34,52.2063007203265,0.0866229507470973,19.68504,19.849082,53.862141815452,73.711223815452,20.997376,0,45.635500148,63.994752704,28,5,14.773,74.695475815452,20.669292,15.4572554,45.666668128,0,0,0,278.2, 4.3, 2.3,0,1,1024,1024,1024,1024,0,0,0,0,274.7,-55.3,0,29,3.688,3.699,3.696,3.69,0,0,8.092,110.3,73.711223815452,19.68504,6,P-GPS,
1229800,2023-05-26 16:53:34,52.2063007488629,0.0866230001087985,19.68504,19.849082,53.862141815452,73.711223815452,20.997376,0,45.620736368,64.010172652,28,5,14.773,74.695475815452,20.669292,15.4572554,45.666668128,0,0,0,278.4, 5.4, 1.7,0,1,1024,1024,1024,1024,0,0,0,0,274.7,-58.2,0,29,3.688,3.699,3.696,3.69,0,0,8.092,110.3,73.711223815452,19.68504,6,P-GPS,
1230000,2023-05-26 16:53:34,52.2063008050961,0.0866229830957172,19.68504,19.849082,53.862141815452,73.711223815452,20.997376,0,45.605972588,64.030841944,28,5,14.773,74.695475815452,20.669292,15.4572554,45.666668128,0,0,0,278.4, 6.1, 0.8,0,1,1024,1024,1024,1024,0,0,0,0,274.7,-61.1,0,29,3.688,3.699,3.696,3.69,0,0,8.092,110.3,73.711223815452,19.68504,6,P-GPS,
1230200,2023-05-26 16:53:35,52.2063008143484,0.0866230013529762,19.68504,19.849082,53.862141815452,73.711223815452,20.997376,0,45.601051328,64.036091288,28,5,14.773,74.695475815452,20.669292,15.4572554,45.666668128,0,0,0,278.3, 5.3, 1.4,0,1,1024,1024,1024,1024,0,0,0,0,274.7,-64,0,29,3.688,3.699,3.696,3.69,0,0,8.092,110.3,73.711223815452,19.68504,6,P-GPS,
1230400,2023-05-26 16:53:35,52.2063007901554,0.086623021120024,19.68504,19.849082,53.862141815452,73.711223815452,20.997376,0,45.605644504,64.045933808,28,5,14.769,74.695475815452,20.669292,15.4572554,45.666668128,0,0,0,278.2, 5.6, 1.7,0,1,1024,1024,1024,1024,0,0,0,0,274.7,-66.9,0,29,3.685,3.697,3.694,3.689,0,0,8.079,110.3,73.711223815452,19.68504,6,P-GPS,
1230600,2023-05-26 16:53:35,52.2063007978999,0.0866230184499348,19.68504,19.849082,53.862141815452,73.711223815452,20.997376,0,45.603676,64.048886564,28,5,14.769,74.695475815452,20.669292,15.4572554,45.666668128,0,0,0,278.2, 5.4, 1.6,0,1,1024,1024,1024,1024,0,0,0,0,274.7,-69.8,0,29,3.685,3.697,3.694,3.689,0,0,8.079,110.3,73.711223815452,19.68504,6,P-GPS,
1230800,2023-05-26 16:53:35,52.2063008280811,0.0866229938459716,19.68504,19.849082,53.862141815452,73.711223815452,20.997376,0,45.597770488,64.061353756,28,5,14.769,74.695475815452,20.669292,15.4572554,45.666668128,0,0,0,278.3, 5.8, 1.3,0,1,1024,1024,1024,1024,0,0,0,0,274.7,-72.8,0,29,3.685,3.697,3.694,3.689,0,0,8.079,110.3,73.711223815452,19.68504,6,P-GPS,
1231000,2023-05-26 16:53:35,52.2063008741369,0.0866229865626393,19.68504,19.849082,53.862141815452,73.711223815452,20.997376,0,45.584975212,64.07808604,28,5,14.769,74.695475815452,20.669292,15.4572554,45.666668128,0,0,0,278.1, 5.8, 0.9,0,1,1024,1024,1024,1024,0,0,0,0,274.7,-75.7,0,29,3.685,3.697,3.694,3.689,0,0,8.079,110.3,73.711223815452,19.68504,6,P-GPS,
1231200,2023-05-26 16:53:35,52.2063009088586,0.0866229398430682,19.68504,19.849082,53.862141815452,73.711223815452,20.997376,0,45.580382036,64.09449024,28,5,14.769,74.695475815452,20.669292,15.4572554,45.666668128,0,0,0,278.3, 5.8, 0.4,0,1,1024,1024,1024,1024,0,0,0,0,274.7,-78.6,0,29,3.685,3.697,3.694,3.689,0,0,8.079,110.3,73.711223815452,19.68504,6,P-GPS,
1231400,2023-05-26 16:53:36,52.2063009332829,0.0866229100527013,19.68504,19.849082,53.862141815452,73.711223815452,20.997376,0,45.577101196,64.105645096,28,5,14.769,74.695475815452,20.669292,15.4572554,45.666668128,0,0,0,278.4, 5.8, -0.4,0,1,1024,1024,1024,1024,0,0,0,0,274.7,-81.5,0,29,3.685,3.697,3.691,3.686,0,0,8.015,110.3,73.711223815452,19.68504,6,P-GPS,
1231600,2023-05-26 16:53:36,52.2063009151638,0.0866228928159475,19.68504,19.849082,53.862141815452,73.711223815452,20.997376,0,45.584647128,64.113191028,28,5,14.769,74.695475815452,20.669292,15.4572554,45.666668128,0,0,0,278.2, 6.6, -0.3,0,1,1024,1024,1024,1024,0,0,0,0,274.7,-83.2,0,29,3.685,3.697,3.691,3.686,0,0,8.015,110.3,73.711223815452,19.68504,6,P-GPS,
1231800,2023-05-26 16:53:36,52.2063008814959,0.0866228888178035,19.68504,19.849082,53.862141815452,73.711223815452,20.997376,0,45.595145816,64.12565822,28,5,14.769,74.695475815452,20.669292,15.4572554,45.666668128,0,0,0,278.4, 6.7, 0.1,0,1,1024,1024,1024,1024,0,0,0,0,274.7,-84.1,0,29,3.685,3.697,3.691,3.686,0,0,8.015,110.3,73.711223815452,19.68504,6,P-GPS,
1232000,2023-05-26 16:53:36,52.2063007861975,0.0866228763900062,19.68504,19.849082,53.862141815452,73.711223815452,20.997376,0,45.625329544,64.160435124,28,5,14.769,74.695475815452,20.669292,15.4572554,45.666668128,0,0,0,278.3, 6.7, 0.6,0,1,1024,1024,1024,1024,0,0,0,0,274.7,-86.3,0,29,3.685,3.697,3.691,3.686,0,0,8.015,110.3,73.711223815452,19.68504,6,P-GPS,
1232200,2023-05-26 16:53:36,52.2063006565801,0.0866228457888269,19.68504,19.849082,53.862141815452,73.711223815452,20.669292,0,45.667980464,64.208335388,28,5,14.769,74.695475815452,20.669292,15.4572554,45.667980464,0,0,0,278.3, 6.5, 1.1,0,1,1024,1024,1024,1024,0,0,0,0,274.7,-89.1,0,29,3.685,3.697,3.691,3.686,0,0,8.015,110.3,73.711223815452,19.68504,6,P-GPS,
1232400,2023-05-26 16:53:37,52.2063004992573,0.0866227663431888,20.013124,20.177166,53.862141815452,74.039307815452,20.997376,0,45.725395164,64.26837476,28,5,14.763,74.695475815452,20.669292,15.4572554,45.725395164,0,0,0,278.2, 7.4, 1.8,0,1,1024,1024,1024,1024,0,0,0,0,274.7,-89.9,0,29,3.685,3.695,3.691,3.686,0,0,8.089,110.3,74.039307815452,20.013124,6,P-GPS,
1232600,2023-05-26 16:53:37,52.2063003499617,0.0866227660076803,20.013124,20.177166,53.862141815452,74.039307815452,20.997376,0,45.770014588,64.322836704,28,5,14.763,74.695475815452,20.669292,15.4572554,45.770014588,0,0,0,278.3, 6.1, 2.3,0,1,1024,1024,1024,1024,0,0,0,0,274.7,-90,0,29,3.685,3.695,3.691,3.686,0,0,8.089,110.3,74.039307815452,20.013124,6,P-GPS,
1232800,2023-05-26 16:53:37,52.2063002470473,0.0866228690088172,20.013124,20.177166,53.862141815452,74.039307815452,20.997376,0,45.787731124,64.36679996,28,5,14.763,74.695475815452,20.669292,15.4572554,45.787731124,0,0,0,278.3, 5.9, 1.7,0,1,1024,1024,1024,1024,0,0,0,0,274.7,-90,0,29,3.685,3.695,3.691,3.686,0,0,8.089,110.3,74.039307815452,20.013124,6,P-GPS,
1233000,2023-05-26 16:53:37,52.206300211546,0.0866229419819354,20.013124,20.177166,53.862141815452,74.039307815452,20.997376,0,45.78904346,64.387797336,28,5,14.763,74.695475815452,20.669292,15.4572554,45.78904346,0,0,0,278.4, 6.7, 1,0,1,1024,1024,1024,1024,0,0,0,0,274.7,-90,0,29,3.685,3.695,3.691,3.686,0,0,8.089,110.3,74.039307815452,20.013124,6,P-GPS,
1233200,2023-05-26 16:53:37,52.2063001510636,0.0866230179326924,20.013124,20.177166,53.862141815452,74.039307815452,20.997376,0,45.797573644,64.415684476,28,5,14.763,74.695475815452,20.669292,15.4572554,45.797573644,0,0,0,278.2, 5.5, 0.9,0,1,1024,1024,1024,1024,0,0,0,0,274.7,-89.9,0,29,3.685,3.695,3.691,3.686,0,0,8.089,110.3,74.039307815452,20.013124,6,P-GPS,
1233400,2023-05-26 16:53:38,52.2063000908553,0.0866230837063554,20.013124,20.177166,53.862141815452,74.039307815452,20.997376,0,45.80708808,64.441931196,28,5,14.761,74.695475815452,20.669292,15.4572554,45.80708808,0,0,0,278.2, 5.5, 1,0,1,1024,1024,1024,1024,0,0,0,0,274.7,-89.9,0,28,3.686,3.695,3.691,3.688,0,0,8.015,110.48,74.039307815452,20.013124,6,P-GPS,
1233600,2023-05-26 16:53:38,52.2063000152009,0.0866231378071155,20.013124,20.177166,53.862141815452,74.039307815452,20.997376,0,45.822836112,64.472114924,28,5,14.761,74.695475815452,20.669292,15.4572554,45.822836112,0,0,0,278.3, 5.5, 1.7,0,1,1024,1024,1024,1024,0,0,0,0,274.7,-89.9,0,28,3.686,3.695,3.691,3.688,0,0,8.015,110.48,74.039307815452,20.013124,6,P-GPS,
1233800,2023-05-26 16:53:38,52.2062999544015,0.0866231055563523,20.013124,20.177166,53.862141815452,74.039307815452,20.997376,0,45.845145824,64.495408888,28,5,14.761,74.695475815452,20.669292,15.4572554,45.845145824,0,0,0,278.3, 6.2, 1.9,0,1,1024,1024,1024,1024,0,0,0,0,274.7,-89.9,0,28,3.686,3.695,3.691,3.688,0,0,8.015,110.48,74.039307815452,20.013124,6,P-GPS,
1234000,2023-05-26 16:53:38,52.2062999407116,0.0866230180445286,20.013124,20.177166,53.862141815452,74.039307815452,20.997376,0,45.860565772,64.515750096,28,5,14.761,74.695475815452,20.669292,15.4572554,45.860565772,0,0,0,278.5, 6.4, 1.1,0,1,1024,1024,1024,1024,0,0,0,0,274.7,-89.9,0,28,3.686,3.695,3.691,3.688,0,0,8.015,110.48,74.039307815452,20.013124,6,P-GPS,
1234200,2023-05-26 16:53:39,52.2062999195171,0.0866229493211858,20.013124,20.177166,53.862141815452,74.039307815452,20.997376,0,45.875657636,64.532810464,28,5,14.761,74.695475815452,20.669292,15.4572554,45.875657636,0,0,0,278.5, 6.5, 1.8,0,1,1024,1024,1024,1024,0,0,0,0,274.7,-89.9,0,28,3.686,3.695,3.691,3.688,0,0,8.015,110.48,74.039307815452,20.013124,6,P-GPS,
1234400,2023-05-26 16:53:39,52.2062999235949,0.0866229196426552,20.013124,20.177166,53.862141815452,74.039307815452,20.997376,0,45.878282308,64.539700228,28,5,14.769,74.695475815452,20.669292,15.4572554,45.878282308,0,0,0,278.7, 5.9, 0.2,0,1,1024,1024,1024,1024,0,0,0,0,274.7,-90,0,28,3.684,3.696,3.691,3.686,0,0,8.053,110.48,74.039307815452,20.013124,6,P-GPS,
1234600,2023-05-26 16:53:39,52.2062998602768,0.086622924381714,20.013124,20.177166,53.862141815452,74.039307815452,20.997376,0,45.896655012,64.562666108,28,5,14.769,74.695475815452,20.669292,15.4572554,45.896655012,0,0,0,278.1, 5, 1.5,0,1,1024,1024,1024,1024,0,0,0,0,274.7,-90,0,28,3.684,3.696,3.691,3.686,0,0,8.053,110.48,74.039307815452,20.013124,6,P-GPS,
1234800,2023-05-26 16:53:39,52.2062997927952,0.0866228921728894,20.013124,20.177166,53.862141815452,74.039307815452,20.997376,0,45.920933228,64.588584744,28,5,14.769,74.695475815452,20.669292,15.4572554,45.920933228,0,0,0,278.1, 5.5, 2.7,0,1,1024,1024,1024,1024,0,0,0,0,274.7,-90,0,28,3.684,3.696,3.691,3.686,0,0,8.053,110.48,74.039307815452,20.013124,6,P-GPS,
1235000,2023-05-26 16:53:39,52.2062997617316,0.0866227832863726,20.013124,20.177166,53.862141815452,74.039307815452,20.997376,0,45.944227192,64.615159548,28,5,14.769,74.695475815452,20.669292,15.4572554,45.944227192,0,0,0,278.2, 6, 1.9,0,1,1024,1024,1024,1024,0,0,0,0,274.7,-89.9,0,28,3.684,3.696,3.691,3.686,0,0,8.053,110.48,74.039307815452,20.013124,6,P-GPS,
1235200,2023-05-26 16:53:39,52.2062997978069,0.0866226433932703,20.013124,20.177166,53.862141815452,74.039307815452,20.997376,0,45.951116956,64.649280284,28,5,14.769,74.695475815452,20.669292,15.4572554,45.951116956,0,0,0,278.3, 6.2, 1.3,0,1,1024,1024,1024,1024,0,0,0,0,274.7,-89.9,0,28,3.684,3.696,3.691,3.686,0,0,8.053,110.48,74.039307815452,20.013124,6,P-GPS,
1235400,2023-05-26 16:53:40,52.2062998574497,0.0866225505133092,20.013124,20.177166,53.862141815452,74.039307815452,20.997376,0,45.94488336,64.679464012,28,5,14.759,74.695475815452,20.669292,15.4572554,45.951116956,0,0,0,278.3, 6.3, 0.7,0,1,1024,1024,1024,1024,0,0,0,0,274.7,-89.9,0,28,3.685,3.697,3.691,3.685,0,0,8.016,110.48,74.039307815452,20.013124,6,P-GPS,
1235600,2023-05-26 16:53:40,52.206299893585,0.0866224667200389,20.013124,20.177166,53.862141815452,74.039307815452,20.997376,0,45.94488336,64.702101808,28,5,14.759,74.695475815452,20.669292,15.4572554,45.951116956,0,0,0,278.3, 6.7, 0.4,0,1,1024,1024,1024,1024,0,0,0,0,274.7,-89.9,0,28,3.685,3.697,3.691,3.685,0,0,8.016,110.48,74.039307815452,20.013124,6,P-GPS,
1235800,2023-05-26 16:53:40,52.2062998653399,0.0866224101309235,20.013124,20.177166,53.862141815452,74.039307815452,20.997376,0,45.960631392,64.718506008,28,5,14.759,74.695475815452,20.669292,15.4572554,45.960631392,0,0,0,278.2, 5.9, 1.3,0,1,1024,1024,1024,1024,0,0,0,0,274.7,-90,0,28,3.685,3.697,3.691,3.685,0,0,8.016,110.48,74.039307815452,20.013124,6,P-GPS,
1236000,2023-05-26 16:53:40,52.2062998080444,0.086622339520345,20.013124,20.177166,53.862141815452,74.039307815452,20.997376,0,45.986878112,64.744752728,28,5,14.759,74.695475815452,20.669292,15.4572554,45.986878112,0,0,0,278.3, 6.5, 1.7,0,1,1024,1024,1024,1024,0,0,0,0,274.7,-90,0,28,3.685,3.697,3.691,3.685,0,0,8.016,110.48,74.039307815452,20.013124,6,P-GPS,
1236200,2023-05-26 16:53:40,52.2062997412653,0.0866222417195911,20.013124,20.177166,53.862141815452,74.039307815452,20.997376,0,46.019358428,64.777561128,28,5,14.759,74.695475815452,20.669292,15.4572554,46.019358428,0,0,0,278.3, 6.1, 2.2,0,1,1024,1024,1024,1024,0,0,0,0,274.7,-90,0,28,3.685,3.697,3.691,3.685,0,0,8.016,110.48,74.039307815452,20.013124,6,P-GPS,
1236400,2023-05-26 16:53:41,52.2062996979595,0.0866221788536692,20.013124,20.177166,53.862141815452,74.039307815452,21.32546,0,46.040355804,64.798558504,28,5,14.758,74.695475815452,20.669292,15.4572554,46.040355804,0,0,0,278.4, 6.5, 1.8,0,1,1024,1024,1024,1024,0,0,0,0,274.7,-90,0,28,3.683,3.696,3.692,3.687,0,0,8.273,110.48,74.039307815452,20.013124,6,P-GPS,
1236600,2023-05-26 16:53:41,52.2062996638032,0.0866221526560402,20.013124,20.177166,53.862141815452,74.039307815452,21.32546,0,46.053807248,64.812338032,28,5,14.758,74.695475815452,20.669292,15.4572554,46.053807248,0,0,0,278.3, 6.3, 1.4,0,1,1024,1024,1024,1024,0,0,0,0,274.7,-89.9,0,28,3.683,3.696,3.692,3.687,0,0,8.273,110.48,74.039307815452,20.013124,6,P-GPS,
1236800,2023-05-26 16:53:41,52.2062996394817,0.0866221239840353,20.013124,20.177166,53.862141815452,74.039307815452,20.997376,0,46.06463402,64.823492888,28,5,14.758,74.695475815452,20.669292,15.4572554,46.06463402,0,0,0,278.4, 6.4, 1.3,0,1,1024,1024,1024,1024,0,0,0,0,274.7,-90,0,28,3.683,3.696,3.692,3.687,0,0,8.273,110.48,74.039307815452,20.013124,6,P-GPS,
1237000,2023-05-26 16:53:41,52.2062996227334,0.0866220749159041,20.013124,20.177166,53.862141815452,74.039307815452,20.997376,0,46.07611696,64.83596008,28,5,14.758,74.695475815452,20.669292,15.4572554,46.07611696,0,0,0,278.3, 6.2, 1.4,0,1,1024,1024,1024,1024,0,0,0,0,274.7,-89.9,0,28,3.683,3.696,3.692,3.687,0,0,8.273,110.48,74.039307815452,20.013124,6,P-GPS,
1237200,2023-05-26 16:53:41,52.2062995879603,0.0866219631356257,20.013124,20.177166,53.862141815452,74.039307815452,20.997376,0,46.10072326,64.86384722,28,5,14.758,74.695475815452,20.669292,15.4572554,46.10072326,0,0,0,278.3, 6.7, 1.7,0,1,1024,1024,1024,1024,0,0,0,0,274.7,-90,0,28,3.683,3.696,3.692,3.687,0,0,8.273,110.48,74.039307815452,20.013124,6,P-GPS,
1237400,2023-05-26 16:53:42,52.2062995730282,0.0866218601344887,20.013124,20.177166,53.862141815452,74.039307815452,20.997376,0,46.118439796,64.887469268,28,5,14.759,74.695475815452,20.669292,15.4572554,46.118439796,0,0,0,278.3, 6.4, 1.4,0,1,1024,1024,1024,1024,0,0,0,0,274.7,-90,0,28,3.682,3.695,3.691,3.686,0,0,7.933,110.48,74.039307815452,20.013124,6,P-GPS,
1237600,2023-05-26 16:53:42,52.2062995445603,0.0866217577764099,20.013124,20.177166,53.862141815452,74.039307815452,20.997376,0,46.14009334,64.912731736,28,5,14.759,74.695475815452,20.669292,15.4572554,46.14009334,0,0,0,278.4, 6.3, 1.3,0,1,1024,1024,1024,1024,0,0,0,0,274.7,-89.9,0,28,3.682,3.695,3.691,3.686,0,0,7.933,110.48,74.039307815452,20.013124,6,P-GPS,
1237800,2023-05-26 16:53:42,52.2062995120832,0.0866216527063033,20.013124,20.177166,53.862141815452,74.039307815452,20.997376,0,46.16305922,64.938978456,28,5,14.759,74.695475815452,20.669292,15.4572554,46.16305922,0,0,0,278.4, 6.7, 1.2,0,1,1024,1024,1024,1024,0,0,0,0,274.7,-90,0,28,3.682,3.695,3.691,3.686,0,0,7.933,110.48,74.039307815452,20.013124,6,P-GPS,
1238000,2023-05-26 16:53:42,52.2062994503071,0.0866215173565465,20.013124,20.177166,53.862141815452,74.039307815452,20.997376,0,46.198820376,64.976708116,28,5,14.759,74.695475815452,20.669292,15.4572554,46.198820376,0,0,0,278.4, 6.8, 1.6,0,1,1024,1024,1024,1024,0,0,0,0,274.7,-89.9,0,28,3.682,3.695,3.691,3.686,0,0,7.933,110.48,74.039307815452,20.013124,6,P-GPS,
1238200,2023-05-26 16:53:43,52.2062993598063,0.0866213271511353,20.013124,20.177166,53.862141815452,74.039307815452,20.997376,0,46.250329564,65.030513892,28,5,14.759,74.695475815452,20.669292,15.4572554,46.250329564,0,0,0,278.5, 7.9, 1.8,0,1,1024,1024,1024,1024,0,0,0,0,274.7,-89.9,0,28,3.682,3.695,3.691,3.686,0,0,7.933,110.48,74.039307815452,20.013124,6,P-GPS,
1238400,2023-05-26 16:53:43,52.2062993007374,0.0866211170947993,20.013124,20.177166,53.862141815452,74.039307815452,20.997376,0,46.294948988,65.082351164,28,5,14.753,74.695475815452,20.669292,15.4572554,46.294948988,0,0,0,278.4, 8.1, 2.3,0,1,1024,1024,1024,1024,0,0,0,0,274.7,-89.9,0,28,3.684,3.696,3.692,3.687,0,0,7.936,110.48,74.039307815452,20.013124,6,P-GPS,
1238600,2023-05-26 16:53:43,52.2062992991097,0.0866209170897414,20.013124,20.177166,53.862141815452,74.039307815452,20.997376,0,46.320867624,65.126970588,28,5,14.753,74.695475815452,20.669292,15.4572554,46.320867624,0,0,0,278.5, 8.9, 0.9,0,1,1024,1024,1024,1024,0,0,0,0,274.7,-90,0,28,3.684,3.696,3.692,3.687,0,0,7.936,110.48,74.039307815452,20.013124,6,P-GPS,
1238800,2023-05-26 16:53:43,52.2062993202614,0.0866207429328244,20.013124,20.177166,53.862141815452,74.039307815452,20.997376,0,46.33694374,65.166668752,28,5,14.753,74.695475815452,20.669292,15.4572554,46.33694374,0,0,0,278.3, 8.5, 0.2,0,1,1024,1024,1024,1024,0,0,0,0,274.7,-89.9,0,28,3.684,3.696,3.692,3.687,0,0,7.936,110.48,74.039307815452,20.013124,6,P-GPS,
1239000,2023-05-26 16:53:43,52.2062993052179,0.0866206114414164,20.013124,20.177166,53.862141815452,74.039307815452,20.997376,0,46.3582692,65.196524396,28,5,14.753,74.695475815452,20.669292,15.4572554,46.3582692,0,0,0,278.4, 9.2, 0.6,0,1,1024,1024,1024,1024,0,0,0,0,274.7,-90,0,28,3.684,3.696,3.692,3.687,0,0,7.936,110.48,74.039307815452,20.013124,6,P-GPS,
1239200,2023-05-26 16:53:44,52.2062991904983,0.0866205680349926,20.013124,20.177166,53.862141815452,74.039307815452,20.997376,0,46.398295448,65.2395034,28,5,14.753,74.695475815452,20.669292,15.4572554,46.398295448,0,0,0,278.4, 8.2, 1.1,0,1,1024,1024,1024,1024,0,0,0,0,274.7,-90,0,28,3.684,3.696,3.692,3.687,0,0,7.936,110.48,74.039307815452,20.013124,6,P-GPS,
1239400,2023-05-26 16:53:44,52.2062989660023,0.0866206510733685,20.341208,20.50525,53.862141815452,74.367391815452,20.997376,0,46.454725896,65.323492904,28,5,14.757,74.695475815452,20.669292,15.4572554,46.454725896,0,0,0,278.3, 7.4, 3.2,0,1,1024,1024,1024,1024,0,0,0,0,274.7,-90,0,28,3.68,3.692,3.688,3.684,0,0,7.876,110.66,74.367391815452,20.341208,6,P-GPS,
1239600,2023-05-26 16:53:44,52.2062987742919,0.0866207067957534,20.341208,20.50525,53.862141815452,74.367391815452,20.997376,0,46.504922748,65.394687132,28,5,14.757,74.695475815452,20.669292,15.4572554,46.504922748,0,0,0,278.5, 7.2, 3.8,0,1,1024,1024,1024,1024,0,0,0,0,274.7,-89.9,0,28,3.68,3.692,3.688,3.684,0,0,7.876,110.66,74.367391815452,20.341208,6,P-GPS,
1239800,2023-05-26 16:53:44,52.2062986400056,0.0866208031985548,20.341208,20.50525,53.862141815452,74.367391815452,20.997376,0,46.532809888,65.448164824,28,5,14.757,74.695475815452,20.669292,15.4572554,46.532809888,0,0,0,278.4, 8, 3.6,0,1,1024,1024,1024,1024,0,0,0,0,274.7,-89.9,0,28,3.68,3.692,3.688,3.684,0,0,7.876,110.66,74.367391815452,20.341208,6,P-GPS,
1240000,2023-05-26 16:53:44,52.2062985405694,0.0866209252118452,20.341208,20.50525,53.862141815452,74.367391815452,20.997376,0,46.5469175,65.493440416,28,5,14.757,74.695475815452,20.669292,15.4572554,46.5469175,0,0,0,278.4, 7.5, 3.6,0,1,1024,1024,1024,1024,0,0,0,0,274.7,-90,0,28,3.68,3.692,3.688,3.684,0,0,7.876,110.66,74.367391815452,20.341208,6,P-GPS,
1240200,2023-05-26 16:53:44,52.2062984739102,0.0866210333993857,20.341208,20.50525,53.862141815452,74.367391815452,20.997376,0,46.553151096,65.527889236,28,5,14.757,74.695475815452,20.669292,15.4572554,46.553151096,0,0,0,278.7, 6.9, 2.7,0,0,1024,1024,1024,1024,0,0,0,0,274.7,-90,0,28,3.68,3.692,3.688,3.684,0,0,7.876,110.66,74.367391815452,20.341208,6,P-GPS,
1240400,2023-05-26 16:53:45,52.2062984241793,0.0866211802822503,20.669292,20.833334,53.862141815452,74.695475815452,21.32546,0,46.549214088,65.565290812,28,5,14.756,74.695475815452,20.669292,15.4572554,46.553151096,0,0,0,278.2, 6.5, 2.9,0,0,1024,1024,1024,1024,0,0,0,0,274.7,-90,0,28,3.679,3.69,3.688,3.682,0,0,7.915,110.66,74.695475815452,20.669292,6,P-GPS,
1240600,2023-05-26 16:53:45,52.2062984187136,0.08662129908025,20.669292,20.833334,53.862141815452,74.695475815452,21.32546,0,46.535762644,65.591865616,28,5,14.756,74.695475815452,20.669292,15.4572554,46.553151096,0,0,0,278.4, 6.3, 2.9,0,0,1024,1024,1024,1024,0,0,0,0,274.7,-89.9,0,28,3.679,3.69,3.688,3.682,0,0,7.915,110.66,74.695475815452,20.669292,6,P-GPS,
1240800,2023-05-26 16:53:45,52.2062984645466,0.0866213224540151,20.669292,20.833334,53.862141815452,74.695475815452,20.997376,0,46.51903036,65.609582152,28,5,14.756,74.695475815452,20.669292,15.4572554,46.553151096,0,0,0,278.4, 7, 2.8,0,0,1024,1024,1024,1024,0,0,0,0,274.7,-89.9,0,28,3.679,3.69,3.688,3.682,0,0,7.915,110.66,74.695475815452,20.669292,6,P-GPS,
1241000,2023-05-26 16:53:45,52.2062985528972,0.0866212825005339,20.669292,20.833334,53.862141815452,74.695475815452,20.997376,0,46.4977049,65.64304672,28,5,14.756,74.695475815452,20.669292,15.4572554,46.553151096,0,0,0,278.4, 7.5, 2.4,0,0,1024,1024,1024,1024,0,0,0,0,274.7,-90,0,28,3.679,3.69,3.688,3.682,0,0,7.915,110.66,74.695475815452,20.669292,6,P-GPS,
1241200,2023-05-26 16:53:45,52.2062987307891,0.0866212205013424,20.669292,20.833334,53.862141815452,74.695475815452,20.997376,0.223694,46.452429308,65.709319688,28,5,14.756,74.695475815452,20.669292,15.4572554,46.553151096,0.223694,0,0,278.4, 7.8, 0.8,0,0,1024,1024,1024,1024,0,0,0,0,274.7,-89.9,0,28,3.679,3.69,3.688,3.682,0,0,7.915,110.66,74.695475815452,20.669292,6,P-GPS,
