time(millisecond),datetime(utc),latitude,longitude,height_above_takeoff(feet),height_above_ground_at_drone_location(feet),ground_elevation_at_drone_location(feet),altitude_above_seaLevel(feet),height_sonar(feet),speed(mph),distance(feet),mileage(feet),satellites,gpslevel,voltage(v),max_altitude(feet),max_ascent(feet),max_speed(mph),max_distance(feet), xSpeed(mph), ySpeed(mph), zSpeed(mph), compass_heading(degrees), pitch(degrees), roll(degrees),isPhoto,isVideo,rc_elevator,rc_aileron,rc_throttle,rc_rudder,rc_elevator(percent),rc_aileron(percent),rc_throttle(percent),rc_rudder(percent),gimbal_heading(degrees),gimbal_pitch(degrees),gimbal_roll(degrees),battery_percent,voltageCell1,voltageCell2,voltageCell3,voltageCell4,voltageCell5,voltageCell6,current(A),battery_temperature(f),altitude(feet),ascent(feet),flycStateRaw,flycState,message
100,2023-05-31 18:52:47,0,0,0,,,53.304100787096,0.328084,0,0,0,21,2,0,53.304100787096,0,0,0,0,0,0,276.1, 4.3, -0.2,0,0,1024,1024,1024,1024,0,0,0,0,276.3,0,0,96,4.295,4.272,4.262,4.262,0,0,0,72.14,53.304100787096,0,41,Motors_Started,"Aircraft not in flight. Vision systems and obstacle avoidance disabled (Code: 180059). No GPS signal. Aircraft unable to hover. Fly with caution (Code: 30008). GPS signal weak. Hovering unstable. Fly with caution (Code: 30002)"
300,2023-05-31 18:52:47,0,0,0,,,53.304100787096,0.328084,0,0,0,21,2,0,53.304100787096,0,0,0,0,0,0,276.1, 4.3, -0.2,0,0,1024,1024,1024,1024,0,0,0,0,276.3,0,0,96,4.295,4.272,4.262,4.262,0,0,0,72.14,53.304100787096,0,41,Motors_Started,
500,2023-05-31 18:52:47,0,0,0,,,53.304100787096,0,0,0,0,21,2,0,53.304100787096,0,0,0,0,0,0,276.1, 4.3, -0.2,0,0,1024,1024,1024,1024,0,0,0,0,276.3,0,0,96,4.295,4.272,4.262,4.262,0,0,0,72.14,53.304100787096,0,41,Motors_Started,"Setting new Return-To-Home altitude to 26m (85 ft). Data Recorder File Index is 26. Setting new Maximum Flight Altitude to 30m (98 ft)"
700,2023-05-31 18:52:47,0,0,0,,,53.304100787096,0,0,0,0,21,2,0,53.304100787096,0,0,0,0,0,0,276.1, 4.3, -0.2,0,0,1024,1024,1024,1024,0,0,0,0,276.3,0,0,96,4.295,4.272,4.262,4.262,0,0,0,72.14,53.304100787096,0,41,Motors_Started,
900,2023-05-31 18:52:48,0,0,0,,,53.304100787096,0,0,0,0,21,2,0,53.304100787096,0,0,0,0,0,0,276.1, 4.3, -0.2,0,0,1024,1024,1024,1024,0,0,0,0,276.3,0,0,96,4.295,4.272,4.262,4.262,0,0,0,72.14,53.304100787096,0,41,Motors_Started,
1100,2023-05-31 18:52:48,0,0,0,,,53.304100787096,0,0,0,0,21,2,17.185,53.304100787096,0,0,0,0,0,0,275.8, 4.3, -0.2,0,0,1024,1024,1024,1024,0,0,0,0,276.3,0,0,96,4.295,4.272,4.262,4.262,0,0,1.111,72.14,53.304100787096,0,41,Motors_Started,
1300,2023-05-31 18:52:48,0,0,0,,,53.304100787096,0,0,0,0,21,2,17.185,53.304100787096,0,0,0,0,0,0,275.4, 4.3, -0.2,0,0,1024,1024,1024,1024,0,0,0,0,276.3,0,0,96,4.295,4.272,4.262,4.262,0,0,1.111,72.14,53.304100787096,0,41,Motors_Started,
1500,2023-05-31 18:52:48,0,0,0,,,53.304100787096,0,0,0,0,21,2,17.185,53.304100787096,0,0,0,0,0,0,275.4, 4.3, -0.2,0,0,1024,1024,1024,1024,0,0,0,0,276.2,0,0,96,4.295,4.272,4.262,4.262,0,0,1.111,72.14,53.304100787096,0,41,Motors_Started,
1700,2023-05-31 18:52:48,0,0,0,,,53.304100787096,0,0,0,0,21,2,17.185,53.304100787096,0,0,0,0,0,0,275.6, 4.3, -0.2,0,0,1024,1024,1024,1024,0,0,0,0,276.2,0,0,96,4.295,4.272,4.262,4.262,0,0,1.111,72.14,53.304100787096,0,11,AutoTakeoff,
1900,2023-05-31 18:52:49,0,0,0,,,53.304100787096,0,0,0,0,21,2,17.185,53.304100787096,0,0,0,0,0,0,275.4, 4.2, -0.2,0,0,1024,1024,1024,1024,0,0,0,0,276.2,0,0,96,4.295,4.272,4.262,4.262,0,0,1.111,72.14,53.304100787096,0,11,AutoTakeoff,
2100,2023-05-31 18:52:49,0,0,0,,,53.304100787096,0,0,0,0,22,2,16.955,53.304100787096,0,0,0,0,0,-0.223694,275.9, -1.1, 0,0,0,1024,1024,1024,1024,0,0,0,0,276.2,0,0,96,4.229,4.235,4.239,4.25,0,0,3.478,71.96,53.304100787096,0,11,AutoTakeoff,
2300,2023-05-31 18:52:49,0,0,0.328084,,,53.632184787096,0.328084,0,0,0,21,2,16.955,53.632184787096,0.328084,0,0,0,0,-0.894776,275.9, -0.6, 0.7,0,0,1024,1024,1024,1024,0,0,0,0,276.2,0,0,96,4.229,4.235,4.239,4.25,0,0,3.478,71.96,53.632184787096,0.328084,11,AutoTakeoff,
2500,2023-05-31 18:52:49,0,0,0.656168,,,53.960268787096,0.328084,0,0,0,21,2,16.955,53.960268787096,0.656168,0,0,0,0,-0.894776,275.8, 0.6, 0.7,0,0,1024,1024,1024,1024,0,0,0,0,276.2,0,0,96,4.229,4.235,4.239,4.25,0,0,3.478,71.96,53.960268787096,0.656168,11,AutoTakeoff,
2700,2023-05-31 18:52:49,0,0,0.656168,,,53.960268787096,0.984252,0,0,0,21,2,16.955,53.960268787096,0.656168,0,0,0,0,-0.894776,275.9, 0.2, 0.3,0,0,1024,1024,1024,1024,0,0,0,0,276.2,0,0,96,4.229,4.235,4.239,4.25,0,0,3.478,71.96,53.960268787096,0.656168,11,AutoTakeoff,
2900,2023-05-31 18:52:50,0,0,0.984252,,,54.288352787096,1.312336,0,0,0,21,2,16.955,54.288352787096,0.984252,0,0,0,0,-0.894776,276, 0, 1.7,0,0,1024,1024,1024,1024,0,0,0,0,276.2,0,0,96,4.229,4.235,4.239,4.25,0,0,3.478,71.96,54.288352787096,0.984252,11,AutoTakeoff,
3100,2023-05-31 18:52:50,0,0,1.312336,,,54.616436787096,1.312336,0,0,0,21,2,17.065,54.616436787096,1.312336,0,0,0,0,-0.894776,275.9, -0.3, 2.8,0,0,1024,1024,1024,1024,0,0,0,0,276.2,0,0,96,4.205,4.206,4.194,4.206,0,0,3.401,72.14,54.616436787096,1.312336,11,AutoTakeoff,
3300,2023-05-31 18:52:50,0,0,1.64042,,,54.944520787096,1.64042,0,0,0,20,2,17.065,54.944520787096,1.64042,0,0,0,0,-1.11847,275.9, -1.8, 2.1,0,0,1024,1024,1024,1024,0,0,0,0,276.2,0,0,96,4.205,4.206,4.194,4.206,0,0,3.401,72.14,54.944520787096,1.64042,11,AutoTakeoff,
3500,2023-05-31 18:52:50,0,0,1.968504,,,55.272604787096,2.296588,0,0,0,21,2,17.065,55.272604787096,1.968504,0,0,0,0,-1.11847,275.8, -2, 1.8,0,0,1024,1024,1024,1024,0,0,0,0,276.2,0,0,96,4.205,4.206,4.194,4.206,0,0,3.401,72.14,55.272604787096,1.968504,11,AutoTakeoff,
3700,2023-05-31 18:52:50,0,0,2.296588,,,55.600688787096,2.624672,0,0,0,21,2,17.065,55.600688787096,2.296588,0,0,0,0,-1.11847,275.5, -2.2, 2.1,0,0,1024,1024,1024,1024,0,0,0,0,276.1,0,0,96,4.205,4.206,4.194,4.206,0,0,3.401,72.14,55.600688787096,2.296588,11,AutoTakeoff,
3900,2023-05-31 18:52:51,0,0,2.952756,,,56.256856787096,2.952756,0,0,0,22,2,17.065,56.256856787096,2.952756,0,0,0,0,-0.894776,275.8, -2.1, 1.1,0,0,1024,1024,1024,1024,0,0,0,0,276.1,0,0,96,4.205,4.206,4.194,4.206,0,0,3.401,72.14,56.256856787096,2.952756,11,AutoTakeoff,
4100,2023-05-31 18:52:51,0,0,3.28084,,,56.584940787096,3.28084,0,0,0,21,2,16.753,56.584940787096,3.28084,0,0,0,0,-0.894776,275.7, -2, 0.6,0,0,1024,1024,1024,1024,0,0,0,0,276.1,0,0,96,4.182,4.187,4.184,4.185,0,0,6.799,71.96,56.584940787096,3.28084,11,AutoTakeoff,
4300,2023-05-31 18:52:51,0,0,3.608924,,,56.913024787096,3.608924,0,0,0,21,2,16.753,56.913024787096,3.608924,0,0,0,0,-1.11847,275.5, -1.9, 1.8,0,0,1024,1024,1024,1024,0,0,0,0,276.1,0,0,96,4.182,4.187,4.184,4.185,0,0,6.799,71.96,56.913024787096,3.608924,11,AutoTakeoff,
4500,2023-05-31 18:52:51,0,0,3.937008,,,57.241108787096,3.937008,0,0,0,22,2,16.753,57.241108787096,3.937008,0,0,0,0,-0.447388,275.9, -1.6, 2.1,0,0,1024,1024,1024,1024,0,0,0,0,276.1,0,0,96,4.182,4.187,4.184,4.185,0,0,6.799,71.96,57.241108787096,3.937008,6,P-GPS,
4700,2023-05-31 18:52:51,0,0,3.937008,,,57.241108787096,3.937008,0.223694,0,0,22,2,16.753,57.241108787096,3.937008,0.223694,0,0,-0.223694,0,276.2, 0.2, 3.1,0,0,1024,1024,1024,1024,0,0,0,0,276.1,0,0,96,4.182,4.187,4.184,4.185,0,0,6.799,71.96,57.241108787096,3.937008,6,P-GPS,
4900,2023-05-31 18:52:52,0,0,3.937008,,,57.241108787096,3.937008,0,0,0,22,2,16.753,57.241108787096,3.937008,0.223694,0,0,0,0,276.5, 1.1, 3.9,0,0,1024,1024,1024,1024,0,0,0,0,276.1,0,0,96,4.182,4.187,4.184,4.185,0,0,6.799,71.96,57.241108787096,3.937008,6,P-GPS,
5100,2023-05-31 18:52:52,0,0,3.937008,,,57.241108787096,3.937008,0,0,0,22,2,16.754,57.241108787096,3.937008,0.223694,0,0,0,0,276.8, 0.5, 3,0,0,1024,1024,1024,1024,0,0,0,0,276.1,0,0,96,4.182,4.189,4.181,4.189,0,0,7.25,72.14,57.241108787096,3.937008,6,P-GPS,
5300,2023-05-31 18:52:52,0,0,3.937008,,,57.241108787096,3.937008,0,0,0,22,2,16.754,57.241108787096,3.937008,0.223694,0,0,0,0,276.4, 0, 3,0,0,1024,1024,1024,1024,0,0,0,0,276.1,0,0,96,4.182,4.189,4.181,4.189,0,0,7.25,72.14,57.241108787096,3.937008,6,P-GPS,
5500,2023-05-31 18:52:52,0,0,3.937008,,,57.241108787096,3.937008,0.223694,0,0,22,2,16.754,57.241108787096,3.937008,0.223694,0,0.223694,0,0,276.3, -0.6, 1,0,0,1024,1024,1024,1024,0,0,0,0,276.1,0,0,96,4.182,4.189,4.181,4.189,0,0,7.25,72.14,57.241108787096,3.937008,6,P-GPS,
5700,2023-05-31 18:52:52,0,0,3.937008,,,57.241108787096,3.937008,0.223694,0,0,22,2,16.754,57.241108787096,3.937008,0.223694,0,0.223694,0,0,276.4, -1.2, -1.3,0,0,1024,1024,1024,1024,0,0,0,0,276.1,0,0,96,4.182,4.189,4.181,4.189,0,0,7.25,72.14,57.241108787096,3.937008,6,P-GPS,
5900,2023-05-31 18:52:53,0,0,3.937008,,,57.241108787096,3.937008,0,0,0,22,2,16.754,57.241108787096,3.937008,0.223694,0,0,0,0,276.4, -1.1, -1.3,0,0,1024,1024,1024,1024,0,0,0,0,276.1,0,0,96,4.182,4.189,4.181,4.189,0,0,7.25,72.14,57.241108787096,3.937008,6,P-GPS,
6100,2023-05-31 18:52:53,0,0,3.937008,,,57.241108787096,3.937008,0,0,0,22,2,16.768,57.241108787096,3.937008,0.223694,0,0,0,0,276.4, -0.8, 0.8,0,0,1024,1024,1024,1024,0,0,0,0,276.1,0,0,96,4.176,4.183,4.181,4.186,0,0,6.758,72.14,57.241108787096,3.937008,6,P-GPS,
6300,2023-05-31 18:52:53,0,0,3.937008,,,57.241108787096,3.937008,0,0,0,22,2,16.768,57.241108787096,3.937008,0.223694,0,0,0,0,275.9, -0.9, 1.7,0,0,1024,1024,1024,1024,0,0,0,0,276.1,0,0,96,4.176,4.183,4.181,4.186,0,0,6.758,72.14,57.241108787096,3.937008,6,P-GPS,
6500,2023-05-31 18:52:53,0,0,4.265092,,,57.569192787096,3.937008,0,0,0,22,2,16.768,57.569192787096,4.265092,0.223694,0,0,0,0,275.5, -1.5, 1.6,0,0,1024,1024,1024,1024,0,0,0,0,276.1,0,0,96,4.176,4.183,4.181,4.186,0,0,6.758,72.14,57.569192787096,4.265092,6,P-GPS,
6700,2023-05-31 18:52:53,0,0,4.265092,,,57.569192787096,3.937008,0,0,0,22,2,16.768,57.569192787096,4.265092,0.223694,0,0,0,0,275.7, -1.6, 2,0,0,1024,1024,1024,1024,0,0,0,0,276.1,0,0,96,4.176,4.183,4.181,4.186,0,0,6.758,72.14,57.569192787096,4.265092,6,P-GPS,
6900,2023-05-31 18:52:54,0,0,4.265092,,,57.569192787096,3.937008,0,0,0,22,2,16.768,57.569192787096,4.265092,0.223694,0,0,0,0,275.8, -1.1, 1.1,0,0,1024,1024,1024,1024,0,0,0,0,276.1,0,0,96,4.176,4.183,4.181,4.186,0,0,6.758,72.14,57.569192787096,4.265092,6,P-GPS,
7100,2023-05-31 18:52:54,0,0,4.265092,,,57.569192787096,3.937008,0,0,0,22,2,16.704,57.569192787096,4.265092,0.223694,0,0,0,0,275.9, -1.1, 1.9,0,0,1024,1024,1024,1024,0,0,0,0,276.1,0,0,96,4.179,4.187,4.179,4.184,0,0,7.368,72.14,57.569192787096,4.265092,6,P-GPS,
7300,2023-05-31 18:52:54,0,0,4.265092,,,57.569192787096,3.937008,0,0,0,22,2,16.704,57.569192787096,4.265092,0.223694,0,0,0,0,275.8, -0.3, 3.7,0,0,1024,1024,1684,1024,0,0,100,0,276.1,0,0,96,4.179,4.187,4.179,4.184,0,0,7.368,72.14,57.569192787096,4.265092,6,P-GPS,
7500,2023-05-31 18:52:54,0,0,4.265092,,,57.569192787096,3.937008,0,0,0,22,2,16.704,57.569192787096,4.265092,0.223694,0,0,0,-0.671082,275.6, 0, 2.4,0,0,1024,1024,1684,1024,0,0,100,0,276.1,0,0,96,4.179,4.187,4.179,4.184,0,0,7.368,72.14,57.569192787096,4.265092,6,P-GPS,
7700,2023-05-31 18:52:54,0,0,4.92126,,,58.225360787096,4.593176,0,0,0,22,2,16.704,58.225360787096,4.92126,0.223694,0,0,0,-2.908022,276.3, -1, 1.4,0,0,1024,1024,1684,1024,0,0,100,0,276.1,0,0,96,4.179,4.187,4.179,4.184,0,0,7.368,72.14,58.225360787096,4.92126,6,P-GPS,
7900,2023-05-31 18:52:55,0,0,5.905512,,,59.209612787096,5.905512,0.223694,0,0,22,2,16.704,59.209612787096,5.905512,0.223694,0,0,-0.223694,-5.144962,275.8, -0.1, 3.4,0,0,1024,1024,1684,1024,0,0,100,0,276.1,0,0,96,4.179,4.187,4.179,4.184,0,0,7.368,72.14,59.209612787096,5.905512,6,P-GPS,
8100,2023-05-31 18:52:55,0,0,8.2021,,,61.506200787096,7.874016,0,0,0,22,2,16.742,61.506200787096,8.2021,0.223694,0,0,0,-7.381902,276.2, 2.7, 2.5,0,0,1024,1024,1670,1024,0,0,98,0,276.1,0,0,96,4.185,4.192,4.184,4.187,0,0,6.925,72.14,61.506200787096,8.2021,6,P-GPS,
8300,2023-05-31 18:52:55,0,0,11.811024,,,65.115124787096,10.498688,0.223694,0,0,21,2,16.742,65.115124787096,11.811024,0.223694,0,0.223694,0,-9.842536,272.4, 3.1, 0.6,0,0,1024,1024,1581,1024,0,0,84,0,276.1,0,0,96,4.185,4.192,4.184,4.187,0,0,6.925,72.14,65.115124787096,11.811024,6,P-GPS,
8500,2023-05-31 18:52:55,0,0,16.076116,,,69.380216787096,13.451444,0,0,0,21,2,16.742,69.380216787096,16.076116,0.223694,0,0,0,-11.632088,270.7, 1.6, -0.3,0,0,1024,1024,1024,1024,0,0,0,0,276.1,0,0,96,4.185,4.192,4.184,4.187,0,0,6.925,72.14,69.380216787096,16.076116,6,P-GPS,
8700,2023-05-31 18:52:55,0,0,20.669292,,,73.973392787096,16.732284,0.223694,0,0,20,2,16.742,73.973392787096,20.669292,0.223694,0,-0.223694,0,-10.513618,275.5, 1.1, 4.7,0,0,1024,1024,1024,1024,0,0,0,0,276.1,0,0,96,4.185,4.192,4.184,4.187,0,0,6.925,72.14,73.973392787096,20.669292,6,P-GPS,
8900,2023-05-31 18:52:56,0,0,23.622048,,,76.926148787096,19.68504,0.3131716,0,0,20,2,16.742,76.926148787096,23.622048,0.3131716,0,-0.223694,-0.223694,-8.500372,280.8, 2.8, 5.4,0,0,1024,1024,1055,1024,0,0,5,0,276.1,0,0,96,4.185,4.192,4.184,4.187,0,0,6.925,72.14,76.926148787096,23.622048,6,P-GPS,
9100,2023-05-31 18:52:56,0,0,24.934384,,,78.238484787096,21.981628,0.3131716,0,0,20,2,16.424,78.238484787096,24.934384,0.3131716,0,-0.223694,-0.223694,-6.263432,286.1, 4.7, 6.4,0,0,1024,1024,1026,1024,0,0,0,0,276.1,0,0,96,4.05,4.054,4.045,4.043,0,0,9.437,72.14,78.238484787096,24.934384,6,P-GPS,"No GPS. Fly with caution GPS signal weak. Hovering unstable. Fly with caution (Code: 30002)"
9300,2023-05-31 18:52:56,0,0,25.918636,,,79.222736787096,23.622048,0.4921268,0,0,20,2,16.424,79.222736787096,25.918636,0.4921268,0,-0.223694,-0.447388,-4.026492,291.7, 6.1, 7.1,0,0,1024,1024,1078,1024,0,0,8,0,276.1,0,0,96,4.05,4.054,4.045,4.043,0,0,9.437,72.14,79.222736787096,25.918636,6,P-GPS,
9500,2023-05-31 18:52:56,0,0,26.574804,,,79.878904787096,24.6063,0.4921268,0,0,20,2,16.424,79.878904787096,26.574804,0.4921268,0,-0.447388,-0.223694,-1.565858,297.9, 4.8, 10.6,0,0,1024,1024,1305,1024,0,0,43,0,276.1,0,0,96,4.05,4.054,4.045,4.043,0,0,9.437,72.14,79.878904787096,26.574804,6,P-GPS,
9700,2023-05-31 18:52:56,0,0,26.574804,,,79.878904787096,24.934384,0.3131716,0,0,22,2,16.424,79.878904787096,26.574804,0.4921268,0,-0.223694,-0.223694,-0.447388,302.4, 3.3, 10.2,0,0,1024,1024,1323,1024,0,0,45,0,276.1,0,0,96,4.05,4.054,4.045,4.043,0,0,9.437,72.14,79.878904787096,26.574804,6,P-GPS,
9900,2023-05-31 18:52:57,0,0,27.230972,,,80.535072787096,25.262468,0.223694,0,0,22,2,16.424,80.535072787096,27.230972,0.4921268,0,0.223694,0,-1.789552,303.6, 4.1, 5.4,0,0,1024,1024,1024,1024,0,0,0,0,276.1,0,0,96,4.05,4.054,4.045,4.043,0,0,9.437,72.14,80.535072787096,27.230972,6,P-GPS,
10100,2023-05-31 18:52:57,0,0,27.88714,,,81.191240787096,26.24672,0.447388,0,0,22,2,16.596,81.191240787096,27.88714,0.4921268,0,0.447388,0,-1.565858,301.4, 7.6, 3.2,0,0,1024,1024,1024,1024,0,0,0,0,276.1,0,0,96,4.198,4.201,4.216,4.224,0,0,12.636,72.32,81.191240787096,27.88714,6,P-GPS,
10300,2023-05-31 18:52:57,0,0,27.88714,,,81.191240787096,26.24672,0.671082,0,0,22,2,16.596,81.191240787096,27.88714,0.671082,0,0.671082,0,-0.447388,299.5, 8.5, 0,0,0,1024,1024,1024,1024,0,0,0,0,276.1,0,0,96,4.198,4.201,4.216,4.224,0,0,12.636,72.32,81.191240787096,27.88714,6,P-GPS,
10500,2023-05-31 18:52:57,0,0,28.215224,,,81.519324787096,26.574804,0.223694,0,0,21,2,16.596,81.519324787096,28.215224,0.671082,0,0.223694,0,0,299.1, 7.3, 0.5,0,0,1024,1024,1024,1024,0,0,0,0,276.1,0,0,96,4.198,4.201,4.216,4.224,0,0,12.636,72.32,81.519324787096,28.215224,6,P-GPS,
10700,2023-05-31 18:52:57,0,0,28.215224,,,81.519324787096,26.24672,0.223694,0,0,21,2,16.596,81.519324787096,28.215224,0.671082,0,-0.223694,0,0,298.7, 4.3, 4.8,0,0,1024,1024,1024,1024,0,0,0,0,276.1,0,0,96,4.198,4.201,4.216,4.224,0,0,12.636,72.32,81.519324787096,28.215224,6,P-GPS,
10900,2023-05-31 18:52:58,0,0,28.215224,,,81.519324787096,26.24672,0.223694,0,0,21,2,16.596,81.519324787096,28.215224,0.671082,0,-0.223694,0,0,299.2, 2.8, 6.8,0,0,1024,1024,1257,1024,0,0,35,0,276.1,0,0,96,4.198,4.201,4.216,4.224,0,0,12.636,72.32,81.519324787096,28.215224,6,P-GPS,
11100,2023-05-31 18:52:58,0,0,28.215224,,,81.519324787096,26.24672,0,0,0,21,2,16.605,81.519324787096,28.215224,0.671082,0,0,0,0,298.8, 1, 7.4,0,0,1024,1024,1235,1024,0,0,32,0,276.1,0,0,95,4.206,4.193,4.174,4.173,0,0,6.042,72.5,81.519324787096,28.215224,6,P-GPS,
11300,2023-05-31 18:52:58,0,0,28.543308,,,81.847408787096,26.902888,0,0,0,21,2,16.605,81.847408787096,28.543308,0.671082,0,0,0,-1.565858,299, 2, 5,0,0,1024,1024,1024,1024,0,0,0,0,276.1,0,0,95,4.206,4.193,4.174,4.173,0,0,6.042,72.5,81.847408787096,28.543308,6,P-GPS,
11500,2023-05-31 18:52:58,0,0,28.871392,,,82.175492787096,27.230972,0,0,0,21,2,16.605,82.175492787096,28.871392,0.671082,0,0,0,-0.671082,299.3, 6.2, 5.2,0,0,1024,1024,1635,1024,0,0,93,0,276.1,0,0,95,4.206,4.193,4.174,4.173,0,0,6.042,72.5,82.175492787096,28.871392,6,P-GPS,
11700,2023-05-31 18:52:58,0,0,29.199476,,,82.503576787096,27.559056,0,0,0,22,2,16.605,82.503576787096,29.199476,0.671082,0,0,0,-0.671082,299, 4.6, 3.3,0,0,1024,1024,1024,1024,0,0,0,0,276.1,0,0,95,4.206,4.193,4.174,4.173,0,0,6.042,72.5,82.503576787096,29.199476,6,P-GPS,
11900,2023-05-31 18:52:59,52.2062720273572,0.0867070494866817,29.52756,29.52756,53.304100787096,82.831660787096,27.88714,0,0,0,22,2,16.605,82.831660787096,29.52756,0.671082,0,0,0,-1.342164,298.6, 4.3, 4.7,0,0,1024,1024,1024,1024,0,0,0,0,276.1,0,0,95,4.206,4.193,4.174,4.173,0,0,6.042,72.5,82.831660787096,29.52756,6,P-GPS,"GPS signal weak. Hovering unstable. Fly with caution (Code: 30002)"
12100,2023-05-31 18:52:59,52.2062724690177,0.0867069849445826,29.855644,29.855644,53.304100787096,83.159744787096,28.215224,0,0.161784453996,0.161784453996,22,2,16.667,83.159744787096,29.855644,0.671082,0.161784453996,0,0,-0.447388,298.9, 4.5, 6.1,0,0,1024,1024,1593,1024,0,0,86,0,276.1,0,0,95,4.139,4.111,4.096,4.102,0,0,6.741,72.5,83.159744787096,29.855644,6,P-GPS,
12300,2023-05-31 18:52:59,52.2062728616719,0.0867068977205045,29.855644,29.855644,53.304100787096,83.159744787096,28.215224,0,0.306284786704,0.306365495368,22,2,16.667,83.159744787096,29.855644,0.671082,0.306284786704,0,0,-0.671082,299.1, 2.9, 4.6,0,0,1024,1024,1024,1024,0,0,0,0,276.1,0,0,95,4.139,4.111,4.096,4.102,0,0,6.741,72.5,83.159744787096,29.855644,6,P-GPS,
12500,2023-05-31 18:52:59,52.2062732893833,0.0867067927296363,30.511812,30.511812,53.304100787096,83.815912787096,28.871392,0,0.46401576288,0.46416996236,22,2,16.667,83.815912787096,30.511812,0.671082,0.46401576288,0,0,-1.11847,299, 4.7, 5.7,0,0,1024,1024,1024,1024,0,0,0,0,276.1,0,0,95,4.139,4.111,4.096,4.102,0,0,6.741,72.5,83.815912787096,30.511812,6,P-GPS,
12700,2023-05-31 18:52:59,52.2062737351014,0.0867067000523765,30.511812,30.511812,53.304100787096,83.815912787096,29.199476,0,0.62794949516,0.62810697548,22,2,16.667,83.815912787096,30.511812,0.671082,0.62794949516,0,0,-0.223694,298.9, 4.1, 6.3,0,0,1024,1024,1024,1024,0,0,0,0,276.1,0,0,95,4.139,4.111,4.096,4.102,0,0,6.741,72.5,83.815912787096,30.511812,6,P-GPS,
12900,2023-05-31 18:53:00,52.2062742590607,0.0867066534862689,30.839896,30.839896,53.304100787096,84.143996787096,29.199476,0,0.81903545928,0.81955711284,22,5,16.667,84.143996787096,30.839896,0.671082,0.81903545928,0,0,0,299.1, 4.5, 5.2,0,0,1024,1024,1024,1024,0,0,0,0,276.1,0,0,95,4.139,4.111,4.096,4.102,0,0,6.741,72.5,84.143996787096,30.839896,6,P-GPS,
13100,2023-05-31 18:53:00,52.2062747771155,0.0867066264958653,30.839896,30.839896,53.304100787096,84.143996787096,29.199476,0,1.00769688264,1.00866473044,23,5,16.468,84.143996787096,30.839896,0.671082,1.00769688264,0,0,0,299, 5.5, 3.8,0,0,1024,1024,1024,1024,0,0,0,0,276.1,0,0,95,4.188,4.185,4.17,4.11,0,0,8.405,72.5,84.143996787096,30.839896,6,P-GPS,
13300,2023-05-31 18:53:00,52.2062753294865,0.0867067060314726,30.839896,30.839896,53.304100787096,84.143996787096,29.199476,0,1.20722444808,1.21098100988,23,5,16.468,84.143996787096,30.839896,0.671082,1.20722444808,0,0,0,298.8, 5, 4.5,0,0,1024,1024,1024,1024,0,0,0,0,276.1,0,0,95,4.188,4.185,4.17,4.11,0,0,8.405,72.5,84.143996787096,30.839896,6,P-GPS,
13500,2023-05-31 18:53:00,52.2062760144025,0.0867068589004615,30.839896,30.839896,53.304100787096,84.143996787096,29.199476,0,1.45529532216,1.46319886572,23,5,16.468,84.143996787096,30.839896,0.671082,1.45529532216,0,0,0,298.9, 5.4, 4.2,0,0,1024,1024,1024,1024,0,0,0,0,276.1,0,0,95,4.188,4.185,4.17,4.11,0,0,8.405,72.5,84.143996787096,30.839896,6,P-GPS,"Setting new Maximum Flight Altitude to 120m (394 ft)"
13700,2023-05-31 18:53:00,52.2062768336965,0.0867070322765328,30.839896,30.839896,53.304100787096,84.143996787096,29.199476,0,1.75359585664,1.76461947904,23,5,16.468,84.143996787096,30.839896,0.671082,1.75359585664,0,0,0,299.1, 6.1, 3.5,0,0,1024,1024,1024,1024,0,0,0,0,276.1,0,0,95,4.188,4.185,4.17,4.11,0,0,8.405,72.5,84.143996787096,30.839896,6,P-GPS,
13900,2023-05-31 18:53:01,52.2062775915023,0.0867071715680982,30.839896,30.839896,53.304100787096,84.143996787096,28.871392,0,2.03025925132,2.04285439608,23,5,16.468,84.143996787096,30.839896,0.671082,2.03025925132,0,0,0,298.7, 4.5, 4.7,0,0,1024,1024,1024,1024,0,0,0,0,276.1,0,0,95,4.188,4.185,4.17,4.11,0,0,8.405,72.5,84.143996787096,30.839896,6,P-GPS,
14100,2023-05-31 18:53:01,52.2062783962572,0.0867072494379861,30.839896,30.839896,53.304100787096,84.143996787096,28.871392,0,2.32412080928,2.33698170208,23,5,16.722,84.143996787096,30.839896,0.671082,2.32412080928,0,0,0,299.2, 4, 5.6,0,0,1024,1024,1024,1024,0,0,0,0,276.1,0,0,95,4.162,4.172,4.166,4.169,0,0,6.806,72.68,84.143996787096,30.839896,6,P-GPS,
14300,2023-05-31 18:53:01,52.2062792385148,0.086707262650758,30.839896,30.839896,53.304100787096,84.143996787096,28.871392,0,2.63141740704,2.64429470404,23,5,16.722,84.143996787096,30.839896,0.671082,2.63141740704,0,0,0,299.3, 4.1, 5.2,0,0,1024,1024,1580,1024,0,0,84,0,276.1,0.5,0,95,4.162,4.172,4.166,4.169,0,0,6.806,72.68,84.143996787096,30.839896,6,P-GPS,
14500,2023-05-31 18:53:01,52.2062801104627,0.0867072620704989,30.839896,30.839896,53.304100787096,84.143996787096,29.199476,0,2.94949812588,2.96242463548,23,5,16.722,84.143996787096,30.839896,0.671082,2.94949812588,0,0,0,299, 3.2, 5.5,0,0,1024,1024,1024,1024,0,0,0,0,276.1,1.2,0,95,4.162,4.172,4.166,4.169,0,0,6.806,72.68,84.143996787096,30.839896,6,P-GPS,"Home Point updated (Code: 3000001)"
14700,2023-05-31 18:53:01,52.2062809434713,0.086707204712137,31.16798,31.16798,53.304100787096,84.472080787096,29.52756,0,3.25322516972,3.2666175586,23,5,16.722,84.472080787096,31.16798,0.671082,3.25322516972,0,0,-0.894776,299.1, 3.6, 5.8,0,0,1024,1024,1196,1024,0,0,26,0,276.1,1.8,0,95,4.162,4.172,4.166,4.169,0,0,6.806,72.68,84.472080787096,31.16798,6,P-GPS,
14900,2023-05-31 18:53:02,52.206281767877,0.0867069952486528,31.496064,31.496064,53.304100787096,84.800164787096,29.855644,0,3.5538386964,3.571030298,23,5,16.722,84.800164787096,31.496064,0.671082,3.5538386964,0,0,0,299.1, 4.6, 7.3,0,0,1024,1024,1153,1024,0,0,20,0,276.1,2.1,0,95,4.162,4.172,4.166,4.169,0,0,6.806,72.68,84.800164787096,31.496064,6,P-GPS,
15100,2023-05-31 18:53:02,52.2062826430065,0.0867068328392077,31.496064,31.496064,53.304100787096,84.800164787096,29.855644,0,3.8734253208,3.892388576,23,5,16.635,84.800164787096,31.496064,0.671082,3.8734253208,0,0,-1.342164,299.2, 2.9, 4.2,0,0,1024,1024,1024,1024,0,0,0,0,276.1,2.3,0,95,4.156,4.165,4.158,4.159,0,0,7.082,72.68,84.800164787096,31.496064,6,P-GPS,
15300,2023-05-31 18:53:02,52.2062835835532,0.086706515940614,32.152232,32.152232,53.304100787096,85.456332787096,30.183728,0,4.2179463292,4.242782288,23,5,16.635,85.456332787096,32.152232,0.671082,4.2179463292,0,0,-0.671082,299, 7.4, 5.4,0,0,1024,1024,1583,1024,0,0,85,0,276.1,2.3,0,95,4.156,4.165,4.158,4.159,0,0,7.082,72.68,85.456332787096,32.152232,6,P-GPS,
15500,2023-05-31 18:53:02,52.2062845161347,0.0867062173728922,32.152232,32.152232,53.304100787096,85.456332787096,30.511812,0,4.5603347916,4.5895014592,23,5,16.635,85.456332787096,32.152232,0.671082,4.5603347916,0,0,-0.447388,299.2, 5.9, 4.1,0,0,1024,1024,1024,1024,0,0,0,0,276.1,2.3,0,95,4.156,4.165,4.158,4.159,0,0,7.082,72.68,85.456332787096,32.152232,6,P-GPS,
15700,2023-05-31 18:53:02,52.2062853980545,0.0867060217680157,32.8084,32.8084,53.304100787096,86.112500787096,30.839896,0,4.883694382,4.9142390024,23,5,16.635,86.112500787096,32.8084,0.671082,4.883694382,0,0,-1.342164,298.9, 6.3, 3.6,0,0,1024,1024,1563,1024,0,0,82,0,276.1,2.3,0,95,4.156,4.165,4.158,4.159,0,0,7.082,72.68,86.112500787096,32.8084,6,P-GPS,
15900,2023-05-31 18:53:03,52.2062862677911,0.0867057528860682,33.136484,33.136484,53.304100787096,86.440584787096,30.839896,0,5.2037075156,5.237204892,23,5,16.635,86.440584787096,33.136484,0.671082,5.2037075156,0,0,-0.671082,299.2, 7, 3.9,0,0,1024,1024,1024,1024,0,0,0,0,276.1,2.3,0,95,4.156,4.165,4.158,4.159,0,0,7.082,72.68,86.440584787096,33.136484,6,P-GPS,
16100,2023-05-31 18:53:03,52.2062873017398,0.0867056089209761,33.464568,33.464568,53.304100787096,86.768668787096,31.16798,0,5.5821524096,5.615813828,23,5,16.81,86.768668787096,33.464568,0.671082,5.5821524096,0,0,-1.789552,298.8, 5.3, 4,0,0,1024,1024,1024,1024,0,0,0,0,276.1,2.3,0,95,4.197,4.218,4.199,4.179,0,0,7.595,72.86,86.768668787096,33.464568,6,P-GPS,
16300,2023-05-31 18:53:03,52.206288377553,0.0867053588060368,33.792652,33.792652,53.304100787096,87.096752787096,31.496064,0,5.9773295876,6.0122705336,23,5,16.81,87.096752787096,33.792652,0.671082,5.9773295876,0,0,-0.447388,299, 7.9, 3.6,0,0,1024,1024,1024,1024,0,0,0,0,276.1,1.1,0,95,4.197,4.218,4.199,4.179,0,0,7.595,72.86,87.096752787096,33.792652,6,P-GPS,
16500,2023-05-31 18:53:03,52.2062894723408,0.0867051852025151,33.792652,33.792652,53.304100787096,87.096752787096,31.824148,0,6.3784122776,6.4135828824,22,5,16.81,87.096752787096,33.792652,0.671082,6.3784122776,0,0,0,298.7, 5.3, 2.5,0,0,1024,1024,1024,1024,0,0,0,0,276.1,-1.3,0,95,4.197,4.218,4.199,4.179,0,0,7.595,72.86,87.096752787096,33.792652,6,P-GPS,
16700,2023-05-31 18:53:03,52.2062904829339,0.0867050778700882,33.792652,33.792652,53.304100787096,87.096752787096,31.824148,0,6.7479332868,6.7831038916,23,5,16.81,87.096752787096,33.792652,0.671082,6.7479332868,0,0,0,298.5, 3.9, 2.4,0,0,1024,1024,1024,1024,0,0,0,0,276.1,-4.1,0,95,4.197,4.218,4.199,4.179,0,0,7.595,72.86,87.096752787096,33.792652,6,P-GPS,
16900,2023-05-31 18:53:04,52.2062916031698,0.086704918956307,33.792652,33.792652,53.304100787096,87.096752787096,31.824148,0,7.1581039036,7.1933401252,23,5,16.81,87.096752787096,33.792652,0.671082,7.1581039036,0,0,0,297.7, 3.9, 2.6,0,0,1024,1024,1024,1024,0,0,0,0,276.1,-7.1,0,95,4.197,4.218,4.199,4.179,0,0,7.595,72.86,87.096752787096,33.792652,6,P-GPS,
17100,2023-05-31 18:53:04,52.2062928494982,0.086704633887118,33.792652,33.792652,53.304100787096,87.096752787096,31.824148,0,7.6161091676,7.6525264916,23,5,16.772,87.096752787096,33.792652,0.671082,7.6161091676,0,0,0,297, 4.8, 3.1,0,0,1024,1024,1024,1024,0,0,0,0,276.1,-10,0,95,4.18,4.171,4.149,4.141,0,0,8.736,72.68,87.096752787096,33.792652,6,P-GPS,
17300,2023-05-31 18:53:04,52.2062941524539,0.0867042206445564,33.792652,33.792652,53.304100787096,87.096752787096,31.824148,0,8.0970803116,8.136811284,23,5,16.772,87.096752787096,33.792652,0.671082,8.0970803116,0,0,0,296.8, 5.2, 2.8,0,0,1024,1024,1024,1024,0,0,0,0,276.1,-12.9,0,95,4.18,4.171,4.149,4.141,0,0,8.736,72.68,87.096752787096,33.792652,6,P-GPS,
17500,2023-05-31 18:53:04,52.2062953953919,0.0867037857376774,33.792652,33.792652,53.304100787096,87.096752787096,31.824148,0,8.5569884628,8.6005908264,23,5,16.772,87.096752787096,33.792652,0.671082,8.5569884628,0,0,0,296.4, 5.3, 3.6,0,0,1024,1024,1024,1024,0,0,0,0,276.1,-15.8,0,95,4.18,4.171,4.149,4.141,0,0,8.736,72.68,87.096752787096,33.792652,6,P-GPS,
17700,2023-05-31 18:53:04,52.2062965624654,0.0867033726772864,33.792652,33.792652,53.304100787096,87.096752787096,31.824148,0,8.9893047496,9.0362863784,23,5,16.772,87.096752787096,33.792652,0.671082,8.9893047496,0,0,0,296.6, 5.4, 3,0,0,1024,1024,1024,1024,0,0,0,0,276.1,-18.7,0,95,4.18,4.171,4.149,4.141,0,0,8.736,72.68,87.096752787096,33.792652,6,P-GPS,
17900,2023-05-31 18:53:05,52.2062975693822,0.0867030269016143,33.792652,33.792652,53.304100787096,87.096752787096,31.824148,0,9.3623034492,9.4117128996,23,5,16.772,87.096752787096,33.792652,0.671082,9.3623034492,0,0,0,297, 4.3, 3.4,0,0,1024,1024,1024,1024,0,0,0,0,276.1,-21.7,0,95,4.18,4.171,4.149,4.141,0,0,8.736,72.68,87.096752787096,33.792652,6,P-GPS,
18100,2023-05-31 18:53:05,52.2062984888841,0.0867026901787706,33.792652,33.792652,53.304100787096,87.096752787096,31.496064,0.223694,9.7035436176,9.7555449316,23,5,16.638,87.096752787096,33.792652,0.671082,9.7035436176,-0.223694,0,0,297.3, 3.2, 4.1,0,0,1024,1024,1024,1024,0,0,0,0,276.1,-24.6,0,95,4.151,4.161,4.154,4.159,0,0,7.564,73.04,87.096752787096,33.792652,6,P-GPS,
18300,2023-05-31 18:53:05,52.2062993178357,0.0867022962875719,33.792652,33.792652,53.304100787096,87.096752787096,31.824148,0,10.0134845724,10.07053838,23,5,16.638,87.096752787096,33.792652,0.671082,10.0134845724,0,0,0,297.3, 2.6, 4.9,0,0,1024,1024,1024,1024,0,0,0,0,276.1,-27.5,0,95,4.151,4.161,4.154,4.159,0,0,7.564,73.04,87.096752787096,33.792652,6,P-GPS,
18500,2023-05-31 18:53:05,52.2063001246546,0.0867018190714707,33.792652,33.792652,53.304100787096,87.096752787096,31.496064,0,10.3177824824,10.3836617496,23,5,16.638,87.096752787096,33.792652,0.671082,10.3177824824,0,0,0,297.4, 2.9, 5,0,0,1024,1024,1024,1024,0,0,0,0,276.1,-30.4,0,95,4.151,4.161,4.154,4.159,0,0,7.564,73.04,87.096752787096,33.792652,6,P-GPS,
18700,2023-05-31 18:53:05,52.206300909328,0.0867013598496272,33.464568,33.464568,53.304100787096,86.768668787096,31.824148,0,10.6140751428,10.6877956176,23,5,16.638,87.096752787096,33.792652,0.671082,10.6140751428,0,0,0,297.3, 3.1, 5,0,0,1024,1024,1024,1024,0,0,0,0,276.1,-33.3,0,95,4.151,4.161,4.154,4.159,0,0,7.564,73.04,86.768668787096,33.464568,6,P-GPS,
18900,2023-05-31 18:53:06,52.2063016595773,0.0867009508194868,33.464568,33.464568,53.304100787096,86.768668787096,31.824148,0,10.8969491676,10.9764111124,23,5,16.638,87.096752787096,33.792652,0.671082,10.8969491676,0,0,0,297.2, 2.7, 4.8,0,0,1024,1024,1024,1024,0,0,0,0,276.1,-36.3,0,95,4.151,4.161,4.154,4.159,0,0,7.564,73.04,86.768668787096,33.464568,6,P-GPS,
19100,2023-05-31 18:53:06,52.2063031956351,0.0867005097627131,33.464568,33.464568,53.304100787096,86.768668787096,31.824148,0,11.4653546976,11.545440002,23,3,16.633,87.096752787096,33.792652,0.671082,11.4653546976,0,0,0,297.2, 2.7, 4.6,0,0,1024,1024,1024,1024,0,0,0,0,276.1,-39.1,0,95,4.15,4.16,4.154,4.157,0,0,7.002,73.04,86.768668787096,33.464568,6,P-GPS,
19300,2023-05-31 18:53:06,52.2063053503348,0.0867000967947179,33.464568,33.464568,53.304100787096,86.768668787096,32.152232,0,12.2568573476,12.3369754604,23,3,16.633,87.096752787096,33.792652,0.671082,12.2568573476,0,0,0,297.1, 2.3, 4.4,0,0,1024,1024,1024,1024,0,0,0,0,276.1,-40.8,0,95,4.15,4.16,4.154,4.157,0,0,7.002,73.04,86.768668787096,33.464568,6,P-GPS,
19500,2023-05-31 18:53:06,52.2063081439886,0.0866996112686685,33.464568,33.464568,53.304100787096,86.768668787096,32.152232,0,13.28166053,13.3620083016,23,3,16.633,87.096752787096,33.792652,0.671082,13.28166053,0,0,0,297.3, 2.7, 4,0,0,1024,1024,1024,1024,0,0,0,0,276.1,-41.5,0,95,4.15,4.16,4.154,4.157,0,0,7.002,73.04,86.768668787096,33.464568,6,P-GPS,
19700,2023-05-31 18:53:06,52.2063112458228,0.0866990550997583,33.464568,33.464568,53.304100787096,86.768668787096,31.824148,0,14.4200463932,14.5005253984,24,3,16.633,87.096752787096,33.792652,0.671082,14.4200463932,0,0,0,297.4, 3.6, 3.9,0,0,1024,1024,1024,1024,0,0,0,0,276.1,-43.5,0,95,4.15,4.16,4.154,4.157,0,0,7.002,73.04,86.768668787096,33.464568,6,P-GPS,
19900,2023-05-31 18:53:07,52.2063145120395,0.0866984977976337,33.464568,33.464568,53.304100787096,86.768668787096,31.824148,0,15.6180123108,15.6986881664,24,3,16.633,87.096752787096,33.792652,0.671082,15.6180123108,0,0,0,297.3, 3.6, 4.1,0,0,1024,1024,1024,1024,0,0,0,0,276.1,-46.3,0,95,4.15,4.16,4.154,4.157,0,0,7.002,73.04,86.768668787096,33.464568,6,P-GPS,
20100,2023-05-31 18:53:07,52.2063178662342,0.08669799396104,33.464568,33.464568,53.304100787096,86.768668787096,32.152232,0,16.8463916152,16.927658022,24,3,16.615,87.096752787096,33.792652,0.671082,16.8463916152,0,0,0,297.3, 4.2, 4.4,0,0,1024,1024,1024,1024,0,0,0,0,276.1,-49.2,0,95,4.151,4.159,4.155,4.159,0,0,7.23,73.04,86.768668787096,33.464568,6,P-GPS,
20300,2023-05-31 18:53:07,52.2063211519492,0.0866975575231857,33.464568,33.464568,53.304100787096,86.768668787096,31.824148,0,18.0482945408,18.130413966,24,3,16.615,87.096752787096,33.792652,0.671082,18.0482945408,0,0,0,297.2, 3.6, 4.6,0,0,1024,1024,1024,1024,0,0,0,0,276.1,-52.1,0,95,4.151,4.159,4.155,4.159,0,0,7.23,73.04,86.768668787096,33.464568,6,P-GPS,
20500,2023-05-31 18:53:07,52.2063242440514,0.0866971761794758,33.464568,33.464568,53.304100787096,86.768668787096,31.824148,0,19.1787079628,19.2617788316,24,3,16.615,87.096752787096,33.792652,0.671082,19.1787079628,0,0,0,297.2, 3.5, 5.4,0,0,1024,1024,1024,1024,0,0,0,0,276.1,-55,0,95,4.151,4.159,4.155,4.159,0,0,7.23,73.04,86.768668787096,33.464568,6,P-GPS,
20700,2023-05-31 18:53:07,52.206327369132,0.0866968420122624,33.464568,33.464568,53.304100787096,86.768668787096,31.824148,0,20.3199809652,20.4043969784,24,3,16.615,87.096752787096,33.792652,0.671082,20.3199809652,0,0,0,297.2, 3.6, 5.4,0,0,1024,1024,1024,1024,0,0,0,0,276.1,-57.9,0,95,4.151,4.159,4.155,4.159,0,0,7.23,73.04,86.768668787096,33.464568,6,P-GPS,
20900,2023-05-31 18:53:08,52.206330218019,0.0866966091528507,33.136484,33.136484,53.304100787096,86.440584787096,31.824148,0,21.358760526,21.4451122348,24,3,16.615,87.096752787096,33.792652,0.671082,21.358760526,0,0,0,297.3, 3.8, 4.9,0,0,1024,1024,1024,1024,0,0,0,0,276.1,-60.8,0,95,4.151,4.159,4.155,4.159,0,0,7.23,73.04,86.440584787096,33.136484,6,P-GPS,
21100,2023-05-31 18:53:08,52.2063328405804,0.0866964583645536,33.136484,33.136484,53.304100787096,86.440584787096,31.824148,0,22.3136818164,22.402559772,24,3,16.619,87.096752787096,33.792652,0.671082,22.3136818164,0,0,0,296.9, 3, 4.8,0,0,1024,1024,1024,1024,0,0,0,0,276.1,-63.7,0,95,4.151,4.159,4.153,4.157,0,0,7.124,73.22,86.440584787096,33.136484,6,P-GPS,
21300,2023-05-31 18:53:08,52.2063352413867,0.0866963110623983,33.136484,33.136484,53.304100787096,86.440584787096,31.824148,0,23.1882225268,23.2791017948,24,3,16.619,87.096752787096,33.792652,0.671082,23.1882225268,0,0,0,297.1, 2.9, 4.7,0,0,1024,1024,1024,1024,0,0,0,0,276.1,-66.7,0,95,4.151,4.159,4.153,4.157,0,0,7.124,73.22,86.440584787096,33.136484,6,P-GPS,
21500,2023-05-31 18:53:08,52.2063374249141,0.0866961090129651,33.464568,33.464568,53.304100787096,86.768668787096,31.824148,0,23.9853354132,24.0770348912,24,3,16.619,87.096752787096,33.792652,0.671082,23.9853354132,0,0,0,297.2, 3.7, 4.9,0,0,1024,1024,1024,1024,0,0,0,0,276.1,-69.6,0,95,4.151,4.159,4.153,4.157,0,0,7.124,73.22,86.768668787096,33.464568,6,P-GPS,
21700,2023-05-31 18:53:08,52.2063393964571,0.0866959210566311,33.464568,33.464568,53.304100787096,86.768668787096,31.824148,0,24.7051845176,24.797572972,24,3,16.619,87.096752787096,33.792652,0.671082,24.7051845176,0,0,0,297.2, 3.6, 5.4,0,0,1024,1024,1024,1024,0,0,0,0,276.1,-72.5,0,95,4.151,4.159,4.153,4.157,0,0,7.124,73.22,86.768668787096,33.464568,6,P-GPS,
21900,2023-05-31 18:53:09,52.2063412259345,0.0866957278518627,33.464568,33.464568,53.304100787096,86.768668787096,31.824148,0,25.3736556676,25.4664706312,24,3,16.619,87.096752787096,33.792652,0.671082,25.3736556676,0,0,0,297.2, 4.3, 5.7,0,0,1024,1024,1024,1024,0,0,0,0,276.1,-75.4,0,95,4.151,4.159,4.153,4.157,0,0,7.124,73.22,86.768668787096,33.464568,6,P-GPS,
22100,2023-05-31 18:53:09,52.206342807155,0.0866955691031053,33.464568,33.464568,53.304100787096,86.768668787096,32.152232,0,25.9512147412,26.044456214,24,5,16.614,87.096752787096,33.792652,0.671082,25.9512147412,0,0,0,297.3, 4, 5.5,0,0,1024,1024,1024,1024,0,0,0,0,276.1,-78.3,0,95,4.152,4.16,4.155,4.157,0,0,7.105,73.22,86.768668787096,33.464568,6,P-GPS,
22300,2023-05-31 18:53:09,52.2063442268503,0.0866954622113608,33.464568,33.464568,53.304100787096,86.768668787096,31.824148,0,26.4690297184,26.562992976,24,5,16.614,87.096752787096,33.792652,0.671082,26.4690297184,0,0,0,297.3, 4.3, 5.1,0,0,1024,1024,1024,1024,0,0,0,0,276.1,-81.3,0,95,4.152,4.16,4.155,4.157,0,0,7.105,73.22,86.768668787096,33.464568,6,P-GPS,
22500,2023-05-31 18:53:09,52.2063454202243,0.086695407139933,33.464568,33.464568,53.304100787096,86.768668787096,32.152232,0,26.9035769764,26.9985572944,24,5,16.614,87.096752787096,33.792652,0.671082,26.9035769764,0,0,0,297.4, 4.5, 4.8,0,0,1024,1024,1024,1024,0,0,0,0,276.1,-84.2,0,95,4.152,4.16,4.155,4.157,0,0,7.105,73.22,86.768668787096,33.464568,6,P-GPS,
22700,2023-05-31 18:53:09,52.206346371985,0.0866953891858664,33.464568,33.464568,53.304100787096,86.768668787096,31.824148,0,27.2496071712,27.3458342084,24,5,16.614,87.096752787096,33.792652,0.671082,27.2496071712,0,0,0,297.1, 3.8, 5,0,0,1024,1024,1024,1024,0,0,0,0,276.1,-87.1,0,95,4.152,4.16,4.155,4.157,0,0,7.105,73.22,86.768668787096,33.464568,6,P-GPS,
22900,2023-05-31 18:53:10,52.2063472153826,0.0866953495085064,33.464568,33.464568,53.304100787096,86.768668787096,31.824148,0,27.556759412,27.6536754256,24,5,16.614,87.096752787096,33.792652,0.671082,27.556759412,0,0,0,297.2, 4.3, 5.1,0,0,1024,1024,1024,1024,0,0,0,0,276.1,-89.9,0,95,4.152,4.16,4.155,4.157,0,0,7.105,73.22,86.768668787096,33.464568,6,P-GPS,
23100,2023-05-31 18:53:10,52.206347919002,0.0866952886294636,33.464568,33.464568,53.304100787096,86.768668787096,31.824148,0,27.8136163756,27.910762048,24,5,16.616,87.096752787096,33.792652,0.671082,27.8136163756,0,0,0,297.4, 4.7, 5.1,0,0,1024,1024,1024,1024,0,0,0,0,276.1,-89.9,0,95,4.151,4.161,4.153,4.158,0,0,6.975,73.22,86.768668787096,33.464568,6,P-GPS,
23300,2023-05-31 18:53:10,52.2063485040551,0.0866952686003127,33.464568,33.464568,53.304100787096,86.768668787096,31.824148,0,28.0265428916,28.1242463068,24,5,16.616,87.096752787096,33.792652,0.671082,28.0265428916,0,0,0,297.4, 4.6, 4.9,0,0,1024,1024,1024,1024,0,0,0,0,276.1,-90,0,95,4.151,4.161,4.153,4.158,0,0,6.975,73.22,86.768668787096,33.464568,6,P-GPS,
23500,2023-05-31 18:53:10,52.2063490102839,0.0866952809354877,33.464568,33.464568,53.304100787096,86.768668787096,31.496064,0,28.2101715064,28.3089904072,24,5,16.616,87.096752787096,33.792652,0.671082,28.2101715064,0,0,0,297.6, 4.7, 5,0,0,1024,1024,1024,1024,0,0,0,0,276.1,-90,0,95,4.151,4.161,4.153,4.158,0,0,6.975,73.22,86.768668787096,33.464568,6,P-GPS,
23700,2023-05-31 18:53:10,52.2063493906215,0.0866953440809595,33.464568,33.464568,53.304100787096,86.768668787096,31.496064,0,28.3470153428,28.4484589156,24,5,16.616,87.096752787096,33.792652,0.671082,28.3470153428,0,0,0,297.5, 4.4, 5.3,0,0,1382,1024,1024,1024,54,0,0,0,276.1,-89.9,0,95,4.151,4.161,4.153,4.158,0,0,6.975,73.22,86.768668787096,33.464568,6,P-GPS,
23900,2023-05-31 18:53:11,52.2063497083091,0.086695336722492,33.464568,33.464568,53.304100787096,86.768668787096,31.824148,0,28.462599336,28.5643709928,24,5,16.616,87.096752787096,33.792652,0.671082,28.462599336,0,0,0,297.3, -2.8, 0.5,0,0,1684,1024,1024,1024,100,0,0,0,276.1,-90,0,95,4.151,4.161,4.153,4.158,0,0,6.975,73.22,86.768668787096,33.464568,6,P-GPS,
24100,2023-05-31 18:53:11,52.2063499536319,0.0866945854869167,33.464568,33.464568,53.304100787096,86.768668787096,31.824148,0.894776,28.5676190244,28.7546925212,24,5,16.615,87.096752787096,33.792652,0.894776,28.5676190244,0,-0.894776,0,296.5, -17.6, 3.5,0,0,1684,1024,1024,1024,100,0,0,0,276.1,-90,0,95,4.153,4.159,4.147,4.148,0,0,7.015,73.4,86.768668787096,33.464568,6,P-GPS,
24300,2023-05-31 18:53:11,52.2063505822649,0.0866921248519068,33.464568,33.464568,53.304100787096,86.768668787096,31.824148,2.7738056,28.854331632,29.3507555324,24,5,16.615,87.096752787096,33.792652,2.7738056,28.854331632,0.671082,-2.684328,0,296, -24.1, 4.6,0,0,1684,1024,1024,1024,100,0,0,0,276.1,-90,0,95,4.153,4.159,4.147,4.148,0,0,7.015,73.4,86.768668787096,33.464568,6,P-GPS,
24500,2023-05-31 18:53:11,52.2063516264886,0.0866867427786108,33.464568,33.464568,53.304100787096,86.768668787096,31.824148,4.8765292,29.3944563212,30.6129931056,24,5,16.615,87.096752787096,33.792652,4.8765292,29.3944563212,1.342164,-4.697574,0,292.6, -23.8, 5.7,0,0,1684,1024,1024,1024,100,0,0,0,276.1,-90,0,95,4.153,4.159,4.147,4.148,0,0,7.015,73.4,86.768668787096,33.464568,6,P-GPS,
24700,2023-05-31 18:53:11,52.2063529738018,0.0866787485996327,33.464568,33.464568,53.304100787096,86.768668787096,31.824148,6.934514,30.2035442736,32.4667661308,23,5,16.615,87.096752787096,33.792652,6.934514,30.2035442736,1.789552,-6.71082,0,287.8, -21.6, 6.4,0,0,1684,1024,1024,1024,100,0,0,0,276.1,-90,0,95,4.153,4.159,4.147,4.148,0,0,7.015,73.4,86.768668787096,33.464568,6,P-GPS,
24900,2023-05-31 18:53:12,52.2063547213794,0.0866684535286953,33.464568,33.464568,53.304100787096,86.768668787096,27.230972,8.4780026,31.380742474,34.855316076,23,5,16.615,87.096752787096,33.792652,8.4780026,31.380742474,1.789552,-8.276678,0,284.4, -18.9, 7.1,0,0,1684,1024,1024,1024,100,0,0,0,276.1,-90,0,95,4.153,4.159,4.147,4.148,0,0,7.015,73.4,86.768668787096,33.464568,6,P-GPS,
25100,2023-05-31 18:53:12,52.2063568182822,0.0866563033026517,33.464568,33.464568,53.304100787096,86.768668787096,28.215224,10.0438606,32.95111654,37.677494644,23,5,16.578,87.096752787096,33.792652,10.0438606,32.95111654,2.013246,-9.842536,0,282.6, -16.9, 6.7,0,0,1684,1024,1024,1024,100,0,0,0,276.1,-89.9,0,95,4.143,4.141,4.13,4.128,0,0,7.37,73.58,86.768668787096,33.464568,6,P-GPS,
25300,2023-05-31 18:53:12,52.2063591697087,0.0866425407352026,33.464568,33.464568,53.304100787096,86.768668787096,28.543308,11.1847,34.912402692,40.872048552,23,5,16.578,87.096752787096,33.792652,11.1847,34.912402692,2.23694,-10.961006,0,282, -15.9, 6.7,0,0,1089,1024,1024,1024,10,0,0,0,276.1,-90,0,95,4.143,4.141,4.13,4.128,0,0,7.37,73.58,86.768668787096,33.464568,6,P-GPS,
25500,2023-05-31 18:53:12,52.206361699079,0.0866273559896979,33.136484,33.136484,53.304100787096,86.440584787096,32.152232,12.3702782,37.254266284,44.390421368,23,5,16.578,87.096752787096,33.792652,12.3702782,37.254266284,2.684328,-12.079476,0,282, -13.6, 5.7,0,0,1002,1642,1024,1024,-3,94,0,0,276.1,-89.9,0,95,4.143,4.141,4.13,4.128,0,0,7.37,73.58,86.440584787096,33.136484,6,P-GPS,
25700,2023-05-31 18:53:12,52.2063642516486,0.0866111707861833,33.136484,33.136484,53.304100787096,86.440584787096,32.152232,12.8176662,39.89665482,48.126970044,23,5,16.578,87.096752787096,33.792652,12.8176662,39.89665482,2.684328,-12.526864,0,282.3, 3.2, 14,0,0,1024,1024,1024,1024,0,0,0,0,276.1,-89.9,0,95,4.143,4.141,4.13,4.128,0,0,7.37,73.58,86.440584787096,33.136484,6,P-GPS,
25900,2023-05-31 18:53:13,52.2063669430624,0.0865953561726362,33.136484,33.136484,53.304100787096,86.440584787096,31.824148,12.1018454,42.69521134,51.796917668,23,5,16.578,87.096752787096,33.792652,12.8176662,42.69521134,3.35541,-11.632088,0,283.6, 7.6, 12.6,0,0,1024,1024,1024,1024,0,0,0,0,276.1,-90,0,95,4.143,4.141,4.13,4.128,0,0,7.37,73.58,86.440584787096,33.136484,6,P-GPS,
26100,2023-05-31 18:53:13,52.2063697134206,0.0865808439536657,33.136484,33.136484,53.304100787096,86.440584787096,31.824148,10.961006,45.458990956,55.19521174,23,5,16.538,87.096752787096,33.792652,12.8176662,45.458990956,3.131716,-10.513618,0,281.5, 25.8, -1.5,0,0,405,1098,1024,1024,-94,11,0,0,276.1,-90,0,95,4.139,4.148,4.139,4.138,0,0,8.102,73.4,86.440584787096,33.136484,6,P-GPS,
26300,2023-05-31 18:53:13,52.2063717502521,0.0865688654240321,33.136484,33.136484,53.304100787096,86.440584787096,31.824148,8.7464354,47.732284992,57.974739388,23,5,16.538,87.096752787096,33.792652,12.8176662,47.732284992,2.013246,-8.500372,0,281.8, 29.6, -3.3,0,0,364,1092,1024,1024,-100,10,0,0,276.1,-90,0,95,4.139,4.148,4.139,4.138,0,0,8.102,73.4,86.440584787096,33.136484,6,P-GPS,
26500,2023-05-31 18:53:13,52.2063728442154,0.0865592803272561,33.136484,33.136484,53.304100787096,86.440584787096,27.230972,6.1068462,49.442586884,60.154857568,23,5,16.538,87.096752787096,33.792652,12.8176662,49.442586884,0.894776,-6.039738,0,282.8, 29.6, 0.8,0,0,364,1024,1024,1024,-100,0,0,0,276.1,-89.9,0,95,4.139,4.148,4.139,4.138,0,0,8.102,73.4,86.440584787096,33.136484,6,P-GPS,
26700,2023-05-31 18:53:13,52.2063730830358,0.0865531355752776,33.136484,33.136484,53.304100787096,86.440584787096,27.230972,3.579104,50.4347129,61.531498032,23,5,16.538,87.096752787096,33.792652,12.8176662,50.4347129,0,-3.579104,0,283.1, 28.2, 4.1,0,0,364,1024,1024,1024,-100,0,0,0,276.1,-90,0,95,4.139,4.148,4.139,4.138,0,0,8.102,73.4,86.440584787096,33.136484,6,P-GPS,
26900,2023-05-31 18:53:14,52.2063727792437,0.0865499351189669,33.136484,33.136484,53.304100787096,86.440584787096,31.824148,1.6329662,50.845474068,62.25557942,23,5,16.538,87.096752787096,33.792652,12.8176662,50.845474068,-0.447388,-1.565858,0,283.7, 28.7, 5.2,0,0,364,1024,1024,1024,-100,0,0,0,276.1,-90,0,95,4.139,4.148,4.139,4.138,0,0,8.102,73.4,86.440584787096,33.136484,6,P-GPS,
27100,2023-05-31 18:53:14,52.2063721027643,0.0865494943728006,33.136484,33.136484,53.304100787096,86.440584787096,31.824148,1.006623,50.735894012,62.52132746,23,5,16.539,87.096752787096,33.792652,12.8176662,50.845474068,-0.894776,0.447388,0,283.8, 28.9, 5.7,0,0,364,1024,1024,1024,-100,0,0,0,276.1,-89.9,0,95,4.105,4.125,4.129,4.124,0,0,7.87,73.58,86.440584787096,33.136484,6,P-GPS,
27300,2023-05-31 18:53:14,52.2063710764884,0.0865517788772729,33.136484,33.136484,53.304100787096,86.440584787096,32.152232,2.796175,50.111878244,63.15452958,23,5,16.539,87.096752787096,33.792652,12.8176662,50.845474068,-1.342164,2.460634,0,283.9, 28.8, 6,0,0,364,1024,1024,1024,-100,0,0,0,276.1,-89.9,0,95,4.105,4.125,4.129,4.124,0,0,7.87,73.58,86.440584787096,33.136484,6,P-GPS,
27500,2023-05-31 18:53:14,52.2063697763276,0.0865566452025542,33.136484,33.136484,53.304100787096,86.440584787096,32.480316,4.6080964,49.018046188,64.341537492,23,5,16.539,87.096752787096,33.792652,12.8176662,50.845474068,-1.789552,4.250186,0,284.2, 29.1, 6.1,0,0,364,1024,1024,1024,-100,0,0,0,276.1,-90,0,95,4.105,4.125,4.129,4.124,0,0,7.87,73.58,86.440584787096,33.136484,6,P-GPS,
27700,2023-05-31 18:53:14,52.2063681712267,0.0865640451053365,33.464568,33.464568,53.304100787096,86.768668787096,33.136484,6.6437118,47.463584196,66.096786892,23,5,16.539,87.096752787096,33.792652,12.8176662,50.845474068,-2.23694,6.263432,0,284.2, 29.3, 6.3,0,0,957,1024,1024,1024,-10,0,0,0,276.1,-90,0,95,4.105,4.125,4.129,4.124,0,0,7.87,73.58,86.768668787096,33.464568,6,P-GPS,
27900,2023-05-31 18:53:15,52.206366245594,0.0865742273650783,33.464568,33.464568,53.304100787096,86.768668787096,33.464568,8.4108944,45.426838724,68.4793329,23,5,16.539,87.096752787096,33.792652,12.8176662,50.845474068,-2.460634,8.052984,0,284.6, 29.7, 7.4,0,0,1024,1024,1024,1024,0,0,0,0,276.1,-89.9,0,95,4.105,4.125,4.129,4.124,0,0,7.87,73.58,86.768668787096,33.464568,6,P-GPS,
28100,2023-05-31 18:53:15,52.2063642428161,0.0865860325626985,33.464568,33.464568,53.304100787096,86.768668787096,34.120736,9.7754278,43.175198232,71.217850048,23,5,16.507,87.096752787096,33.792652,12.8176662,50.845474068,-2.684328,9.395148,-0.223694,283.7, -5, 7.6,0,0,862,1684,1024,1024,-25,100,0,0,276.1,-89.9,0,95,4.122,4.131,4.126,4.128,0,0,8.563,73.58,86.768668787096,33.464568,6,P-GPS,
28300,2023-05-31 18:53:15,52.2063625552927,0.0865973278435095,33.792652,33.792652,53.304100787096,87.096752787096,34.776904,7.605596,41.143045936,73.81725958,23,5,16.507,87.096752787096,33.792652,12.8176662,50.845474068,-1.789552,7.381902,-0.671082,280, -26.3, 14,0,0,979,1024,1024,1024,-7,0,0,0,276.1,-89.9,0,95,4.122,4.131,4.126,4.128,0,0,8.563,73.58,87.096752787096,33.792652,6,P-GPS,
28500,2023-05-31 18:53:15,52.2063616912917,0.0866060845281736,33.792652,33.792652,53.304100787096,87.096752787096,34.776904,5.6370888,39.746720432,75.80052736,23,5,16.507,87.096752787096,33.792652,12.8176662,50.845474068,-0.671082,5.59235,0.223694,277.4, -21.7, 21.1,0,0,1024,1024,1024,1024,0,0,0,0,276.1,-89.9,0,95,4.122,4.131,4.126,4.128,0,0,8.563,73.58,87.096752787096,33.792652,6,P-GPS,
28700,2023-05-31 18:53:15,52.2063619151885,0.0866119145313594,33.792652,33.792652,53.304100787096,87.096752787096,35.104988,3.131716,39.08956818,77.106629764,23,5,16.507,87.096752787096,33.792652,12.8176662,50.845474068,0.223694,3.131716,0,284.7, -29, -3.3,0,0,963,1573,1024,1024,-9,83,0,0,276.1,-90,0,95,4.122,4.131,4.126,4.128,0,0,8.563,73.58,87.096752787096,33.792652,6,P-GPS,
28900,2023-05-31 18:53:16,52.2063625098194,0.0866147186124862,33.792652,33.792652,53.304100787096,87.096752787096,32.152232,1.11847,38.935696784,77.770015612,23,5,16.507,87.096752787096,33.792652,12.8176662,50.845474068,0,1.11847,0,281.7, -11.8, 3.3,0,0,1024,1081,1024,1024,0,9,0,0,276.1,-90,0,95,4.122,4.131,4.126,4.128,0,0,8.563,73.58,87.096752787096,33.792652,6,P-GPS,
29100,2023-05-31 18:53:16,52.2063632670765,0.0866157284856999,33.792652,33.792652,53.304100787096,87.096752787096,32.480316,0.6263432,39.05183852,78.12664292,23,5,16.451,87.096752787096,33.792652,12.8176662,50.845474068,0.447388,0.447388,0,281.7, -2.7, 16.5,0,0,1024,1024,1024,1024,0,0,0,0,276.1,-89.9,0,95,4.099,4.121,4.142,4.174,0,0,8.981,73.58,87.096752787096,33.792652,6,P-GPS,
29300,2023-05-31 18:53:16,52.2063645651727,0.0866162232766733,33.792652,33.792652,53.304100787096,87.096752787096,32.480316,0.9171454,39.399279476,78.613191492,22,5,16.451,87.096752787096,33.792652,12.8176662,50.845474068,0.894776,0.223694,0,283.1, -0.4, -4.1,0,0,692,1628,1024,1024,-50,92,0,0,276.1,-90,0,95,4.099,4.121,4.142,4.174,0,0,8.981,73.58,87.096752787096,33.792652,6,P-GPS,
29500,2023-05-31 18:53:16,52.2063654698495,0.0866162759305186,33.792652,33.792652,53.304100787096,87.096752787096,32.152232,0.223694,39.676510456,78.94357208,23,5,16.451,87.096752787096,33.792652,12.8176662,50.845474068,0.223694,0,0,282, 0.2, 4,0,0,1024,1024,1024,1024,0,0,0,0,276.1,-90,0,95,4.099,4.121,4.142,4.174,0,0,8.981,73.58,87.096752787096,33.792652,6,P-GPS,
29700,2023-05-31 18:53:16,52.2063663511729,0.0866161698050263,33.464568,33.464568,53.304100787096,86.768668787096,31.824148,0.894776,39.964896292,79.265750568,23,5,16.451,87.096752787096,33.792652,12.8176662,50.845474068,0.894776,0,0,282.8, 4.3, 11.2,0,0,1024,1024,1024,1024,0,0,0,0,276.1,-89.9,0,95,4.099,4.121,4.142,4.174,0,0,8.981,73.58,86.768668787096,33.464568,6,P-GPS,
29900,2023-05-31 18:53:17,52.2063673870524,0.0866162633629341,33.464568,33.464568,53.304100787096,86.768668787096,31.824148,0.447388,40.2805131,79.644359504,23,5,16.451,87.096752787096,33.792652,12.8176662,50.845474068,0.447388,0,0,282.6, 0.5, -5.2,0,0,1024,1024,1024,1024,0,0,0,0,276.1,-89.9,0,95,4.099,4.121,4.142,4.174,0,0,8.981,73.58,86.768668787096,33.464568,6,P-GPS,
30100,2023-05-31 18:53:17,52.2063678959197,0.0866159873793381,33.464568,33.464568,53.304100787096,86.768668787096,31.496064,0,40.471786072,79.839897568,23,5,16.475,87.096752787096,33.792652,12.8176662,50.845474068,0,0,0,282.2, 0.9, -1.2,0,0,1024,1024,1024,1024,0,0,0,0,276.1,-90,0,95,4.106,4.139,4.115,4.142,0,0,8.711,73.76,86.768668787096,33.464568,6,P-GPS,
30300,2023-05-31 18:53:17,52.2063681166039,0.0866154896736357,33.464568,33.464568,53.304100787096,86.768668787096,31.496064,0.223694,40.597442244,79.977364764,23,5,16.475,87.096752787096,33.792652,12.8176662,50.845474068,0,-0.223694,0,282.4, 4.4, 3.1,0,0,1024,1024,1024,1024,0,0,0,0,276.1,-90,0,95,4.106,4.139,4.115,4.142,0,0,8.711,73.76,86.768668787096,33.464568,6,P-GPS,
30500,2023-05-31 18:53:17,52.2063682266548,0.0866150958567031,33.464568,33.464568,53.304100787096,86.768668787096,31.496064,0,40.676510488,80.074149544,23,5,16.475,87.096752787096,33.792652,12.8176662,50.845474068,0,0,0,282.5, 4.2, 4.8,0,0,1024,1024,1024,1024,0,0,0,0,276.1,-90,0,95,4.106,4.139,4.115,4.142,0,0,8.711,73.76,86.768668787096,33.464568,6,P-GPS,
30700,2023-05-31 18:53:17,52.2063683680692,0.0866148582049387,33.464568,33.464568,53.304100787096,86.768668787096,31.496064,0,40.7480328,80.148296528,23,5,16.475,87.096752787096,33.792652,12.8176662,50.845474068,0,0,0,282.8, 4.1, 5.7,0,0,1024,1024,1024,1024,0,0,0,0,276.1,-90,0,95,4.106,4.139,4.115,4.142,0,0,8.711,73.76,86.768668787096,33.464568,6,P-GPS,
30900,2023-05-31 18:53:18,52.2063685391766,0.0866147887616952,33.464568,33.464568,53.304100787096,86.768668787096,31.824148,0,40.809712592,80.212600992,23,5,16.475,87.096752787096,33.792652,12.8176662,50.845474068,0,0,0,282.6, 3.5, 6.1,0,0,1024,1024,1024,1024,0,0,0,0,276.1,-89.8,0,95,4.106,4.139,4.115,4.142,0,0,8.711,73.76,86.768668787096,33.464568,6,P-GPS,
31100,2023-05-31 18:53:18,52.2063687729682,0.0866148835358209,33.464568,33.464568,53.304100787096,86.768668787096,31.824148,0,40.87270472,80.300527504,23,5,16.47,87.096752787096,33.792652,12.8176662,50.845474068,0,0,0,282.4, 2.5, 6.5,0,0,1024,1024,1024,1024,0,0,0,0,276.1,-88.3,0,95,4.103,4.144,4.13,4.139,0,0,8.074,73.76,86.768668787096,33.464568,6,P-GPS,
31300,2023-05-31 18:53:18,52.2063691779358,0.0866150021869592,33.464568,33.464568,53.304100787096,86.768668787096,31.824148,0,40.986877952,80.450461892,23,5,16.47,87.096752787096,33.792652,12.8176662,50.845474068,0,0,0,282.3, 2.1, 6.2,0,0,1024,1024,1024,1024,0,0,0,0,276.1,-87.2,0,95,4.103,4.144,4.13,4.139,0,0,8.074,73.76,86.768668787096,33.464568,6,P-GPS,
31500,2023-05-31 18:53:18,52.2063696911894,0.0866151429886398,33.464568,33.464568,53.304100787096,86.768668787096,31.824148,0,41.133203416,80.640422528,23,5,16.47,87.096752787096,33.792652,12.8176662,50.845474068,0,0,0,282.3, 2.4, 5.7,0,0,1024,1024,1024,1024,0,0,0,0,276.1,-86.9,0,95,4.103,4.144,4.13,4.139,0,0,8.074,73.76,86.768668787096,33.464568,6,P-GPS,
31700,2023-05-31 18:53:18,52.2063702261773,0.0866153304539433,33.136484,33.136484,53.304100787096,86.440584787096,31.824148,0,41.281497384,80.840225684,23,5,16.47,87.096752787096,33.792652,12.8176662,50.845474068,0,0,0,282.5, 2.1, 4.5,0,0,1024,1024,1024,1024,0,0,0,0,276.1,-86.9,0,95,4.103,4.144,4.13,4.139,0,0,8.074,73.76,86.440584787096,33.136484,6,P-GPS,
31900,2023-05-31 18:53:19,52.2063707480407,0.0866155555311335,33.136484,33.136484,53.304100787096,86.440584787096,31.824148,0,41.42224542,81.037076084,23,5,16.47,87.096752787096,33.792652,12.8176662,50.845474068,0,0,0,282.3, 1.1, 4.6,0,0,1024,1024,1024,1024,0,0,0,0,276.1,-87.9,0,95,4.103,4.144,4.13,4.139,0,0,8.074,73.76,86.440584787096,33.136484,6,P-GPS,
32100,2023-05-31 18:53:19,52.2063712157782,0.0866157147228668,33.136484,33.136484,53.304100787096,86.440584787096,31.824148,0,41.553150936,81.211288688,23,5,16.547,87.096752787096,33.792652,12.8176662,50.845474068,0,0,0,282.6, 2.7, 4.2,0,0,1024,1024,1024,1024,0,0,0,0,276.1,-89.9,0,95,4.142,4.149,4.142,4.144,0,0,7.433,73.76,86.440584787096,33.136484,6,P-GPS,
32300,2023-05-31 18:53:19,52.206371612196,0.0866159052147355,33.136484,33.136484,53.304100787096,86.440584787096,31.824148,0,41.658137816,81.362207328,23,5,16.547,87.096752787096,33.792652,12.8176662,50.845474068,0,0,0,282.6, 2.5, 4.3,0,0,1024,1024,1024,1024,0,0,0,0,276.1,-89.9,0,95,4.142,4.149,4.142,4.144,0,0,7.433,73.76,86.440584787096,33.136484,6,P-GPS,
32500,2023-05-31 18:53:19,52.2063719138292,0.0866161694904872,33.136484,33.136484,53.304100787096,86.440584787096,31.824148,0,41.725395036,81.486879248,23,5,16.547,87.096752787096,33.792652,12.8176662,50.845474068,0,0,0,282.4, 1.6, 4.7,0,0,1024,1024,1024,1024,0,0,0,0,276.1,-89.9,0,95,4.142,4.149,4.142,4.144,0,0,7.433,73.76,86.440584787096,33.136484,6,P-GPS,
32700,2023-05-31 18:53:19,52.2063721499681,0.086616429090091,33.136484,33.136484,53.304100787096,86.440584787096,31.824148,0,41.772639132,81.590881876,23,5,16.547,87.096752787096,33.792652,12.8176662,50.845474068,0,0,0,282.3, 1.2, 5.3,0,0,1024,1024,1024,1024,0,0,0,0,276.1,-90,0,95,4.142,4.149,4.142,4.144,0,0,7.433,73.76,86.440584787096,33.136484,6,P-GPS,
32900,2023-05-31 18:53:20,52.2063723913244,0.0866166226364838,33.136484,33.136484,53.304100787096,86.440584787096,31.824148,0,41.828741496,81.688978992,23,5,16.547,87.096752787096,33.792652,12.8176662,50.845474068,0,0,0,282.4, 1.4, 5.3,0,0,1024,1024,1024,1024,0,0,0,0,276.1,-89.9,0,95,4.142,4.149,4.142,4.144,0,0,7.433,73.76,86.440584787096,33.136484,6,P-GPS,
33100,2023-05-31 18:53:20,52.2063726104066,0.0866167728743374,33.136484,33.136484,53.304100787096,86.440584787096,31.824148,0,41.882547272,81.775593168,23,5,16.576,87.096752787096,33.792652,12.8176662,50.845474068,0,0,0,282.4, 2.2, 5.7,0,0,1024,1024,1024,1024,0,0,0,0,276.1,-90,0,94,4.136,4.143,4.136,4.139,0,0,7.032,73.94,86.440584787096,33.136484,6,P-GPS,
33300,2023-05-31 18:53:20,52.2063728904511,0.0866168872547336,33.136484,33.136484,53.304100787096,86.440584787096,31.824148,0,41.959647012,81.880908132,23,5,16.576,87.096752787096,33.792652,12.8176662,50.845474068,0,0,0,282.6, 2.7, 5.4,0,0,1024,1024,1024,378,0,0,0,-98,276.1,-90,0,94,4.136,4.143,4.136,4.139,0,0,7.032,73.94,86.440584787096,33.136484,6,P-GPS,
33500,2023-05-31 18:53:20,52.2063731402458,0.0866170079119324,33.136484,33.136484,53.304100787096,86.440584787096,31.824148,0,42.026576148,81.976052492,23,5,16.576,87.096752787096,33.792652,12.8176662,50.845474068,0,0,0,282.6, 2.6, 5.9,0,0,1024,1024,1024,1024,0,0,0,0,269.7,-90,0,94,4.136,4.143,4.136,4.139,0,0,7.032,73.94,86.440584787096,33.136484,6,P-GPS,
33700,2023-05-31 18:53:20,52.206373372187,0.0866170622503093,33.136484,33.136484,53.304100787096,86.440584787096,31.824148,0,42.095145704,82.061682416,23,5,16.576,87.096752787096,33.792652,12.8176662,50.845474068,0,0,0,277.9, 3.4, 6,0,0,1024,1024,1024,1024,0,0,0,0,268.1,-89.9,0,94,4.136,4.143,4.136,4.139,0,0,7.032,73.94,86.440584787096,33.136484,6,P-GPS,
33900,2023-05-31 18:53:21,52.2063736386187,0.0866170911529577,33.136484,33.136484,53.304100787096,86.440584787096,31.824148,0,42.177494788,82.159123364,23,5,16.576,87.096752787096,33.792652,12.8176662,50.845474068,0,0,0,274.3, 3.8, 6,0,0,1024,1024,1019,1617,0,0,-1,90,268.1,-90,0,94,4.136,4.143,4.136,4.139,0,0,7.032,73.94,86.440584787096,33.136484,6,P-GPS,
34100,2023-05-31 18:53:21,52.2063738707397,0.0866171098086212,33.136484,33.136484,53.304100787096,86.440584787096,31.824148,0,42.250001352,82.243769036,23,5,16.56,87.096752787096,33.792652,12.8176662,50.845474068,0,0,0,274.7, 4.5, 5.3,0,0,1024,1024,1024,1346,0,0,0,49,274.2,-90,0,94,4.133,4.145,4.139,4.141,0,0,7.201,73.94,86.440584787096,33.136484,6,P-GPS,
34300,2023-05-31 18:53:21,52.2063740427895,0.0866172014792944,33.136484,33.136484,53.304100787096,86.440584787096,31.824148,0,42.295605028,82.30971392,23,5,16.56,87.096752787096,33.792652,12.8176662,50.845474068,0,0,0,278.2, 4.1, 5.6,0,0,1024,1024,1024,1024,0,0,0,0,278.9,-90,0,94,4.133,4.145,4.139,4.141,0,0,7.201,73.94,86.440584787096,33.136484,6,P-GPS,
34500,2023-05-31 18:53:21,52.2063741259916,0.086617354778662,33.464568,33.464568,53.304100787096,86.768668787096,31.824148,0,42.306103716,82.35564568,24,5,16.56,87.096752787096,33.792652,12.8176662,50.845474068,0,0,0,286.2, 3.9, 6.9,0,0,1024,1024,1024,1297,0,0,0,41,279.1,-89.9,0,94,4.133,4.145,4.139,4.141,0,0,7.201,73.94,86.768668787096,33.464568,6,P-GPS,
34700,2023-05-31 18:53:21,52.2063741430569,0.0866175497230063,33.464568,33.464568,53.304100787096,86.768668787096,31.824148,0,42.290683768,82.399608936,24,5,16.56,87.096752787096,33.792652,12.8176662,50.845474068,0,0,0,285.4, 3.3, 7.4,0,0,1024,1024,1024,1024,0,0,0,0,280.5,-90,0,94,4.133,4.145,4.139,4.141,0,0,7.201,73.94,86.768668787096,33.464568,6,P-GPS,
34900,2023-05-31 18:53:22,52.2063741711736,0.0866177781692597,33.464568,33.464568,53.304100787096,86.768668787096,31.824148,0,42.275591904,82.451774292,24,5,16.56,87.096752787096,33.792652,12.8176662,50.845474068,0,0,0,287, 2.8, 8.1,0,0,1024,1024,1024,1024,0,0,0,0,280.6,-89.9,0,94,4.133,4.145,4.139,4.141,0,0,7.201,73.94,86.768668787096,33.464568,6,P-GPS,
35100,2023-05-31 18:53:22,52.20637420796,0.0866180749823339,33.464568,33.464568,53.304100787096,86.768668787096,31.824148,0,42.256234948,82.519359596,24,5,16.536,87.096752787096,33.792652,12.8176662,50.845474068,0,0,0,287, 1.9, 8.4,0,0,1024,1024,939,364,0,0,-13,-100,280,-90,0,94,4.133,4.14,4.135,4.139,0,0,7.292,73.94,86.768668787096,33.464568,6,P-GPS,
